[
    {
        "id": 95119,
        "wikiDataId": "Q331438",
        "type": "CITY",
        "city": "Abrigada",
        "name": "Abrigada",
        "latitude": 39.144722222,
        "longitude": -9.018611111
    },
    {
        "id": 3091588,
        "wikiDataId": "Q32652",
        "type": "ADM2",
        "city": "Adão",
        "name": "Adão",
        "latitude": 40.459166666,
        "longitude": -7.165
    },
    {
        "id": 3051273,
        "wikiDataId": "Q397872",
        "type": "CITY",
        "city": "Agualva",
        "name": "Agualva",
        "latitude": 38.770044444,
        "longitude": -9.298811111
    },
    {
        "id": 95492,
        "wikiDataId": "Q175373",
        "type": "CITY",
        "city": "Aguiar da Beira",
        "name": "Aguiar da Beira",
        "latitude": 40.81726,
        "longitude": -7.54431
    },
    {
        "id": 3101843,
        "wikiDataId": "Q175373",
        "type": "CITY",
        "city": "Aguiar da Beira",
        "name": "Aguiar da Beira",
        "latitude": 40.816666666,
        "longitude": -7.55
    },
    {
        "id": 2980750,
        "wikiDataId": "Q413311",
        "type": "ADM2",
        "city": "Ajuda",
        "name": "Ajuda",
        "latitude": 38.7075,
        "longitude": -9.198333333
    },
    {
        "id": 2977304,
        "wikiDataId": "Q32676",
        "type": "CITY",
        "city": "Albardo",
        "name": "Albardo",
        "latitude": 40.51145,
        "longitude": -7.13028
    },
    {
        "id": 94961,
        "wikiDataId": "Q31877422",
        "type": "CITY",
        "city": "Alcabideche",
        "name": "Alcabideche",
        "latitude": 38.733611111,
        "longitude": -9.409166666
    },
    {
        "id": 94796,
        "wikiDataId": "Q1024258",
        "type": "CITY",
        "city": "Alcains",
        "name": "Alcains",
        "latitude": 39.915402777,
        "longitude": -7.461077777
    },
    {
        "id": 94872,
        "wikiDataId": "Q31877572",
        "type": "CITY",
        "city": "Alcoentre",
        "name": "Alcoentre",
        "latitude": 39.208611111,
        "longitude": -8.959444444
    },
    {
        "id": 3043050,
        "wikiDataId": "Q1017927",
        "type": "ADM2",
        "city": "Alcântara",
        "name": "Alcântara",
        "latitude": 38.706388888,
        "longitude": -9.174166666
    },
    {
        "id": 3077033,
        "wikiDataId": "Q2119101",
        "type": "CITY",
        "city": "Aldeia Galega da Merceana",
        "name": "Aldeia Galega da Merceana",
        "latitude": 39.082222222,
        "longitude": -9.111944444
    },
    {
        "id": 2997092,
        "wikiDataId": "Q2119745",
        "type": "CITY",
        "city": "Aldeia Gavinha",
        "name": "Aldeia Gavinha",
        "latitude": 39.084444444,
        "longitude": -9.096388888
    },
    {
        "id": 3062644,
        "wikiDataId": "Q61742386",
        "type": "CITY",
        "city": "Aldeia Nova, Miranda do Douro",
        "name": "Aldeia Nova, Miranda do Douro",
        "latitude": 40.72584,
        "longitude": -7.42384
    },
    {
        "id": 3060303,
        "wikiDataId": "Q1759365",
        "type": "ADM2",
        "city": "Aldeia Velha",
        "name": "Aldeia Velha",
        "latitude": 40.343333333,
        "longitude": -6.8675
    },
    {
        "id": 3053974,
        "wikiDataId": "Q32581",
        "type": "ADM2",
        "city": "Aldeia Viçosa",
        "name": "Aldeia Viçosa",
        "latitude": 40.578888888,
        "longitude": -7.317777777
    },
    {
        "id": 3065122,
        "wikiDataId": "Q1523604",
        "type": "ADM2",
        "city": "Aldeia da Ponte",
        "name": "Aldeia da Ponte",
        "latitude": 40.413488888,
        "longitude": -6.869083333
    },
    {
        "id": 2985857,
        "wikiDataId": "Q2120278",
        "type": "CITY",
        "city": "Aldeia da Ribeira",
        "name": "Aldeia da Ribeira",
        "latitude": 40.456666666,
        "longitude": -6.897777777
    },
    {
        "id": 3068390,
        "wikiDataId": "Q1507986",
        "type": "CITY",
        "city": "Aldeia de Santo António",
        "name": "Aldeia de Santo António",
        "latitude": 40.343055555,
        "longitude": -7.136388888
    },
    {
        "id": 3058361,
        "wikiDataId": "Q664597",
        "type": "ADM2",
        "city": "Aldeia do Bispo",
        "name": "Aldeia do Bispo",
        "latitude": 40.323333333,
        "longitude": -6.848055555
    },
    {
        "id": 3095281,
        "wikiDataId": "Q32572",
        "type": "ADM2",
        "city": "Aldeia do Bispo",
        "name": "Aldeia do Bispo",
        "latitude": 40.49157,
        "longitude": -7.27403
    },
    {
        "id": 3069199,
        "wikiDataId": "Q32638",
        "type": "CITY",
        "city": "Aldeias",
        "name": "Aldeias",
        "latitude": 40.468611111,
        "longitude": -7.598055555
    },
    {
        "id": 95004,
        "wikiDataId": "Q988830",
        "type": "CITY",
        "city": "Alenquer",
        "name": "Alenquer",
        "latitude": 39.05,
        "longitude": -9.016666666
    },
    {
        "id": 3097284,
        "wikiDataId": "Q31878333",
        "type": "CITY",
        "city": "Alenquer",
        "name": "Alenquer",
        "latitude": 39.053055555,
        "longitude": -9.009166666
    },
    {
        "id": 3066814,
        "wikiDataId": "Q2120310",
        "type": "ADM2",
        "city": "Alfaiates",
        "name": "Alfaiates",
        "latitude": 40.391111111,
        "longitude": -6.913333333
    },
    {
        "id": 3065228,
        "wikiDataId": "Q1021359",
        "type": "CITY",
        "city": "Alfornelos",
        "name": "Alfornelos",
        "latitude": 38.763333333,
        "longitude": -9.206388888
    },
    {
        "id": 95341,
        "wikiDataId": "Q1982948",
        "type": "ADM2",
        "city": "Alfragide",
        "name": "Alfragide",
        "latitude": 38.73203,
        "longitude": -9.2192
    },
    {
        "id": 3043856,
        "wikiDataId": "Q23989",
        "type": "CITY",
        "city": "Algodres",
        "name": "Algodres",
        "latitude": 40.9525,
        "longitude": -7.054722222
    },
    {
        "id": 3063183,
        "wikiDataId": "Q32587",
        "type": "ADM2",
        "city": "Algodres",
        "name": "Algodres",
        "latitude": 40.646111111,
        "longitude": -7.516388888
    },
    {
        "id": 2981673,
        "wikiDataId": "Q2119125",
        "type": "ADM2",
        "city": "Alguber",
        "name": "Alguber",
        "latitude": 39.275833333,
        "longitude": -9.018888888
    },
    {
        "id": 94699,
        "type": "CITY",
        "city": "Algueirão",
        "name": "Algueirão",
        "latitude": 38.79764,
        "longitude": -9.3437
    },
    {
        "id": 3000086,
        "wikiDataId": "Q180972",
        "type": "CITY",
        "city": "Algueirão–Mem Martins",
        "name": "Algueirão–Mem Martins",
        "latitude": 38.794113888,
        "longitude": -9.345108333
    },
    {
        "id": 3007094,
        "wikiDataId": "Q1975409",
        "type": "CITY",
        "city": "Algés",
        "name": "Algés",
        "latitude": 38.699497222,
        "longitude": -9.229272222
    },
    {
        "id": 94983,
        "wikiDataId": "Q1803660",
        "type": "CITY",
        "city": "Alhandra",
        "name": "Alhandra",
        "latitude": 38.92732,
        "longitude": -9.00864
    },
    {
        "id": 94784,
        "wikiDataId": "Q31879382",
        "type": "CITY",
        "city": "Almargem",
        "name": "Almargem",
        "latitude": 38.844722222,
        "longitude": -9.273055555
    },
    {
        "id": 3088651,
        "wikiDataId": "Q2119224",
        "type": "CITY",
        "city": "Almargem do Bispo",
        "name": "Almargem do Bispo",
        "latitude": 38.8475,
        "longitude": -9.271388888
    },
    {
        "id": 160145,
        "wikiDataId": "Q617889",
        "type": "CITY",
        "city": "Almeida",
        "name": "Almeida",
        "latitude": 40.7307,
        "longitude": -6.90594
    },
    {
        "id": 3037742,
        "wikiDataId": "Q1999034",
        "type": "ADM2",
        "city": "Almeida",
        "name": "Almeida",
        "latitude": 40.726388888,
        "longitude": -6.906944444
    },
    {
        "id": 3005704,
        "wikiDataId": "Q2120319",
        "type": "CITY",
        "city": "Almendra",
        "name": "Almendra",
        "latitude": 40.992844444,
        "longitude": -7.057569444
    },
    {
        "id": 2995807,
        "wikiDataId": "Q24018",
        "type": "CITY",
        "city": "Almofala",
        "name": "Almofala",
        "latitude": 40.860277777,
        "longitude": -6.848611111
    },
    {
        "id": 2992110,
        "wikiDataId": "Q443627",
        "type": "CITY",
        "city": "Alto do Pina",
        "name": "Alto do Pina",
        "latitude": 38.740277777,
        "longitude": -9.128055555
    },
    {
        "id": 95299,
        "wikiDataId": "Q448231",
        "type": "ADM2",
        "city": "Alvalade",
        "name": "Alvalade",
        "latitude": 38.746944444,
        "longitude": -9.136111111
    },
    {
        "id": 3023653,
        "wikiDataId": "Q32565",
        "type": "ADM2",
        "city": "Alvendre",
        "name": "Alvendre",
        "latitude": 40.585,
        "longitude": -7.258333333
    },
    {
        "id": 3077002,
        "wikiDataId": "Q1430189",
        "type": "CITY",
        "city": "Alverca da Beira",
        "name": "Alverca da Beira",
        "latitude": 40.700555555,
        "longitude": -7.2175
    },
    {
        "id": 3063964,
        "wikiDataId": "Q431690",
        "type": "CITY",
        "city": "Alverca do Ribatejo",
        "name": "Alverca do Ribatejo",
        "latitude": 38.898661111,
        "longitude": -9.039477777
    },
    {
        "id": 3054078,
        "wikiDataId": "Q449532",
        "type": "ADM2",
        "city": "Alvoco da Serra",
        "name": "Alvoco da Serra",
        "latitude": 40.295555555,
        "longitude": -7.670277777
    },
    {
        "id": 94812,
        "wikiDataId": "Q189166",
        "type": "CITY",
        "city": "Amadora",
        "name": "Amadora",
        "latitude": 38.75,
        "longitude": -9.233333333
    },
    {
        "id": 3004077,
        "wikiDataId": "Q31880872",
        "type": "CITY",
        "city": "Amadora",
        "name": "Amadora",
        "latitude": 38.75382,
        "longitude": -9.23083
    },
    {
        "id": 3060928,
        "wikiDataId": "Q461261",
        "type": "CITY",
        "city": "Ameixoeira",
        "name": "Ameixoeira",
        "latitude": 38.787777777,
        "longitude": -9.1525
    },
    {
        "id": 3082708,
        "wikiDataId": "Q23993",
        "type": "CITY",
        "city": "Amoreira",
        "name": "Amoreira",
        "latitude": 40.588055555,
        "longitude": -7.015555555
    },
    {
        "id": 2977383,
        "wikiDataId": "Q551464",
        "type": "CITY",
        "city": "Anjos",
        "name": "Anjos",
        "latitude": 38.723888888,
        "longitude": -9.136388888
    },
    {
        "id": 3093960,
        "wikiDataId": "Q618141",
        "type": "CITY",
        "city": "Apelação",
        "name": "Apelação",
        "latitude": 38.815,
        "longitude": -9.13249
    },
    {
        "id": 3010296,
        "wikiDataId": "Q32628",
        "type": "ADM2",
        "city": "Arcozelo",
        "name": "Arcozelo",
        "latitude": 40.540555555,
        "longitude": -7.627222222
    },
    {
        "id": 95114,
        "wikiDataId": "Q699206",
        "type": "CITY",
        "city": "Arranhó",
        "name": "Arranhó",
        "latitude": 38.953716666,
        "longitude": -9.134977777
    },
    {
        "id": 3082051,
        "wikiDataId": "Q32672",
        "type": "ADM2",
        "city": "Arrifana",
        "name": "Arrifana",
        "latitude": 40.569722222,
        "longitude": -7.210277777
    },
    {
        "id": 160237,
        "type": "ADM2",
        "city": "Arruda Dos Vinhos",
        "name": "Arruda Dos Vinhos",
        "latitude": 38.97172,
        "longitude": -9.08807
    },
    {
        "id": 94851,
        "wikiDataId": "Q703854",
        "type": "CITY",
        "city": "Arruda dos Vinhos",
        "name": "Arruda dos Vinhos",
        "latitude": 38.983333333,
        "longitude": -9.066666666
    },
    {
        "id": 2977372,
        "wikiDataId": "Q2128088",
        "type": "ADM2",
        "city": "Arruda dos Vinhos",
        "name": "Arruda dos Vinhos",
        "latitude": 38.983055555,
        "longitude": -9.077777777
    },
    {
        "id": 3069237,
        "wikiDataId": "Q753268",
        "type": "CITY",
        "city": "Atalaia",
        "name": "Atalaia",
        "latitude": 40.66,
        "longitude": -7.033055555
    },
    {
        "id": 3092415,
        "wikiDataId": "Q753265",
        "type": "CITY",
        "city": "Atalaia",
        "name": "Atalaia",
        "latitude": 39.235,
        "longitude": -9.331388888
    },
    {
        "id": 3085013,
        "wikiDataId": "Q790339",
        "type": "ADM2",
        "city": "Aveiras de Baixo",
        "name": "Aveiras de Baixo",
        "latitude": 39.111388888,
        "longitude": -8.869166666
    },
    {
        "id": 94781,
        "wikiDataId": "Q790340",
        "type": "CITY",
        "city": "Aveiras de Cima",
        "name": "Aveiras de Cima",
        "latitude": 39.137694444,
        "longitude": -8.899955555
    },
    {
        "id": 2976237,
        "wikiDataId": "Q790400",
        "type": "ADM2",
        "city": "Aveloso",
        "name": "Aveloso",
        "latitude": 40.931111111,
        "longitude": -7.316666666
    },
    {
        "id": 3055490,
        "wikiDataId": "Q32654",
        "type": "ADM2",
        "city": "Avelãs da Ribeira",
        "name": "Avelãs da Ribeira",
        "latitude": 40.67773,
        "longitude": -7.21492
    },
    {
        "id": 94871,
        "wikiDataId": "Q634164",
        "type": "CITY",
        "city": "Azambuja",
        "name": "Azambuja",
        "latitude": 39.066666666,
        "longitude": -8.866666666
    },
    {
        "id": 3088945,
        "wikiDataId": "Q31894609",
        "type": "CITY",
        "city": "Azambuja (town)",
        "name": "Azambuja (town)",
        "latitude": 39.070277777,
        "longitude": -8.868333333
    },
    {
        "id": 3024411,
        "wikiDataId": "Q1648341",
        "type": "CITY",
        "city": "Azenhas do Mar",
        "name": "Azenhas do Mar",
        "latitude": 38.84055556,
        "longitude": -9.46
    },
    {
        "id": 3060658,
        "wikiDataId": "Q651803",
        "type": "CITY",
        "city": "Azevo",
        "name": "Azevo",
        "latitude": 40.851666666,
        "longitude": -7.131388888
    },
    {
        "id": 3029045,
        "wikiDataId": "Q31894809",
        "type": "ADM2",
        "city": "Azueira",
        "name": "Azueira",
        "latitude": 39.00653,
        "longitude": -9.27475
    },
    {
        "id": 3084981,
        "wikiDataId": "Q23978",
        "type": "CITY",
        "city": "Açores",
        "name": "Açores",
        "latitude": 40.645,
        "longitude": -7.305277777
    },
    {
        "id": 2968259,
        "wikiDataId": "Q807296",
        "type": "ADM2",
        "city": "Baraçal",
        "name": "Baraçal",
        "latitude": 40.39357,
        "longitude": -7.08522
    },
    {
        "id": 3010354,
        "wikiDataId": "Q23976",
        "type": "ADM2",
        "city": "Baraçal",
        "name": "Baraçal",
        "latitude": 40.681944444,
        "longitude": -7.328055555
    },
    {
        "id": 94694,
        "wikiDataId": "Q31910854",
        "type": "CITY",
        "city": "Barcarena",
        "name": "Barcarena",
        "latitude": 38.7325,
        "longitude": -9.28
    },
    {
        "id": 2999231,
        "wikiDataId": "Q808848",
        "type": "ADM2",
        "city": "Barreira",
        "name": "Barreira",
        "latitude": 40.911111111,
        "longitude": -7.186388888
    },
    {
        "id": 3032244,
        "wikiDataId": "Q686717",
        "type": "ADM2",
        "city": "Beato",
        "name": "Beato",
        "latitude": 38.734722222,
        "longitude": -9.105833333
    },
    {
        "id": 94897,
        "wikiDataId": "Q815283",
        "type": "CITY",
        "city": "Belas",
        "name": "Belas",
        "latitude": 38.766666666,
        "longitude": -9.266666666
    },
    {
        "id": 2993188,
        "wikiDataId": "Q816746",
        "type": "ADM2",
        "city": "Bendada",
        "name": "Bendada",
        "latitude": 40.370833333,
        "longitude": -7.254722222
    },
    {
        "id": 3055959,
        "wikiDataId": "Q32612",
        "type": "ADM2",
        "city": "Benespera",
        "name": "Benespera",
        "latitude": 40.440277777,
        "longitude": -7.276388888
    },
    {
        "id": 94681,
        "wikiDataId": "Q534230",
        "type": "ADM2",
        "city": "Benfica",
        "name": "Benfica",
        "latitude": 38.751111111,
        "longitude": -9.202222222
    },
    {
        "id": 3056742,
        "wikiDataId": "Q866595",
        "type": "ADM2",
        "city": "Bismula",
        "name": "Bismula",
        "latitude": 40.446944444,
        "longitude": -6.964444444
    },
    {
        "id": 3066981,
        "wikiDataId": "Q888361",
        "type": "CITY",
        "city": "Bobadela",
        "name": "Bobadela",
        "latitude": 38.80663,
        "longitude": -9.09731
    },
    {
        "id": 2985881,
        "wikiDataId": "Q895329",
        "type": "CITY",
        "city": "Bouça Cova",
        "name": "Bouça Cova",
        "latitude": 40.70464,
        "longitude": -7.2383
    },
    {
        "id": 3063988,
        "wikiDataId": "Q266202",
        "type": "CITY",
        "city": "Brandoa",
        "name": "Brandoa",
        "latitude": 38.766111111,
        "longitude": -9.214444444
    },
    {
        "id": 94690,
        "wikiDataId": "Q997658",
        "type": "CITY",
        "city": "Bucelas",
        "name": "Bucelas",
        "latitude": 38.9,
        "longitude": -9.116666666
    },
    {
        "id": 3000026,
        "wikiDataId": "Q1010176",
        "type": "CITY",
        "city": "Buraca",
        "name": "Buraca",
        "latitude": 38.742222222,
        "longitude": -9.209444444
    },
    {
        "id": 94966,
        "wikiDataId": "Q1024717",
        "type": "CITY",
        "city": "Cabanas de Torres",
        "name": "Cabanas de Torres",
        "latitude": 39.15631,
        "longitude": -9.06328
    },
    {
        "id": 3091885,
        "wikiDataId": "Q1024799",
        "type": "CITY",
        "city": "Cabeça",
        "name": "Cabeça",
        "latitude": 40.319166666,
        "longitude": -7.735277777
    },
    {
        "id": 95009,
        "wikiDataId": "Q1025066",
        "type": "CITY",
        "city": "Cacem",
        "name": "Cacem",
        "latitude": 38.77042,
        "longitude": -9.30809
    },
    {
        "id": 3000595,
        "wikiDataId": "Q1025044",
        "type": "CITY",
        "city": "Cachoeiras",
        "name": "Cachoeiras",
        "latitude": 38.985833333,
        "longitude": -9.016388888
    },
    {
        "id": 2968056,
        "wikiDataId": "Q34789102",
        "type": "CITY",
        "city": "Cacém",
        "name": "Cacém",
        "latitude": 38.766944444,
        "longitude": -9.298055555
    },
    {
        "id": 94755,
        "wikiDataId": "Q687504",
        "type": "CITY",
        "city": "Cadafais",
        "name": "Cadafais",
        "latitude": 39.004444444,
        "longitude": -9.004166666
    },
    {
        "id": 3089761,
        "wikiDataId": "Q24020",
        "type": "CITY",
        "city": "Cadafaz",
        "name": "Cadafaz",
        "latitude": 40.584722222,
        "longitude": -7.361944444
    },
    {
        "id": 160113,
        "wikiDataId": "Q33661928",
        "type": "CITY",
        "city": "Cadaval",
        "name": "Cadaval",
        "latitude": 39.24621,
        "longitude": -9.06738
    },
    {
        "id": 3057297,
        "wikiDataId": "Q513172",
        "type": "CITY",
        "city": "Cadaval",
        "name": "Cadaval",
        "latitude": 39.243333333,
        "longitude": -9.102777777
    },
    {
        "id": 3049868,
        "wikiDataId": "Q748055",
        "type": "CITY",
        "city": "Calhandriz",
        "name": "Calhandriz",
        "latitude": 38.925,
        "longitude": -9.067777777
    },
    {
        "id": 94693,
        "wikiDataId": "Q1028029",
        "type": "CITY",
        "city": "Camarate",
        "name": "Camarate",
        "latitude": 38.80358,
        "longitude": -9.12809
    },
    {
        "id": 94997,
        "wikiDataId": "Q582153",
        "type": "CITY",
        "city": "Campelos",
        "name": "Campelos",
        "latitude": 39.2,
        "longitude": -9.233333333
    },
    {
        "id": 2978112,
        "wikiDataId": "Q963573",
        "type": "CITY",
        "city": "Campo Grande",
        "name": "Campo Grande",
        "latitude": 38.756944444,
        "longitude": -9.153611111
    },
    {
        "id": 3083583,
        "wikiDataId": "Q1031527",
        "type": "ADM2",
        "city": "Campolide",
        "name": "Campolide",
        "latitude": 38.726388888,
        "longitude": -9.163333333
    },
    {
        "id": 2994756,
        "wikiDataId": "Q1026716",
        "type": "CITY",
        "city": "Caneças",
        "name": "Caneças",
        "latitude": 38.816666666,
        "longitude": -9.233333333
    },
    {
        "id": 3000621,
        "wikiDataId": "Q1035417",
        "type": "ADM2",
        "city": "Carapito",
        "name": "Carapito",
        "latitude": 40.76759,
        "longitude": -7.45447
    },
    {
        "id": 94838,
        "wikiDataId": "Q663893",
        "type": "CITY",
        "city": "Carcavelos",
        "name": "Carcavelos",
        "latitude": 38.6922,
        "longitude": -9.33327
    },
    {
        "id": 2996898,
        "wikiDataId": "Q430228",
        "type": "ADM2",
        "city": "Cardosas",
        "name": "Cardosas",
        "latitude": 38.977222222,
        "longitude": -9.040833333
    },
    {
        "id": 3096867,
        "wikiDataId": "Q119690",
        "type": "CITY",
        "city": "Carmões",
        "name": "Carmões",
        "latitude": 39.057777777,
        "longitude": -9.134166666
    },
    {
        "id": 3046553,
        "wikiDataId": "Q1013271",
        "type": "CITY",
        "city": "Carnaxide",
        "name": "Carnaxide",
        "latitude": 38.726666666,
        "longitude": -9.241666666
    },
    {
        "id": 2969984,
        "wikiDataId": "Q611889",
        "type": "CITY",
        "city": "Carnicães",
        "name": "Carnicães",
        "latitude": 40.733333333,
        "longitude": -7.318333333
    },
    {
        "id": 3008079,
        "wikiDataId": "Q1044020",
        "type": "ADM2",
        "city": "Carnide",
        "name": "Carnide",
        "latitude": 38.760833333,
        "longitude": -9.183611111
    },
    {
        "id": 3055455,
        "wikiDataId": "Q224591",
        "type": "ADM2",
        "city": "Carnota",
        "name": "Carnota",
        "latitude": 39.033611111,
        "longitude": -9.071666666
    },
    {
        "id": 3057960,
        "wikiDataId": "Q1044862",
        "type": "CITY",
        "city": "Carragozela",
        "name": "Carragozela",
        "latitude": 40.40572,
        "longitude": -7.76077
    },
    {
        "id": 2967119,
        "wikiDataId": "Q24147",
        "type": "ADM2",
        "city": "Carrapichana",
        "name": "Carrapichana",
        "latitude": 40.561944444,
        "longitude": -7.486944444
    },
    {
        "id": 3044683,
        "wikiDataId": "Q1044914",
        "type": "CITY",
        "city": "Carregado",
        "name": "Carregado",
        "latitude": 39.02334,
        "longitude": -8.9645
    },
    {
        "id": 3054898,
        "wikiDataId": "Q1046073",
        "type": "CITY",
        "city": "Carvalhal",
        "name": "Carvalhal",
        "latitude": 40.883611111,
        "longitude": -7.283611111
    },
    {
        "id": 3014626,
        "wikiDataId": "Q388896",
        "type": "CITY",
        "city": "Carvoeira",
        "name": "Carvoeira",
        "latitude": 39.080555555,
        "longitude": -9.162222222
    },
    {
        "id": 3065294,
        "wikiDataId": "Q1046197",
        "type": "ADM2",
        "city": "Carvoeira",
        "name": "Carvoeira",
        "latitude": 38.942777777,
        "longitude": -9.396944444
    },
    {
        "id": 2987662,
        "wikiDataId": "Q33796618",
        "type": "ADM2",
        "city": "Casal Vasco",
        "name": "Casal Vasco",
        "latitude": 40.63792,
        "longitude": -7.55538
    },
    {
        "id": 3085809,
        "wikiDataId": "Q1046749",
        "type": "CITY",
        "city": "Casal de Cambra",
        "name": "Casal de Cambra",
        "latitude": 38.80236,
        "longitude": -9.23188
    },
    {
        "id": 3019444,
        "wikiDataId": "Q32563",
        "type": "ADM2",
        "city": "Casal de Cinza",
        "name": "Casal de Cinza",
        "latitude": 40.544166666,
        "longitude": -7.164166666
    },
    {
        "id": 3030253,
        "wikiDataId": "Q24207",
        "type": "ADM2",
        "city": "Casas do Soeiro",
        "name": "Casas do Soeiro",
        "latitude": 40.618888888,
        "longitude": -7.406388888
    },
    {
        "id": 94893,
        "wikiDataId": "Q273059",
        "type": "CITY",
        "city": "Cascais",
        "name": "Cascais",
        "latitude": 38.69681,
        "longitude": -9.42147
    },
    {
        "id": 3064025,
        "wikiDataId": "Q33662219",
        "type": "ADM2",
        "city": "Cascais",
        "name": "Cascais",
        "latitude": 38.74333,
        "longitude": -9.46382
    },
    {
        "id": 3004237,
        "wikiDataId": "Q32582",
        "type": "ADM2",
        "city": "Castanheira",
        "name": "Castanheira",
        "latitude": 40.574722222,
        "longitude": -7.079444444
    },
    {
        "id": 3043989,
        "wikiDataId": "Q513064",
        "type": "ADM2",
        "city": "Castanheira",
        "name": "Castanheira",
        "latitude": 40.844166666,
        "longitude": -7.364722222
    },
    {
        "id": 94978,
        "wikiDataId": "Q1048511",
        "type": "CITY",
        "city": "Castanheira do Ribatejo",
        "name": "Castanheira do Ribatejo",
        "latitude": 38.983333333,
        "longitude": -8.966666666
    },
    {
        "id": 2990356,
        "wikiDataId": "Q1048590",
        "type": "CITY",
        "city": "Casteição",
        "name": "Casteição",
        "latitude": 40.880833333,
        "longitude": -7.325833333
    },
    {
        "id": 3030371,
        "wikiDataId": "Q1048661",
        "type": "ADM2",
        "city": "Casteleiro",
        "name": "Casteleiro",
        "latitude": 40.302222222,
        "longitude": -7.231666666
    },
    {
        "id": 3002426,
        "wikiDataId": "Q978535",
        "type": "CITY",
        "city": "Castelo (Lisbon)",
        "name": "Castelo (Lisbon)",
        "latitude": 38.713611111,
        "longitude": -9.133333333
    },
    {
        "id": 3095947,
        "wikiDataId": "Q24191",
        "type": "ADM2",
        "city": "Castelo Bom",
        "name": "Castelo Bom",
        "latitude": 40.620277777,
        "longitude": -6.900555555
    },
    {
        "id": 2969573,
        "wikiDataId": "Q1048970",
        "type": "ADM2",
        "city": "Castelo Melhor",
        "name": "Castelo Melhor",
        "latitude": 41.0275,
        "longitude": -7.065
    },
    {
        "id": 3099324,
        "wikiDataId": "Q1048976",
        "type": "ADM2",
        "city": "Castelo Rodrigo",
        "name": "Castelo Rodrigo",
        "latitude": 40.875555555,
        "longitude": -6.963888888
    },
    {
        "id": 3079018,
        "wikiDataId": "Q1018782",
        "type": "ADM2",
        "city": "Cativelos",
        "name": "Cativelos",
        "latitude": 40.530833333,
        "longitude": -7.681944444
    },
    {
        "id": 2990486,
        "wikiDataId": "Q32576",
        "type": "ADM2",
        "city": "Cavadoude",
        "name": "Cavadoude",
        "latitude": 40.584722222,
        "longitude": -7.286666666
    },
    {
        "id": 95043,
        "wikiDataId": "Q33210",
        "type": "CITY",
        "city": "Caxias",
        "name": "Caxias",
        "latitude": 38.7,
        "longitude": -9.283333333
    },
    {
        "id": 3042421,
        "wikiDataId": "Q1030123",
        "type": "CITY",
        "city": "Cedovim",
        "name": "Cedovim",
        "latitude": 41.033333333,
        "longitude": -7.316666666
    },
    {
        "id": 160244,
        "wikiDataId": "Q523596",
        "type": "CITY",
        "city": "Celorico da Beira",
        "name": "Celorico da Beira",
        "latitude": 40.633333333,
        "longitude": -7.4
    },
    {
        "id": 3022073,
        "wikiDataId": "Q377823",
        "type": "CITY",
        "city": "Cercal",
        "name": "Cercal",
        "latitude": 39.233888888,
        "longitude": -8.998333333
    },
    {
        "id": 3025562,
        "wikiDataId": "Q1054894",
        "type": "ADM2",
        "city": "Cerdeira",
        "name": "Cerdeira",
        "latitude": 40.514166666,
        "longitude": -7.046666666
    },
    {
        "id": 3016096,
        "wikiDataId": "Q600284",
        "type": "CITY",
        "city": "Cerejo",
        "name": "Cerejo",
        "latitude": 40.729444444,
        "longitude": -7.223611111
    },
    {
        "id": 94824,
        "wikiDataId": "Q1067627",
        "type": "CITY",
        "city": "Charneca",
        "name": "Charneca",
        "latitude": 38.785277777,
        "longitude": -9.145
    },
    {
        "id": 3056021,
        "wikiDataId": "Q770211",
        "type": "CITY",
        "city": "Cheleiros",
        "name": "Cheleiros",
        "latitude": 38.889722222,
        "longitude": -9.328888888
    },
    {
        "id": 3087527,
        "wikiDataId": "Q1090906",
        "type": "ADM2",
        "city": "Chãs",
        "name": "Chãs",
        "latitude": 40.989722222,
        "longitude": -7.170277777
    },
    {
        "id": 2968793,
        "wikiDataId": "Q32651",
        "type": "ADM2",
        "city": "Codesseiro",
        "name": "Codesseiro",
        "latitude": 40.651111111,
        "longitude": -7.205
    },
    {
        "id": 3077124,
        "wikiDataId": "Q1107053",
        "type": "ADM2",
        "city": "Cogula",
        "name": "Cogula",
        "latitude": 40.812777777,
        "longitude": -7.261388888
    },
    {
        "id": 94836,
        "wikiDataId": "Q1107623",
        "type": "CITY",
        "city": "Colares",
        "name": "Colares",
        "latitude": 38.80206,
        "longitude": -9.46305
    },
    {
        "id": 2994589,
        "wikiDataId": "Q1026670",
        "type": "CITY",
        "city": "Coração de Jesus",
        "name": "Coração de Jesus",
        "latitude": 38.724166666,
        "longitude": -9.145
    },
    {
        "id": 3004299,
        "wikiDataId": "Q33801000",
        "type": "ADM2",
        "city": "Coriscada",
        "name": "Coriscada",
        "latitude": 40.86197,
        "longitude": -7.20372
    },
    {
        "id": 2998957,
        "wikiDataId": "Q1135623",
        "type": "ADM2",
        "city": "Cortiçada",
        "name": "Cortiçada",
        "latitude": 40.765,
        "longitude": -7.542222222
    },
    {
        "id": 3061511,
        "wikiDataId": "Q32684",
        "type": "CITY",
        "city": "Cortiçô",
        "name": "Cortiçô",
        "latitude": 40.663055555,
        "longitude": -7.494722222
    },
    {
        "id": 3010668,
        "wikiDataId": "Q24209",
        "type": "CITY",
        "city": "Cortiçô da Serra",
        "name": "Cortiçô da Serra",
        "latitude": 40.60124,
        "longitude": -7.43426
    },
    {
        "id": 2991645,
        "wikiDataId": "Q1135661",
        "type": "CITY",
        "city": "Coruche",
        "name": "Coruche",
        "latitude": 40.793611111,
        "longitude": -7.540833333
    },
    {
        "id": 3019325,
        "wikiDataId": "Q32569",
        "type": "CITY",
        "city": "Corujeira",
        "name": "Corujeira",
        "latitude": 40.50609,
        "longitude": -7.32803
    },
    {
        "id": 3056640,
        "wikiDataId": "Q1021364",
        "type": "CITY",
        "city": "Cruz Quebrada - Dafundo",
        "name": "Cruz Quebrada - Dafundo",
        "latitude": 38.706111111,
        "longitude": -9.250555555
    },
    {
        "id": 95273,
        "wikiDataId": "Q34798089",
        "type": "CITY",
        "city": "Custoias",
        "name": "Custoias",
        "latitude": 41.105277777,
        "longitude": -7.320833333
    },
    {
        "id": 3063050,
        "wikiDataId": "Q1150896",
        "type": "ADM2",
        "city": "Cótimos",
        "name": "Cótimos",
        "latitude": 40.8275,
        "longitude": -7.239722222
    },
    {
        "id": 3003010,
        "wikiDataId": "Q377919",
        "type": "CITY",
        "city": "Damaia",
        "name": "Damaia",
        "latitude": 38.745277777,
        "longitude": -9.218333333
    },
    {
        "id": 3011400,
        "wikiDataId": "Q1234975",
        "type": "CITY",
        "city": "Dois Portos",
        "name": "Dois Portos",
        "latitude": 39.0384,
        "longitude": -9.18556
    },
    {
        "id": 3007068,
        "wikiDataId": "Q1245694",
        "type": "ADM2",
        "city": "Dornelas",
        "name": "Dornelas",
        "latitude": 40.73105,
        "longitude": -7.55894
    },
    {
        "id": 3007894,
        "wikiDataId": "Q647956",
        "type": "ADM2",
        "city": "Eirado",
        "name": "Eirado",
        "latitude": 40.773333333,
        "longitude": -7.49
    },
    {
        "id": 3064954,
        "wikiDataId": "Q1024864",
        "type": "ADM2",
        "city": "Encarnação",
        "name": "Encarnação",
        "latitude": 39.033333333,
        "longitude": -9.368055555
    },
    {
        "id": 3067451,
        "wikiDataId": "Q1339983",
        "type": "CITY",
        "city": "Encarnação",
        "name": "Encarnação",
        "latitude": 38.71166,
        "longitude": -9.14374
    },
    {
        "id": 3068457,
        "wikiDataId": "Q637142",
        "type": "CITY",
        "city": "Enxara do Bispo",
        "name": "Enxara do Bispo",
        "latitude": 38.991944444,
        "longitude": -9.240833333
    },
    {
        "id": 94940,
        "wikiDataId": "Q1351868",
        "type": "CITY",
        "city": "Ericeira",
        "name": "Ericeira",
        "latitude": 38.962777777,
        "longitude": -9.415277777
    },
    {
        "id": 3008996,
        "wikiDataId": "Q1279919",
        "type": "CITY",
        "city": "Ervas Tenras",
        "name": "Ervas Tenras",
        "latitude": 40.740555555,
        "longitude": -7.186111111
    },
    {
        "id": 3037291,
        "wikiDataId": "Q1362590",
        "type": "ADM2",
        "city": "Ervedosa",
        "name": "Ervedosa",
        "latitude": 40.846944444,
        "longitude": -7.176111111
    },
    {
        "id": 3013271,
        "wikiDataId": "Q1366789",
        "type": "ADM2",
        "city": "Escalhão",
        "name": "Escalhão",
        "latitude": 40.949444444,
        "longitude": -6.926111111
    },
    {
        "id": 94859,
        "wikiDataId": "Q193305",
        "type": "CITY",
        "city": "Estoril",
        "name": "Estoril",
        "latitude": 38.70571,
        "longitude": -9.39773
    },
    {
        "id": 3076069,
        "wikiDataId": "Q32675",
        "type": "ADM2",
        "city": "Faia",
        "name": "Faia",
        "latitude": 40.560555555,
        "longitude": -7.310277777
    },
    {
        "id": 3073125,
        "wikiDataId": "Q1024775",
        "type": "CITY",
        "city": "Falagueira",
        "name": "Falagueira",
        "latitude": 38.75903,
        "longitude": -9.21988
    },
    {
        "id": 3058653,
        "wikiDataId": "Q32643",
        "type": "ADM2",
        "city": "Famalicão",
        "name": "Famalicão",
        "latitude": 40.443611111,
        "longitude": -7.377222222
    },
    {
        "id": 3026827,
        "wikiDataId": "Q375205",
        "type": "CITY",
        "city": "Famões",
        "name": "Famões",
        "latitude": 38.783333333,
        "longitude": -9.216666666
    },
    {
        "id": 3056024,
        "wikiDataId": "Q1395657",
        "type": "ADM2",
        "city": "Fanhões",
        "name": "Fanhões",
        "latitude": 38.881111111,
        "longitude": -9.1525
    },
    {
        "id": 3085805,
        "wikiDataId": "Q32673",
        "type": "ADM2",
        "city": "Fernão Joanes",
        "name": "Fernão Joanes",
        "latitude": 40.486944444,
        "longitude": -7.355277777
    },
    {
        "id": 95624,
        "wikiDataId": "Q644782",
        "type": "CITY",
        "city": "Figueira de Castelo Rodrigo",
        "name": "Figueira de Castelo Rodrigo",
        "latitude": 40.9,
        "longitude": -6.966666666
    },
    {
        "id": 3054509,
        "wikiDataId": "Q33672912",
        "type": "ADM2",
        "city": "Figueira de Castelo Rodrigo",
        "name": "Figueira de Castelo Rodrigo",
        "latitude": 40.87356,
        "longitude": -6.96842
    },
    {
        "id": 3077872,
        "wikiDataId": "Q49350155",
        "type": "CITY",
        "city": "Figueira do Guincho",
        "name": "Figueira do Guincho",
        "latitude": 38.75,
        "longitude": -9.466666666
    },
    {
        "id": 2979717,
        "wikiDataId": "Q915093",
        "type": "CITY",
        "city": "Figueiros",
        "name": "Figueiros",
        "latitude": 39.27946,
        "longitude": -9.05083
    },
    {
        "id": 2993241,
        "wikiDataId": "Q32655",
        "type": "ADM2",
        "city": "Figueiró da Granja",
        "name": "Figueiró da Granja",
        "latitude": 40.628055555,
        "longitude": -7.499166666
    },
    {
        "id": 3098137,
        "wikiDataId": "Q32575",
        "type": "CITY",
        "city": "Figueiró da Serra",
        "name": "Figueiró da Serra",
        "latitude": 40.540555555,
        "longitude": -7.488888888
    },
    {
        "id": 3025028,
        "wikiDataId": "Q1422129",
        "type": "ADM2",
        "city": "Fiães",
        "name": "Fiães",
        "latitude": 40.733055555,
        "longitude": -7.373055555
    },
    {
        "id": 2975764,
        "wikiDataId": "Q32653",
        "type": "ADM2",
        "city": "Folgosinho",
        "name": "Folgosinho",
        "latitude": 40.509444444,
        "longitude": -7.513888888
    },
    {
        "id": 3002318,
        "wikiDataId": "Q1435387",
        "type": "CITY",
        "city": "Folhadosa",
        "name": "Folhadosa",
        "latitude": 40.379444444,
        "longitude": -7.784722222
    },
    {
        "id": 95076,
        "wikiDataId": "Q5465145",
        "type": "CITY",
        "city": "Fontanelas",
        "name": "Fontanelas",
        "latitude": 38.85,
        "longitude": -9.43333333
    },
    {
        "id": 2968713,
        "wikiDataId": "Q1284330",
        "type": "CITY",
        "city": "Fonte Longa",
        "name": "Fonte Longa",
        "latitude": 41.013055555,
        "longitude": -7.233611111
    },
    {
        "id": 3052358,
        "wikiDataId": "Q1437869",
        "type": "ADM2",
        "city": "Forninhos",
        "name": "Forninhos",
        "latitude": 40.704722222,
        "longitude": -7.554166666
    },
    {
        "id": 3023976,
        "wikiDataId": "Q23996",
        "type": "ADM2",
        "city": "Forno Telheiro",
        "name": "Forno Telheiro",
        "latitude": 40.673333333,
        "longitude": -7.397777777
    },
    {
        "id": 160151,
        "wikiDataId": "Q641715",
        "type": "CITY",
        "city": "Fornos de Algodres",
        "name": "Fornos de Algodres",
        "latitude": 40.616666666,
        "longitude": -7.533333333
    },
    {
        "id": 3026602,
        "wikiDataId": "Q1997892",
        "type": "ADM2",
        "city": "Fornos de Algodres",
        "name": "Fornos de Algodres",
        "latitude": 40.6225,
        "longitude": -7.538611111
    },
    {
        "id": 3034206,
        "wikiDataId": "Q1438943",
        "type": "CITY",
        "city": "Forte da Casa",
        "name": "Forte da Casa",
        "latitude": 38.87391,
        "longitude": -9.05216
    },
    {
        "id": 3022945,
        "wikiDataId": "Q1430269",
        "type": "CITY",
        "city": "Freches",
        "name": "Freches",
        "latitude": 40.731666666,
        "longitude": -7.346388888
    },
    {
        "id": 3095794,
        "wikiDataId": "Q24140",
        "type": "ADM2",
        "city": "Freineda",
        "name": "Freineda",
        "latitude": 40.583055555,
        "longitude": -6.891111111
    },
    {
        "id": 3010197,
        "wikiDataId": "Q1454635",
        "type": "ADM2",
        "city": "Freiria",
        "name": "Freiria",
        "latitude": 39.02739,
        "longitude": -9.31995
    },
    {
        "id": 2976074,
        "wikiDataId": "Q1384914",
        "type": "CITY",
        "city": "Freixeda do Torrão",
        "name": "Freixeda do Torrão",
        "latitude": 40.890277777,
        "longitude": -7.032222222
    },
    {
        "id": 2975013,
        "wikiDataId": "Q749351",
        "type": "ADM2",
        "city": "Freixedas",
        "name": "Freixedas",
        "latitude": 40.691944444,
        "longitude": -7.163055555
    },
    {
        "id": 3025833,
        "wikiDataId": "Q24136",
        "type": "ADM2",
        "city": "Freixo",
        "name": "Freixo",
        "latitude": 40.618611111,
        "longitude": -7.010277777
    },
    {
        "id": 3024244,
        "wikiDataId": "Q1454978",
        "type": "CITY",
        "city": "Freixo de Numão",
        "name": "Freixo de Numão",
        "latitude": 41.066666666,
        "longitude": -7.216666666
    },
    {
        "id": 3050770,
        "wikiDataId": "Q1024850",
        "type": "CITY",
        "city": "Frielas",
        "name": "Frielas",
        "latitude": 38.825833333,
        "longitude": -9.144444444
    },
    {
        "id": 2980600,
        "wikiDataId": "Q1479607",
        "type": "ADM2",
        "city": "Fóios",
        "name": "Fóios",
        "latitude": 40.286666666,
        "longitude": -6.8925
    },
    {
        "id": 3076819,
        "wikiDataId": "Q32567",
        "type": "CITY",
        "city": "Gagos",
        "name": "Gagos",
        "latitude": 40.583888888,
        "longitude": -7.114722222
    },
    {
        "id": 3062587,
        "wikiDataId": "Q1526603",
        "type": "ADM2",
        "city": "Girabolhos",
        "name": "Girabolhos",
        "latitude": 40.509444444,
        "longitude": -7.736666666
    },
    {
        "id": 2976077,
        "wikiDataId": "Q32578",
        "type": "CITY",
        "city": "Gonçalo",
        "name": "Gonçalo",
        "latitude": 40.416666666,
        "longitude": -7.35
    },
    {
        "id": 3035173,
        "wikiDataId": "Q32639",
        "type": "ADM2",
        "city": "Gonçalo Bocas",
        "name": "Gonçalo Bocas",
        "latitude": 40.576666666,
        "longitude": -7.1775
    },
    {
        "id": 160047,
        "wikiDataId": "Q599317",
        "type": "CITY",
        "city": "Gouveia",
        "name": "Gouveia",
        "latitude": 40.5,
        "longitude": -7.6
    },
    {
        "id": 3048404,
        "wikiDataId": "Q1024960",
        "type": "CITY",
        "city": "Gradil",
        "name": "Gradil",
        "latitude": 38.982222222,
        "longitude": -9.280833333
    },
    {
        "id": 3032468,
        "wikiDataId": "Q1541256",
        "type": "CITY",
        "city": "Gradiz",
        "name": "Gradiz",
        "latitude": 40.859444444,
        "longitude": -7.528611111
    },
    {
        "id": 3096775,
        "wikiDataId": "Q1543139",
        "type": "ADM2",
        "city": "Granja",
        "name": "Granja",
        "latitude": 40.75201,
        "longitude": -7.20428
    },
    {
        "id": 3003344,
        "wikiDataId": "Q1520260",
        "type": "CITY",
        "city": "Graça",
        "name": "Graça",
        "latitude": 38.717222222,
        "longitude": -9.130833333
    },
    {
        "id": 95404,
        "wikiDataId": "Q750594",
        "type": "CITY",
        "city": "Guarda",
        "name": "Guarda",
        "latitude": 40.536388888,
        "longitude": -7.268333333
    },
    {
        "id": 3000063,
        "wikiDataId": "Q49277509",
        "type": "CITY",
        "city": "Guarda",
        "name": "Guarda",
        "latitude": 40.537222222,
        "longitude": -7.265833333
    },
    {
        "id": 2971743,
        "wikiDataId": "Q1469748",
        "type": "ADM2",
        "city": "Guilheiro",
        "name": "Guilheiro",
        "latitude": 40.898055555,
        "longitude": -7.409722222
    },
    {
        "id": 3092026,
        "wikiDataId": "Q1630175",
        "type": "ADM2",
        "city": "Horta",
        "name": "Horta",
        "latitude": 41.067777777,
        "longitude": -7.310555555
    },
    {
        "id": 3051526,
        "wikiDataId": "Q1024983",
        "type": "CITY",
        "city": "Igreja Nova",
        "name": "Igreja Nova",
        "latitude": 38.916944444,
        "longitude": -9.319444444
    },
    {
        "id": 3017558,
        "wikiDataId": "Q32701",
        "type": "ADM2",
        "city": "Infias",
        "name": "Infias",
        "latitude": 40.63,
        "longitude": -7.539444444
    },
    {
        "id": 3020986,
        "wikiDataId": "Q45893",
        "type": "ADM2",
        "city": "Jarmelo São Miguel",
        "name": "Jarmelo São Miguel",
        "latitude": 40.6004,
        "longitude": -7.14915
    },
    {
        "id": 2996519,
        "wikiDataId": "Q45878",
        "type": "ADM2",
        "city": "Jarmelo São Pedro",
        "name": "Jarmelo São Pedro",
        "latitude": 40.59447,
        "longitude": -7.13016
    },
    {
        "id": 3050149,
        "wikiDataId": "Q32688",
        "type": "ADM2",
        "city": "João Antão",
        "name": "João Antão",
        "latitude": 40.46443,
        "longitude": -7.2394
    },
    {
        "id": 3061608,
        "wikiDataId": "Q32571",
        "type": "CITY",
        "city": "Juncais",
        "name": "Juncais",
        "latitude": 40.609444444,
        "longitude": -7.5075
    },
    {
        "id": 2998995,
        "wikiDataId": "Q24205",
        "type": "CITY",
        "city": "Junça",
        "name": "Junça",
        "latitude": 40.681388888,
        "longitude": -6.885555555
    },
    {
        "id": 3074249,
        "wikiDataId": "Q32647",
        "type": "CITY",
        "city": "Lagarinhos",
        "name": "Lagarinhos",
        "latitude": 40.485833333,
        "longitude": -7.669444444
    },
    {
        "id": 3081453,
        "wikiDataId": "Q1013111",
        "type": "CITY",
        "city": "Lajeosa",
        "name": "Lajeosa",
        "latitude": 40.34353,
        "longitude": -6.81621
    },
    {
        "id": 3004164,
        "wikiDataId": "Q24145",
        "type": "ADM2",
        "city": "Lajeosa do Mondego",
        "name": "Lajeosa do Mondego",
        "latitude": 40.6275,
        "longitude": -7.3375
    },
    {
        "id": 2991839,
        "wikiDataId": "Q1800786",
        "type": "CITY",
        "city": "Lajes",
        "name": "Lajes",
        "latitude": 40.483611111,
        "longitude": -7.716388888
    },
    {
        "id": 2997618,
        "wikiDataId": "Q1024811",
        "type": "CITY",
        "city": "Lamas",
        "name": "Lamas",
        "latitude": 39.21114,
        "longitude": -9.06151
    },
    {
        "id": 2997398,
        "wikiDataId": "Q126158",
        "type": "ADM2",
        "city": "Lamegal",
        "name": "Lamegal",
        "latitude": 40.665,
        "longitude": -7.079722222
    },
    {
        "id": 2980740,
        "wikiDataId": "Q1801513",
        "type": "ADM2",
        "city": "Lameiras",
        "name": "Lameiras",
        "latitude": 40.711388888,
        "longitude": -7.104444444
    },
    {
        "id": 3019759,
        "wikiDataId": "Q1631359",
        "type": "CITY",
        "city": "Lapa",
        "name": "Lapa",
        "latitude": 38.71189,
        "longitude": -9.16007
    },
    {
        "id": 3092515,
        "wikiDataId": "Q1498704",
        "type": "CITY",
        "city": "Lapa Dos Dinheiros",
        "name": "Lapa Dos Dinheiros",
        "latitude": 40.378888888,
        "longitude": -7.709444444
    },
    {
        "id": 2972950,
        "wikiDataId": "Q23999",
        "type": "CITY",
        "city": "Leomil",
        "name": "Leomil",
        "latitude": 40.635277777,
        "longitude": -6.964166666
    },
    {
        "id": 94841,
        "wikiDataId": "Q1013294",
        "type": "CITY",
        "city": "Linda-a-Velha",
        "name": "Linda-a-Velha",
        "latitude": 38.71446,
        "longitude": -9.2422
    },
    {
        "id": 3070282,
        "wikiDataId": "Q33821204",
        "type": "ADM2",
        "city": "Linda-a-Velha",
        "name": "Linda-a-Velha",
        "latitude": 38.71136,
        "longitude": -9.2394
    },
    {
        "id": 2993250,
        "wikiDataId": "Q24142",
        "type": "ADM2",
        "city": "Linhares (Celorico da Beira)",
        "name": "Linhares (Celorico da Beira)",
        "latitude": 40.540833333,
        "longitude": -7.461111111
    },
    {
        "id": 160049,
        "wikiDataId": "Q597",
        "type": "CITY",
        "city": "Lisbon",
        "name": "Lisbon",
        "latitude": 38.716666666,
        "longitude": -9.166666666
    },
    {
        "id": 3071868,
        "wikiDataId": "Q1725783",
        "type": "ADM2",
        "city": "Longroiva",
        "name": "Longroiva",
        "latitude": 40.98103,
        "longitude": -7.20334
    },
    {
        "id": 96029,
        "wikiDataId": "Q734336",
        "type": "CITY",
        "city": "Loriga",
        "name": "Loriga",
        "latitude": 40.316666666,
        "longitude": -7.683333333
    },
    {
        "id": 94771,
        "wikiDataId": "Q917535",
        "type": "CITY",
        "city": "Loures",
        "name": "Loures",
        "latitude": 38.833333333,
        "longitude": -9.166666666
    },
    {
        "id": 3008721,
        "wikiDataId": "Q35719701",
        "type": "CITY",
        "city": "Loures",
        "name": "Loures",
        "latitude": 38.83091,
        "longitude": -9.16845
    },
    {
        "id": 160241,
        "wikiDataId": "Q986017",
        "type": "CITY",
        "city": "Lourinhã",
        "name": "Lourinhã",
        "latitude": 39.25,
        "longitude": -9.316666666
    },
    {
        "id": 3096684,
        "wikiDataId": "Q2031730",
        "type": "CITY",
        "city": "Lourinhã",
        "name": "Lourinhã",
        "latitude": 39.2425,
        "longitude": -9.312222222
    },
    {
        "id": 3037292,
        "wikiDataId": "Q595642",
        "type": "ADM2",
        "city": "Lousa",
        "name": "Lousa",
        "latitude": 38.89171,
        "longitude": -9.20972
    },
    {
        "id": 3019090,
        "wikiDataId": "Q924723",
        "type": "ADM2",
        "city": "Lumiar",
        "name": "Lumiar",
        "latitude": 38.765277777,
        "longitude": -9.158611111
    },
    {
        "id": 2996873,
        "wikiDataId": "Q32708",
        "type": "ADM2",
        "city": "Maceira",
        "name": "Maceira",
        "latitude": 40.685555555,
        "longitude": -7.471666666
    },
    {
        "id": 3076589,
        "wikiDataId": "Q780493",
        "type": "CITY",
        "city": "Maceira",
        "name": "Maceira",
        "latitude": 39.18096,
        "longitude": -9.33336
    },
    {
        "id": 3031191,
        "wikiDataId": "Q387982",
        "type": "CITY",
        "city": "Madalena",
        "name": "Madalena",
        "latitude": 38.71,
        "longitude": -9.134722222
    },
    {
        "id": 160162,
        "wikiDataId": "Q986419",
        "type": "CITY",
        "city": "Mafra",
        "name": "Mafra",
        "latitude": 38.933333333,
        "longitude": -9.333333333
    },
    {
        "id": 3014387,
        "wikiDataId": "Q49286398",
        "type": "CITY",
        "city": "Mafra",
        "name": "Mafra",
        "latitude": 38.938055555,
        "longitude": -9.3275
    },
    {
        "id": 3024738,
        "wikiDataId": "Q1886957",
        "type": "ADM2",
        "city": "Malcata",
        "name": "Malcata",
        "latitude": 40.2999,
        "longitude": -7.06147
    },
    {
        "id": 2977673,
        "wikiDataId": "Q24010",
        "type": "CITY",
        "city": "Malhada Sorda",
        "name": "Malhada Sorda",
        "latitude": 40.536388888,
        "longitude": -6.914444444
    },
    {
        "id": 3068356,
        "wikiDataId": "Q24005",
        "type": "CITY",
        "city": "Malpartida",
        "name": "Malpartida",
        "latitude": 40.76,
        "longitude": -6.866666666
    },
    {
        "id": 3003544,
        "wikiDataId": "Q604302",
        "type": "CITY",
        "city": "Malveira",
        "name": "Malveira",
        "latitude": 38.93059,
        "longitude": -9.26165
    },
    {
        "id": 3004441,
        "wikiDataId": "Q32694",
        "type": "CITY",
        "city": "Mangualde da Serra",
        "name": "Mangualde da Serra",
        "latitude": 40.466388888,
        "longitude": -7.621666666
    },
    {
        "id": 3098553,
        "wikiDataId": "Q590276",
        "type": "ADM2",
        "city": "Manigoto",
        "name": "Manigoto",
        "latitude": 40.708333333,
        "longitude": -7.075833333
    },
    {
        "id": 3054803,
        "wikiDataId": "Q1575170",
        "type": "CITY",
        "city": "Manique do Intendente",
        "name": "Manique do Intendente",
        "latitude": 39.221111111,
        "longitude": -8.893611111
    },
    {
        "id": 160211,
        "wikiDataId": "Q986093",
        "type": "CITY",
        "city": "Manteigas",
        "name": "Manteigas",
        "latitude": 40.4,
        "longitude": -7.533333333
    },
    {
        "id": 2976644,
        "wikiDataId": "Q45895",
        "type": "ADM2",
        "city": "Manteigas (São Pedro)",
        "name": "Manteigas (São Pedro)",
        "latitude": 40.366111111,
        "longitude": -7.546111111
    },
    {
        "id": 2969271,
        "wikiDataId": "Q670426",
        "type": "CITY",
        "city": "Marialva",
        "name": "Marialva",
        "latitude": 40.91,
        "longitude": -7.231666666
    },
    {
        "id": 3004715,
        "wikiDataId": "Q32659",
        "type": "ADM2",
        "city": "Marmeleiro",
        "name": "Marmeleiro",
        "latitude": 40.468611111,
        "longitude": -7.114166666
    },
    {
        "id": 3079826,
        "wikiDataId": "Q1902992",
        "type": "CITY",
        "city": "Marteleira",
        "name": "Marteleira",
        "latitude": 39.213055555,
        "longitude": -9.283333333
    },
    {
        "id": 3071795,
        "wikiDataId": "Q1786435",
        "type": "ADM2",
        "city": "Marvila",
        "name": "Marvila",
        "latitude": 38.745277777,
        "longitude": -9.104166666
    },
    {
        "id": 94822,
        "wikiDataId": "Q1907450",
        "type": "CITY",
        "city": "Massamá",
        "name": "Massamá",
        "latitude": 38.75564,
        "longitude": -9.28427
    },
    {
        "id": 2999143,
        "wikiDataId": "Q1668791",
        "type": "ADM2",
        "city": "Mata de Lobos",
        "name": "Mata de Lobos",
        "latitude": 40.91691,
        "longitude": -6.88804
    },
    {
        "id": 3058837,
        "wikiDataId": "Q1908045",
        "type": "CITY",
        "city": "Matacães",
        "name": "Matacães",
        "latitude": 39.092777777,
        "longitude": -9.212222222
    },
    {
        "id": 3048451,
        "wikiDataId": "Q32712",
        "type": "ADM2",
        "city": "Matança",
        "name": "Matança",
        "latitude": 40.678888888,
        "longitude": -7.528888888
    },
    {
        "id": 3007577,
        "wikiDataId": "Q1759782",
        "type": "CITY",
        "city": "Maxial",
        "name": "Maxial",
        "latitude": 39.14301,
        "longitude": -9.16898
    },
    {
        "id": 3037473,
        "wikiDataId": "Q32669",
        "type": "ADM2",
        "city": "Maçainhas",
        "name": "Maçainhas",
        "latitude": 40.536666666,
        "longitude": -7.3025
    },
    {
        "id": 3034274,
        "wikiDataId": "Q24193",
        "type": "ADM2",
        "city": "Maçal do Chão",
        "name": "Maçal do Chão",
        "latitude": 40.69171,
        "longitude": -7.29178
    },
    {
        "id": 3047943,
        "wikiDataId": "Q1894283",
        "type": "CITY",
        "city": "Maçussa",
        "name": "Maçussa",
        "latitude": 39.194722222,
        "longitude": -8.867222222
    },
    {
        "id": 95048,
        "wikiDataId": "Q1452082",
        "type": "ADM2",
        "city": "Meca",
        "name": "Meca",
        "latitude": 39.089722222,
        "longitude": -9.025555555
    },
    {
        "id": 3048823,
        "wikiDataId": "Q32574",
        "type": "ADM2",
        "city": "Meios",
        "name": "Meios",
        "latitude": 40.493611111,
        "longitude": -7.359166666
    },
    {
        "id": 2988981,
        "wikiDataId": "Q32580",
        "type": "CITY",
        "city": "Melo",
        "name": "Melo",
        "latitude": 40.519444444,
        "longitude": -7.533611111
    },
    {
        "id": 94710,
        "type": "CITY",
        "city": "Mem Martins",
        "name": "Mem Martins",
        "latitude": 38.79443,
        "longitude": -9.34284
    },
    {
        "id": 3003347,
        "wikiDataId": "Q182737",
        "type": "CITY",
        "city": "Mercês",
        "name": "Mercês",
        "latitude": 38.716111111,
        "longitude": -9.148888888
    },
    {
        "id": 2988132,
        "wikiDataId": "Q24201",
        "type": "ADM2",
        "city": "Mesquitela",
        "name": "Mesquitela",
        "latitude": 40.588055555,
        "longitude": -7.489444444
    },
    {
        "id": 95026,
        "wikiDataId": "Q35729849",
        "type": "CITY",
        "city": "Milharado",
        "name": "Milharado",
        "latitude": 38.947222222,
        "longitude": -9.199166666
    },
    {
        "id": 3074026,
        "wikiDataId": "Q1894295",
        "type": "CITY",
        "city": "Mina",
        "name": "Mina",
        "latitude": 38.761666666,
        "longitude": -9.236111111
    },
    {
        "id": 3018710,
        "wikiDataId": "Q24023",
        "type": "ADM2",
        "city": "Minhocal",
        "name": "Minhocal",
        "latitude": 40.689444444,
        "longitude": -7.346666666
    },
    {
        "id": 2984519,
        "wikiDataId": "Q1270529",
        "type": "CITY",
        "city": "Mira-Sintra",
        "name": "Mira-Sintra",
        "latitude": 38.78417,
        "longitude": -9.30148
    },
    {
        "id": 3090424,
        "wikiDataId": "Q959668",
        "type": "CITY",
        "city": "Miragaia",
        "name": "Miragaia",
        "latitude": 39.235833333,
        "longitude": -9.265
    },
    {
        "id": 3042382,
        "wikiDataId": "Q24127",
        "type": "CITY",
        "city": "Miuzela",
        "name": "Miuzela",
        "latitude": 40.510555555,
        "longitude": -7.005
    },
    {
        "id": 3016110,
        "wikiDataId": "Q32692",
        "type": "CITY",
        "city": "Mizarela",
        "name": "Mizarela",
        "latitude": 40.55746,
        "longitude": -7.34107
    },
    {
        "id": 3034331,
        "wikiDataId": "Q32705",
        "type": "CITY",
        "city": "Moimenta da Serra",
        "name": "Moimenta da Serra",
        "latitude": 40.47359,
        "longitude": -7.63839
    },
    {
        "id": 3080310,
        "wikiDataId": "Q1688175",
        "type": "ADM2",
        "city": "Moimentinha",
        "name": "Moimentinha",
        "latitude": 40.745555555,
        "longitude": -7.227777777
    },
    {
        "id": 3007741,
        "wikiDataId": "Q1943106",
        "type": "CITY",
        "city": "Moita",
        "name": "Moita",
        "latitude": 40.3,
        "longitude": -7.1975
    },
    {
        "id": 94835,
        "type": "CITY",
        "city": "Moita dos Ferreiros",
        "name": "Moita dos Ferreiros",
        "latitude": 39.24825,
        "longitude": -9.22355
    },
    {
        "id": 2970552,
        "wikiDataId": "Q1943108",
        "type": "CITY",
        "city": "Moita dos Ferreiros",
        "name": "Moita dos Ferreiros",
        "latitude": 39.248333333,
        "longitude": -9.223333333
    },
    {
        "id": 3045839,
        "wikiDataId": "Q1024954",
        "type": "CITY",
        "city": "Moledo",
        "name": "Moledo",
        "latitude": 39.283888888,
        "longitude": -9.257222222
    },
    {
        "id": 2991431,
        "wikiDataId": "Q1945710",
        "type": "CITY",
        "city": "Monte Abraão",
        "name": "Monte Abraão",
        "latitude": 38.7584,
        "longitude": -9.26527
    },
    {
        "id": 94869,
        "wikiDataId": "Q6022399",
        "type": "CITY",
        "city": "Monte Estoril",
        "name": "Monte Estoril",
        "latitude": 38.70636,
        "longitude": -9.40595
    },
    {
        "id": 3061665,
        "wikiDataId": "Q1755149",
        "type": "CITY",
        "city": "Monte Redondo",
        "name": "Monte Redondo",
        "latitude": 39.115,
        "longitude": -9.204444444
    },
    {
        "id": 3033403,
        "wikiDataId": "Q1946059",
        "type": "CITY",
        "city": "Montelavar",
        "name": "Montelavar",
        "latitude": 38.86968,
        "longitude": -9.31581
    },
    {
        "id": 2988597,
        "wikiDataId": "Q1947512",
        "type": "ADM2",
        "city": "Moreira de Rei",
        "name": "Moreira de Rei",
        "latitude": 40.83915,
        "longitude": -7.32316
    },
    {
        "id": 94672,
        "wikiDataId": "Q35734150",
        "type": "CITY",
        "city": "Moscavide",
        "name": "Moscavide",
        "latitude": 38.77929,
        "longitude": -9.10222
    },
    {
        "id": 2988561,
        "wikiDataId": "Q1003027",
        "type": "CITY",
        "city": "Moscavide",
        "name": "Moscavide",
        "latitude": 38.779,
        "longitude": -9.103
    },
    {
        "id": 3074423,
        "wikiDataId": "Q1953936",
        "type": "CITY",
        "city": "Murça",
        "name": "Murça",
        "latitude": 41.100555555,
        "longitude": -7.231388888
    },
    {
        "id": 2971580,
        "wikiDataId": "Q1956170",
        "type": "ADM2",
        "city": "Muxagata",
        "name": "Muxagata",
        "latitude": 41.036111111,
        "longitude": -7.15
    },
    {
        "id": 3096850,
        "wikiDataId": "Q32700",
        "type": "ADM2",
        "city": "Muxagata",
        "name": "Muxagata",
        "latitude": 40.659444444,
        "longitude": -7.464722222
    },
    {
        "id": 3006592,
        "wikiDataId": "Q432607",
        "type": "CITY",
        "city": "Mártires",
        "name": "Mártires",
        "latitude": 38.708611111,
        "longitude": -9.141666666
    },
    {
        "id": 160123,
        "wikiDataId": "Q990335",
        "type": "CITY",
        "city": "Mêda",
        "name": "Mêda",
        "latitude": 40.966666666,
        "longitude": -7.266666666
    },
    {
        "id": 3098834,
        "wikiDataId": "Q596712",
        "type": "CITY",
        "city": "Mêda",
        "name": "Mêda",
        "latitude": 40.963055555,
        "longitude": -7.263055555
    },
    {
        "id": 3018281,
        "wikiDataId": "Q1452343",
        "type": "CITY",
        "city": "Mós",
        "name": "Mós",
        "latitude": 41.11306,
        "longitude": -7.19717
    },
    {
        "id": 2987073,
        "wikiDataId": "Q32671",
        "type": "CITY",
        "city": "Nabais",
        "name": "Nabais",
        "latitude": 40.52,
        "longitude": -7.555555555
    },
    {
        "id": 3079585,
        "wikiDataId": "Q1972321",
        "type": "ADM2",
        "city": "Nave",
        "name": "Nave",
        "latitude": 40.39821,
        "longitude": -6.9603
    },
    {
        "id": 3013992,
        "wikiDataId": "Q24133",
        "type": "ADM2",
        "city": "Nave de Haver",
        "name": "Nave de Haver",
        "latitude": 40.521666666,
        "longitude": -6.834166666
    },
    {
        "id": 3019309,
        "wikiDataId": "Q32668",
        "type": "ADM2",
        "city": "Nespereira",
        "name": "Nespereira",
        "latitude": 40.517222222,
        "longitude": -7.609722222
    },
    {
        "id": 3021761,
        "wikiDataId": "Q1752948",
        "type": "CITY",
        "city": "Nossa Senhora de Fátima",
        "name": "Nossa Senhora de Fátima",
        "latitude": 38.739166666,
        "longitude": -9.150833333
    },
    {
        "id": 3027141,
        "wikiDataId": "Q2005054",
        "type": "ADM2",
        "city": "Numão",
        "name": "Numão",
        "latitude": 41.0975,
        "longitude": -7.291111111
    },
    {
        "id": 94904,
        "wikiDataId": "Q850837",
        "type": "CITY",
        "city": "Odivelas",
        "name": "Odivelas",
        "latitude": 38.8,
        "longitude": -9.183333333
    },
    {
        "id": 3064572,
        "wikiDataId": "Q3348715",
        "type": "ADM2",
        "city": "Odivelas Municipality",
        "name": "Odivelas Municipality",
        "latitude": 38.79705,
        "longitude": -9.19108
    },
    {
        "id": 160114,
        "wikiDataId": "Q926700",
        "type": "CITY",
        "city": "Oeiras",
        "name": "Oeiras",
        "latitude": 38.697044444,
        "longitude": -9.301652777
    },
    {
        "id": 3095092,
        "wikiDataId": "Q1863492",
        "type": "CITY",
        "city": "Oeiras e São Julião da Barra",
        "name": "Oeiras e São Julião da Barra",
        "latitude": 38.697222222,
        "longitude": -9.308333333
    },
    {
        "id": 3026386,
        "wikiDataId": "Q2019798",
        "type": "ADM2",
        "city": "Olhalvo",
        "name": "Olhalvo",
        "latitude": 39.098611111,
        "longitude": -9.063888888
    },
    {
        "id": 3016199,
        "wikiDataId": "Q1024249",
        "type": "CITY",
        "city": "Olival de Basto",
        "name": "Olival de Basto",
        "latitude": 38.790833333,
        "longitude": -9.167222222
    },
    {
        "id": 94877,
        "wikiDataId": "Q49358934",
        "type": "CITY",
        "city": "Olival do Basto",
        "name": "Olival do Basto",
        "latitude": 38.790833333,
        "longitude": -9.166111111
    },
    {
        "id": 3100824,
        "wikiDataId": "Q951481",
        "type": "ADM2",
        "city": "Ota",
        "name": "Ota",
        "latitude": 39.11,
        "longitude": -8.989722222
    },
    {
        "id": 2973736,
        "wikiDataId": "Q2041940",
        "type": "CITY",
        "city": "Outeiro da Cabeça",
        "name": "Outeiro da Cabeça",
        "latitude": 39.192222222,
        "longitude": -9.182222222
    },
    {
        "id": 3011646,
        "wikiDataId": "Q2041942",
        "type": "CITY",
        "city": "Outeiro de Gatos",
        "name": "Outeiro de Gatos",
        "latitude": 40.952222222,
        "longitude": -7.302222222
    },
    {
        "id": 3017487,
        "wikiDataId": "Q1024948",
        "type": "CITY",
        "city": "Painho",
        "name": "Painho",
        "latitude": 39.302222222,
        "longitude": -9.049444444
    },
    {
        "id": 2975078,
        "wikiDataId": "Q919898",
        "type": "ADM2",
        "city": "Pala",
        "name": "Pala",
        "latitude": 40.763055555,
        "longitude": -7.151111111
    },
    {
        "id": 3059446,
        "wikiDataId": "Q2047784",
        "type": "ADM2",
        "city": "Palhais",
        "name": "Palhais",
        "latitude": 40.816666666,
        "longitude": -7.43
    },
    {
        "id": 2972288,
        "wikiDataId": "Q32658",
        "type": "ADM2",
        "city": "Panoias de Cima",
        "name": "Panoias de Cima",
        "latitude": 40.497777777,
        "longitude": -7.232777777
    },
    {
        "id": 3055963,
        "wikiDataId": "Q24123",
        "type": "CITY",
        "city": "Parada",
        "name": "Parada",
        "latitude": 40.539722222,
        "longitude": -7.037777777
    },
    {
        "id": 2981124,
        "wikiDataId": "Q179487",
        "type": "CITY",
        "city": "Paranhos",
        "name": "Paranhos",
        "latitude": 40.48635,
        "longitude": -7.79454
    },
    {
        "id": 3060428,
        "wikiDataId": "Q2052148",
        "type": "CITY",
        "city": "Parede",
        "name": "Parede",
        "latitude": 38.69328,
        "longitude": -9.35695
    },
    {
        "id": 94842,
        "wikiDataId": "Q2065632",
        "type": "CITY",
        "city": "Paço de Arcos",
        "name": "Paço de Arcos",
        "latitude": 38.695,
        "longitude": -9.293611111
    },
    {
        "id": 3017751,
        "wikiDataId": "Q32646",
        "type": "ADM2",
        "city": "Paços da Serra",
        "name": "Paços da Serra",
        "latitude": 40.459722222,
        "longitude": -7.650555555
    },
    {
        "id": 3058001,
        "wikiDataId": "Q45907",
        "type": "ADM2",
        "city": "Pega",
        "name": "Pega",
        "latitude": 40.428611111,
        "longitude": -7.144444444
    },
    {
        "id": 3006131,
        "wikiDataId": "Q1233617",
        "type": "CITY",
        "city": "Pena",
        "name": "Pena",
        "latitude": 38.721388888,
        "longitude": -9.14
    },
    {
        "id": 3023409,
        "wikiDataId": "Q1242414",
        "type": "CITY",
        "city": "Pena Lobo",
        "name": "Pena Lobo",
        "latitude": 40.392777777,
        "longitude": -7.203888888
    },
    {
        "id": 3040451,
        "wikiDataId": "Q2068574",
        "type": "ADM2",
        "city": "Pena Verde",
        "name": "Pena Verde",
        "latitude": 40.728333333,
        "longitude": -7.505277777
    },
    {
        "id": 3044878,
        "wikiDataId": "Q1786389",
        "type": "ADM2",
        "city": "Penha de França",
        "name": "Penha de França",
        "latitude": 38.73,
        "longitude": -9.131666666
    },
    {
        "id": 3068175,
        "wikiDataId": "Q2068885",
        "type": "CITY",
        "city": "Penha de Águia",
        "name": "Penha de Águia",
        "latitude": 40.86636,
        "longitude": -7.06814
    },
    {
        "id": 3015673,
        "wikiDataId": "Q2070111",
        "type": "ADM2",
        "city": "Peral",
        "name": "Peral",
        "latitude": 39.261666666,
        "longitude": -9.074444444
    },
    {
        "id": 3013786,
        "wikiDataId": "Q2070415",
        "type": "CITY",
        "city": "Pereiro",
        "name": "Pereiro",
        "latitude": 40.735,
        "longitude": -7.013055555
    },
    {
        "id": 3027200,
        "wikiDataId": "Q1757340",
        "type": "CITY",
        "city": "Pereiro de Palhacana",
        "name": "Pereiro de Palhacana",
        "latitude": 39.042777777,
        "longitude": -9.108888888
    },
    {
        "id": 3037373,
        "wikiDataId": "Q246559",
        "type": "CITY",
        "city": "Pero Pinheiro",
        "name": "Pero Pinheiro",
        "latitude": 38.8399,
        "longitude": -9.32066
    },
    {
        "id": 2992963,
        "wikiDataId": "Q23980",
        "type": "CITY",
        "city": "Peva",
        "name": "Peva",
        "latitude": 40.664722222,
        "longitude": -6.990833333
    },
    {
        "id": 3034661,
        "wikiDataId": "Q2095755",
        "type": "ADM2",
        "city": "Pinhanços",
        "name": "Pinhanços",
        "latitude": 40.466388888,
        "longitude": -7.683055555
    },
    {
        "id": 3024928,
        "wikiDataId": "Q1445758",
        "type": "ADM2",
        "city": "Pinheiro",
        "name": "Pinheiro",
        "latitude": 40.800833333,
        "longitude": -7.598333333
    },
    {
        "id": 160150,
        "wikiDataId": "Q917335",
        "type": "CITY",
        "city": "Pinhel",
        "name": "Pinhel",
        "latitude": 40.783333333,
        "longitude": -7.066666666
    },
    {
        "id": 3085922,
        "wikiDataId": "Q1998373",
        "type": "ADM2",
        "city": "Pinhel",
        "name": "Pinhel",
        "latitude": 40.776111111,
        "longitude": -7.062777777
    },
    {
        "id": 3078313,
        "wikiDataId": "Q646044",
        "type": "CITY",
        "city": "Pomares",
        "name": "Pomares",
        "latitude": 40.643055555,
        "longitude": -7.138055555
    },
    {
        "id": 2988424,
        "wikiDataId": "Q1026353",
        "type": "ADM2",
        "city": "Ponte do Rol",
        "name": "Ponte do Rol",
        "latitude": 39.092777777,
        "longitude": -9.319166666
    },
    {
        "id": 95020,
        "wikiDataId": "Q2103898",
        "type": "CITY",
        "city": "Pontinha",
        "name": "Pontinha",
        "latitude": 38.777,
        "longitude": -9.20377
    },
    {
        "id": 3097214,
        "wikiDataId": "Q1024837",
        "type": "CITY",
        "city": "Portela",
        "name": "Portela",
        "latitude": 38.782777777,
        "longitude": -9.111111111
    },
    {
        "id": 3053073,
        "wikiDataId": "Q2093255",
        "type": "CITY",
        "city": "Porto Salvo",
        "name": "Porto Salvo",
        "latitude": 38.717222222,
        "longitude": -9.299166666
    },
    {
        "id": 3093459,
        "wikiDataId": "Q45910",
        "type": "ADM2",
        "city": "Porto da Carne",
        "name": "Porto da Carne",
        "latitude": 40.605277777,
        "longitude": -7.292222222
    },
    {
        "id": 3062593,
        "wikiDataId": "Q45916",
        "type": "CITY",
        "city": "Pousada",
        "name": "Pousada",
        "latitude": 40.547222222,
        "longitude": -7.126111111
    },
    {
        "id": 3065063,
        "wikiDataId": "Q950399",
        "type": "CITY",
        "city": "Pousafoles do Bispo",
        "name": "Pousafoles do Bispo",
        "latitude": 40.412222222,
        "longitude": -7.179166666
    },
    {
        "id": 3017713,
        "wikiDataId": "Q2107245",
        "type": "ADM2",
        "city": "Poço do Canto",
        "name": "Poço do Canto",
        "latitude": 40.999444444,
        "longitude": -7.268333333
    },
    {
        "id": 3023132,
        "wikiDataId": "Q24212",
        "type": "ADM2",
        "city": "Prados",
        "name": "Prados",
        "latitude": 40.561388888,
        "longitude": -7.376666666
    },
    {
        "id": 3053523,
        "wikiDataId": "Q1850965",
        "type": "CITY",
        "city": "Prazeres",
        "name": "Prazeres",
        "latitude": 38.708888888,
        "longitude": -9.168888888
    },
    {
        "id": 95331,
        "wikiDataId": "Q1024836",
        "type": "CITY",
        "city": "Prior Velho",
        "name": "Prior Velho",
        "latitude": 38.791944444,
        "longitude": -9.120833333
    },
    {
        "id": 3054044,
        "wikiDataId": "Q674653",
        "type": "CITY",
        "city": "Prova",
        "name": "Prova",
        "latitude": 40.9125,
        "longitude": -7.341944444
    },
    {
        "id": 3086672,
        "wikiDataId": "Q45882",
        "type": "ADM2",
        "city": "Pêra do Moço",
        "name": "Pêra do Moço",
        "latitude": 40.613055555,
        "longitude": -7.209722222
    },
    {
        "id": 3034420,
        "wikiDataId": "Q1024979",
        "type": "CITY",
        "city": "Pêro Moniz",
        "name": "Pêro Moniz",
        "latitude": 39.221388888,
        "longitude": -9.123611111
    },
    {
        "id": 2998928,
        "wikiDataId": "Q1899234",
        "type": "ADM2",
        "city": "Pínzio",
        "name": "Pínzio",
        "latitude": 40.6025,
        "longitude": -7.065277777
    },
    {
        "id": 95084,
        "wikiDataId": "Q49362876",
        "type": "CITY",
        "city": "Póvoa de Santa Iria",
        "name": "Póvoa de Santa Iria",
        "latitude": 38.861111111,
        "longitude": -9.064444444
    },
    {
        "id": 2992616,
        "wikiDataId": "Q1020842",
        "type": "CITY",
        "city": "Póvoa de Santa Iria",
        "name": "Póvoa de Santa Iria",
        "latitude": 38.85616,
        "longitude": -9.06847
    },
    {
        "id": 3065411,
        "wikiDataId": "Q511708",
        "type": "CITY",
        "city": "Póvoa de Santo Adrião",
        "name": "Póvoa de Santo Adrião",
        "latitude": 38.80016,
        "longitude": -9.16395
    },
    {
        "id": 3048651,
        "wikiDataId": "Q2120429",
        "type": "ADM2",
        "city": "Póvoa do Concelho",
        "name": "Póvoa do Concelho",
        "latitude": 40.759722222,
        "longitude": -7.266388888
    },
    {
        "id": 3036143,
        "wikiDataId": "Q2121936",
        "type": "ADM2",
        "city": "Quadrazais",
        "name": "Quadrazais",
        "latitude": 40.324722222,
        "longitude": -6.998333333
    },
    {
        "id": 95027,
        "wikiDataId": "Q49363043",
        "type": "CITY",
        "city": "Queijas",
        "name": "Queijas",
        "latitude": 38.72236,
        "longitude": -9.26593
    },
    {
        "id": 2977185,
        "wikiDataId": "Q32648",
        "type": "ADM2",
        "city": "Queiriz",
        "name": "Queiriz",
        "latitude": 40.73596,
        "longitude": -7.44999
    },
    {
        "id": 94751,
        "wikiDataId": "Q1003060",
        "type": "CITY",
        "city": "Queluz",
        "name": "Queluz",
        "latitude": 38.75657,
        "longitude": -9.25451
    },
    {
        "id": 3055513,
        "wikiDataId": "Q2068343",
        "type": "ADM2",
        "city": "Quintas de São Bartolomeu",
        "name": "Quintas de São Bartolomeu",
        "latitude": 40.371388888,
        "longitude": -7.098611111
    },
    {
        "id": 3026054,
        "wikiDataId": "Q24003",
        "type": "CITY",
        "city": "Quintã de Pêro Martins",
        "name": "Quintã de Pêro Martins",
        "latitude": 40.881944444,
        "longitude": -7.083055555
    },
    {
        "id": 2988939,
        "wikiDataId": "Q578737",
        "type": "ADM2",
        "city": "Rabaçal",
        "name": "Rabaçal",
        "latitude": 40.8625,
        "longitude": -7.24941
    },
    {
        "id": 2983350,
        "wikiDataId": "Q1961840",
        "type": "CITY",
        "city": "Ramada",
        "name": "Ramada",
        "latitude": 38.803611111,
        "longitude": -9.191111111
    },
    {
        "id": 3052526,
        "wikiDataId": "Q2119138",
        "type": "ADM2",
        "city": "Ramalhal",
        "name": "Ramalhal",
        "latitude": 39.144722222,
        "longitude": -9.232222222
    },
    {
        "id": 2977542,
        "wikiDataId": "Q45799",
        "type": "ADM2",
        "city": "Ramela",
        "name": "Ramela",
        "latitude": 40.477777777,
        "longitude": -7.258888888
    },
    {
        "id": 3099006,
        "wikiDataId": "Q2119966",
        "type": "ADM2",
        "city": "Ranhados",
        "name": "Ranhados",
        "latitude": 40.995277777,
        "longitude": -7.329444444
    },
    {
        "id": 3023095,
        "wikiDataId": "Q2131324",
        "type": "CITY",
        "city": "Rapa",
        "name": "Rapa",
        "latitude": 40.58416667,
        "longitude": -7.34555556
    },
    {
        "id": 3074487,
        "wikiDataId": "Q2120303",
        "type": "ADM2",
        "city": "Rapoula do Côa",
        "name": "Rapoula do Côa",
        "latitude": 40.421111111,
        "longitude": -7.0475
    },
    {
        "id": 3054585,
        "wikiDataId": "Q24022",
        "type": "ADM2",
        "city": "Ratoeira",
        "name": "Ratoeira",
        "latitude": 40.640277777,
        "longitude": -7.353611111
    },
    {
        "id": 3022052,
        "wikiDataId": "Q928716",
        "type": "CITY",
        "city": "Reboleira",
        "name": "Reboleira",
        "latitude": 38.750833333,
        "longitude": -9.230277777
    },
    {
        "id": 2991577,
        "wikiDataId": "Q304139",
        "type": "ADM2",
        "city": "Reboleiro",
        "name": "Reboleiro",
        "latitude": 40.8325,
        "longitude": -7.418888888
    },
    {
        "id": 3044336,
        "wikiDataId": "Q1645165",
        "type": "ADM2",
        "city": "Rebolosa",
        "name": "Rebolosa",
        "latitude": 40.423611111,
        "longitude": -6.911111111
    },
    {
        "id": 3016283,
        "wikiDataId": "Q2119131",
        "type": "ADM2",
        "city": "Reguengo Grande",
        "name": "Reguengo Grande",
        "latitude": 39.287222222,
        "longitude": -9.214722222
    },
    {
        "id": 3015867,
        "wikiDataId": "Q24181",
        "type": "CITY",
        "city": "Reigada",
        "name": "Reigada",
        "latitude": 40.804444444,
        "longitude": -6.948055555
    },
    {
        "id": 3070531,
        "wikiDataId": "Q1899169",
        "type": "ADM2",
        "city": "Rendo",
        "name": "Rendo",
        "latitude": 40.379722222,
        "longitude": -7.044444444
    },
    {
        "id": 3098178,
        "wikiDataId": "Q2119991",
        "type": "CITY",
        "city": "Ribafria",
        "name": "Ribafria",
        "latitude": 39.061944444,
        "longitude": -9.094722222
    },
    {
        "id": 2991997,
        "wikiDataId": "Q990177",
        "type": "CITY",
        "city": "Ribamar",
        "name": "Ribamar",
        "latitude": 39.2025,
        "longitude": -9.3325
    },
    {
        "id": 3021264,
        "wikiDataId": "Q32583",
        "type": "ADM2",
        "city": "Ribamondego",
        "name": "Ribamondego",
        "latitude": 40.568055555,
        "longitude": -7.581388888
    },
    {
        "id": 3057612,
        "wikiDataId": "Q45800",
        "type": "CITY",
        "city": "Ribeira Dos Carinhos",
        "name": "Ribeira Dos Carinhos",
        "latitude": 40.621388888,
        "longitude": -7.142222222
    },
    {
        "id": 3025552,
        "wikiDataId": "Q32665",
        "type": "CITY",
        "city": "Rio Torto",
        "name": "Rio Torto",
        "latitude": 40.509166666,
        "longitude": -7.656944444
    },
    {
        "id": 3067689,
        "wikiDataId": "Q2120515",
        "type": "ADM2",
        "city": "Rio de Mel",
        "name": "Rio de Mel",
        "latitude": 40.807777777,
        "longitude": -7.393611111
    },
    {
        "id": 94862,
        "wikiDataId": "Q1631953",
        "type": "CITY",
        "city": "Rio de Mouro",
        "name": "Rio de Mouro",
        "latitude": 38.76889,
        "longitude": -9.33273
    },
    {
        "id": 3097343,
        "wikiDataId": "Q45866",
        "type": "CITY",
        "city": "Rochoso",
        "name": "Rochoso",
        "latitude": 40.516388888,
        "longitude": -7.093333333
    },
    {
        "id": 3025614,
        "wikiDataId": "Q1385363",
        "type": "CITY",
        "city": "Runa",
        "name": "Runa",
        "latitude": 39.065277777,
        "longitude": -9.208888888
    },
    {
        "id": 3097583,
        "wikiDataId": "Q2120259",
        "type": "CITY",
        "city": "Ruvina",
        "name": "Ruvina",
        "latitude": 40.415,
        "longitude": -7.010555555
    },
    {
        "id": 3001572,
        "wikiDataId": "Q992645",
        "type": "CITY",
        "city": "Sabugal",
        "name": "Sabugal",
        "latitude": 40.35,
        "longitude": -7.083333333
    },
    {
        "id": 3031895,
        "wikiDataId": "Q33849724",
        "type": "ADM2",
        "city": "Sabugal",
        "name": "Sabugal",
        "latitude": 40.33655,
        "longitude": -7.05199
    },
    {
        "id": 3012824,
        "wikiDataId": "Q1379990",
        "type": "ADM2",
        "city": "Sabugueiro",
        "name": "Sabugueiro",
        "latitude": 40.401944444,
        "longitude": -7.639722222
    },
    {
        "id": 95003,
        "wikiDataId": "Q126681",
        "type": "CITY",
        "city": "Sacavém",
        "name": "Sacavém",
        "latitude": 38.79442,
        "longitude": -9.10533
    },
    {
        "id": 3001298,
        "wikiDataId": "Q1817058",
        "type": "CITY",
        "city": "Sacramento",
        "name": "Sacramento",
        "latitude": 38.712222222,
        "longitude": -9.14
    },
    {
        "id": 3087071,
        "wikiDataId": "Q2120011",
        "type": "CITY",
        "city": "Safurdão",
        "name": "Safurdão",
        "latitude": 40.636944444,
        "longitude": -7.068888888
    },
    {
        "id": 3067106,
        "wikiDataId": "Q24203",
        "type": "CITY",
        "city": "Salgueirais",
        "name": "Salgueirais",
        "latitude": 40.57445,
        "longitude": -7.42247
    },
    {
        "id": 3006760,
        "wikiDataId": "Q1709134",
        "type": "CITY",
        "city": "Sameice",
        "name": "Sameice",
        "latitude": 40.434444444,
        "longitude": -7.776111111
    },
    {
        "id": 3017186,
        "wikiDataId": "Q45806",
        "type": "ADM2",
        "city": "Sameiro",
        "name": "Sameiro",
        "latitude": 40.409166666,
        "longitude": -7.49
    },
    {
        "id": 3080605,
        "wikiDataId": "Q2120448",
        "type": "ADM2",
        "city": "Sandomil",
        "name": "Sandomil",
        "latitude": 40.358055555,
        "longitude": -7.782777777
    },
    {
        "id": 3003557,
        "wikiDataId": "Q2118840",
        "type": "ADM2",
        "city": "Santa Bárbara",
        "name": "Santa Bárbara",
        "latitude": 39.21,
        "longitude": -9.313888888
    },
    {
        "id": 3063058,
        "wikiDataId": "Q1817021",
        "type": "CITY",
        "city": "Santa Catarina",
        "name": "Santa Catarina",
        "latitude": 38.711388888,
        "longitude": -9.148055555
    },
    {
        "id": 3001521,
        "wikiDataId": "Q2120434",
        "type": "ADM2",
        "city": "Santa Comba",
        "name": "Santa Comba",
        "latitude": 40.450555555,
        "longitude": -7.714722222
    },
    {
        "id": 3060591,
        "wikiDataId": "Q628762",
        "type": "ADM2",
        "city": "Santa Comba",
        "name": "Santa Comba",
        "latitude": 40.955833333,
        "longitude": -7.145833333
    },
    {
        "id": 2978783,
        "wikiDataId": "Q612059",
        "type": "CITY",
        "city": "Santa Engrácia",
        "name": "Santa Engrácia",
        "latitude": 38.719166666,
        "longitude": -9.119722222
    },
    {
        "id": 2970832,
        "wikiDataId": "Q1476935",
        "type": "CITY",
        "city": "Santa Eufémia",
        "name": "Santa Eufémia",
        "latitude": 40.798333333,
        "longitude": -7.180833333
    },
    {
        "id": 3026969,
        "wikiDataId": "Q2120455",
        "type": "CITY",
        "city": "Santa Eulália",
        "name": "Santa Eulália",
        "latitude": 40.41439,
        "longitude": -7.78717
    },
    {
        "id": 94674,
        "wikiDataId": "Q49367001",
        "type": "CITY",
        "city": "Santa Iria da Azóia",
        "name": "Santa Iria da Azóia",
        "latitude": 38.84629,
        "longitude": -9.08748
    },
    {
        "id": 3089798,
        "wikiDataId": "Q2057078",
        "type": "CITY",
        "city": "Santa Iria de Azoia",
        "name": "Santa Iria de Azoia",
        "latitude": 38.846388888,
        "longitude": -9.088055555
    },
    {
        "id": 3002425,
        "wikiDataId": "Q368655",
        "type": "CITY",
        "city": "Santa Isabel",
        "name": "Santa Isabel",
        "latitude": 38.718611111,
        "longitude": -9.158333333
    },
    {
        "id": 3062938,
        "wikiDataId": "Q1786376",
        "type": "CITY",
        "city": "Santa Justa",
        "name": "Santa Justa",
        "latitude": 38.715555555,
        "longitude": -9.136388888
    },
    {
        "id": 2970805,
        "wikiDataId": "Q45920",
        "type": "ADM2",
        "city": "Santa Maria",
        "name": "Santa Maria",
        "latitude": 40.423888888,
        "longitude": -7.521388888
    },
    {
        "id": 2973284,
        "wikiDataId": "Q24016",
        "type": "CITY",
        "city": "Santa Maria",
        "name": "Santa Maria",
        "latitude": 40.65352,
        "longitude": -7.42084
    },
    {
        "id": 3016885,
        "wikiDataId": "Q587254",
        "type": "CITY",
        "city": "Santa Maria",
        "name": "Santa Maria",
        "latitude": 40.788888888,
        "longitude": -7.399722222
    },
    {
        "id": 3038527,
        "wikiDataId": "Q33852278",
        "type": "ADM2",
        "city": "Santa Maria de Belém",
        "name": "Santa Maria de Belém",
        "latitude": 38.69911,
        "longitude": -9.20867
    },
    {
        "id": 2987217,
        "wikiDataId": "Q177403",
        "type": "CITY",
        "city": "Santa Maria do Castelo e São Miguel",
        "name": "Santa Maria do Castelo e São Miguel",
        "latitude": 39.10864,
        "longitude": -9.23907
    },
    {
        "id": 94792,
        "wikiDataId": "Q1786397",
        "type": "ADM2",
        "city": "Santa Maria dos Olivais",
        "name": "Santa Maria dos Olivais",
        "latitude": 38.76989,
        "longitude": -9.12073
    },
    {
        "id": 3078286,
        "wikiDataId": "Q1661925",
        "type": "CITY",
        "city": "Santa Maria e São Miguel",
        "name": "Santa Maria e São Miguel",
        "latitude": 38.800833333,
        "longitude": -9.379444444
    },
    {
        "id": 3016449,
        "wikiDataId": "Q1399236",
        "type": "CITY",
        "city": "Santa Marinha",
        "name": "Santa Marinha",
        "latitude": 40.450277777,
        "longitude": -7.663333333
    },
    {
        "id": 3005225,
        "wikiDataId": "Q45884",
        "type": "ADM2",
        "city": "Santana da Azinha",
        "name": "Santana da Azinha",
        "latitude": 40.473611111,
        "longitude": -7.209166666
    },
    {
        "id": 3009990,
        "wikiDataId": "Q2223528",
        "type": "ADM2",
        "city": "Santiago",
        "name": "Santiago",
        "latitude": 40.423888888,
        "longitude": -7.729166666
    },
    {
        "id": 3050395,
        "wikiDataId": "Q1786441",
        "type": "CITY",
        "city": "Santiago",
        "name": "Santiago",
        "latitude": 38.711666666,
        "longitude": -9.130833333
    },
    {
        "id": 2995774,
        "wikiDataId": "Q1025011",
        "type": "ADM2",
        "city": "Santiago dos Velhos",
        "name": "Santiago dos Velhos",
        "latitude": 38.941666666,
        "longitude": -9.103611111
    },
    {
        "id": 3036431,
        "wikiDataId": "Q738803",
        "type": "CITY",
        "city": "Santo Antão do Tojal",
        "name": "Santo Antão do Tojal",
        "latitude": 38.853611111,
        "longitude": -9.143055555
    },
    {
        "id": 2981813,
        "wikiDataId": "Q1024976",
        "type": "CITY",
        "city": "Santo António dos Cavaleiros",
        "name": "Santo António dos Cavaleiros",
        "latitude": 38.811666666,
        "longitude": -9.161111111
    },
    {
        "id": 3073180,
        "wikiDataId": "Q1786417",
        "type": "CITY",
        "city": "Santo Condestável",
        "name": "Santo Condestável",
        "latitude": 38.715277777,
        "longitude": -9.166944444
    },
    {
        "id": 3015421,
        "wikiDataId": "Q961456",
        "type": "CITY",
        "city": "Santo Estêvão",
        "name": "Santo Estêvão",
        "latitude": 39.042222222,
        "longitude": -9.015833333
    },
    {
        "id": 3029125,
        "wikiDataId": "Q738143",
        "type": "CITY",
        "city": "Santo Estêvão",
        "name": "Santo Estêvão",
        "latitude": 38.71119,
        "longitude": -9.12601
    },
    {
        "id": 3057391,
        "wikiDataId": "Q2120330",
        "type": "CITY",
        "city": "Santo Estêvão",
        "name": "Santo Estêvão",
        "latitude": 40.29566,
        "longitude": -7.15917
    },
    {
        "id": 3078513,
        "wikiDataId": "Q731589",
        "type": "CITY",
        "city": "Santo Estêvão das Galés",
        "name": "Santo Estêvão das Galés",
        "latitude": 38.89008,
        "longitude": -9.25066
    },
    {
        "id": 95974,
        "wikiDataId": "Q787763",
        "type": "ADM2",
        "city": "Santo Isidoro",
        "name": "Santo Isidoro",
        "latitude": 38.993611111,
        "longitude": -9.398611111
    },
    {
        "id": 3045299,
        "wikiDataId": "Q2119144",
        "type": "ADM2",
        "city": "Santo Quintino",
        "name": "Santo Quintino",
        "latitude": 39.006111111,
        "longitude": -9.149722222
    },
    {
        "id": 95987,
        "wikiDataId": "Q1890230",
        "type": "CITY",
        "city": "Santos-o-Velho",
        "name": "Santos-o-Velho",
        "latitude": 38.706944444,
        "longitude": -9.156388888
    },
    {
        "id": 3081731,
        "wikiDataId": "Q2119190",
        "type": "ADM2",
        "city": "Sapataria",
        "name": "Sapataria",
        "latitude": 38.97188,
        "longitude": -9.20195
    },
    {
        "id": 3018522,
        "wikiDataId": "Q2142894",
        "type": "ADM2",
        "city": "Sazes da Beira",
        "name": "Sazes da Beira",
        "latitude": 40.348888888,
        "longitude": -7.735277777
    },
    {
        "id": 3023378,
        "wikiDataId": "Q2120471",
        "type": "ADM2",
        "city": "Sebadelhe",
        "name": "Sebadelhe",
        "latitude": 41.052222222,
        "longitude": -7.269722222
    },
    {
        "id": 2998607,
        "wikiDataId": "Q2120411",
        "type": "CITY",
        "city": "Sebadelhe da Serra",
        "name": "Sebadelhe da Serra",
        "latitude": 40.871111111,
        "longitude": -7.398333333
    },
    {
        "id": 160086,
        "wikiDataId": "Q2452531",
        "type": "CITY",
        "city": "Seia",
        "name": "Seia",
        "latitude": 40.420277777,
        "longitude": -7.703333333
    },
    {
        "id": 3004432,
        "wikiDataId": "Q1405376",
        "type": "ADM2",
        "city": "Seixas",
        "name": "Seixas",
        "latitude": 41.11196,
        "longitude": -7.25251
    },
    {
        "id": 3050294,
        "wikiDataId": "Q2120268",
        "type": "CITY",
        "city": "Seixo do Côa",
        "name": "Seixo do Côa",
        "latitude": 40.463055555,
        "longitude": -7.026666666
    },
    {
        "id": 95912,
        "wikiDataId": "Q49367383",
        "type": "CITY",
        "city": "Sequeira",
        "name": "Sequeira",
        "latitude": 40.553611111,
        "longitude": -7.225833333
    },
    {
        "id": 3020162,
        "wikiDataId": "Q1602794",
        "type": "CITY",
        "city": "Sequeiros",
        "name": "Sequeiros",
        "latitude": 40.83714,
        "longitude": -7.49803
    },
    {
        "id": 94827,
        "wikiDataId": "Q49367778",
        "type": "CITY",
        "city": "Silveira",
        "name": "Silveira",
        "latitude": 39.111111111,
        "longitude": -9.364166666
    },
    {
        "id": 160170,
        "wikiDataId": "Q190187",
        "type": "CITY",
        "city": "Sintra",
        "name": "Sintra",
        "latitude": 38.797361111,
        "longitude": -9.390416666
    },
    {
        "id": 2989602,
        "wikiDataId": "Q33716124",
        "type": "CITY",
        "city": "Sintra (town)",
        "name": "Sintra (town)",
        "latitude": 38.81439,
        "longitude": -9.3837
    },
    {
        "id": 3061719,
        "wikiDataId": "Q33858375",
        "type": "ADM2",
        "city": "Sobral Pichorro",
        "name": "Sobral Pichorro",
        "latitude": 40.69073,
        "longitude": -7.45598
    },
    {
        "id": 2992181,
        "wikiDataId": "Q1024986",
        "type": "CITY",
        "city": "Sobral da Abelheira",
        "name": "Sobral da Abelheira",
        "latitude": 38.998333333,
        "longitude": -9.329166666
    },
    {
        "id": 3007864,
        "wikiDataId": "Q45890",
        "type": "ADM2",
        "city": "Sobral da Serra",
        "name": "Sobral da Serra",
        "latitude": 40.619166666,
        "longitude": -7.279722222
    },
    {
        "id": 95052,
        "wikiDataId": "Q1005105",
        "type": "CITY",
        "city": "Sobral de Monte Agraço",
        "name": "Sobral de Monte Agraço",
        "latitude": 39.01666667,
        "longitude": -9.15
    },
    {
        "id": 3024739,
        "wikiDataId": "Q33717018",
        "type": "ADM2",
        "city": "Sobral de Monte Agraço",
        "name": "Sobral de Monte Agraço",
        "latitude": 38.99585,
        "longitude": -9.17409
    },
    {
        "id": 3059740,
        "wikiDataId": "Q944452",
        "type": "CITY",
        "city": "Sobralinho",
        "name": "Sobralinho",
        "latitude": 38.9175,
        "longitude": -9.026111111
    },
    {
        "id": 3009497,
        "wikiDataId": "Q1466131",
        "type": "CITY",
        "city": "Socorro",
        "name": "Socorro",
        "latitude": 38.716666666,
        "longitude": -9.134444444
    },
    {
        "id": 2981175,
        "wikiDataId": "Q2120360",
        "type": "ADM2",
        "city": "Sortelha",
        "name": "Sortelha",
        "latitude": 40.331388888,
        "longitude": -7.211388888
    },
    {
        "id": 3062165,
        "wikiDataId": "Q2119982",
        "type": "ADM2",
        "city": "Souro Pires",
        "name": "Souro Pires",
        "latitude": 40.745,
        "longitude": -7.124722222
    },
    {
        "id": 3094786,
        "wikiDataId": "Q2120370",
        "type": "CITY",
        "city": "Souto",
        "name": "Souto",
        "latitude": 40.356666666,
        "longitude": -6.958333333
    },
    {
        "id": 3044670,
        "wikiDataId": "Q2120463",
        "type": "CITY",
        "city": "Souto Maior",
        "name": "Souto Maior",
        "latitude": 40.79686,
        "longitude": -7.3141
    },
    {
        "id": 3038059,
        "wikiDataId": "Q2120294",
        "type": "CITY",
        "city": "Souto de Aguiar da Beira",
        "name": "Souto de Aguiar da Beira",
        "latitude": 40.81075,
        "longitude": -7.49244
    },
    {
        "id": 94873,
        "type": "CITY",
        "city": "São Bartolomeu",
        "name": "São Bartolomeu",
        "latitude": 39.27511,
        "longitude": -9.27885
    },
    {
        "id": 3076662,
        "wikiDataId": "Q1794739",
        "type": "CITY",
        "city": "São Bartolomeu dos Galegos",
        "name": "São Bartolomeu dos Galegos",
        "latitude": 39.275833333,
        "longitude": -9.279444444
    },
    {
        "id": 3017995,
        "wikiDataId": "Q1024772",
        "type": "CITY",
        "city": "São Brás",
        "name": "São Brás",
        "latitude": 38.7675,
        "longitude": -9.233055555
    },
    {
        "id": 2971122,
        "wikiDataId": "Q1740339",
        "type": "CITY",
        "city": "São Cristóvão e São Lourenço",
        "name": "São Cristóvão e São Lourenço",
        "latitude": 38.712777777,
        "longitude": -9.135555555
    },
    {
        "id": 3021549,
        "wikiDataId": "Q1618787",
        "type": "ADM2",
        "city": "São Domingos de Benfica",
        "name": "São Domingos de Benfica",
        "latitude": 38.743611111,
        "longitude": -9.17
    },
    {
        "id": 94915,
        "wikiDataId": "Q33502987",
        "type": "CITY",
        "city": "São Domingos de Rana",
        "name": "São Domingos de Rana",
        "latitude": 38.70123,
        "longitude": -9.3276
    },
    {
        "id": 3008821,
        "wikiDataId": "Q1817065",
        "type": "ADM2",
        "city": "São Domingos de Rana",
        "name": "São Domingos de Rana",
        "latitude": 38.7,
        "longitude": -9.333333333
    },
    {
        "id": 3098987,
        "wikiDataId": "Q972747",
        "type": "CITY",
        "city": "São Francisco Xavier",
        "name": "São Francisco Xavier",
        "latitude": 38.707222222,
        "longitude": -9.217222222
    },
    {
        "id": 3034405,
        "wikiDataId": "Q1850958",
        "type": "CITY",
        "city": "São Jorge de Arroios",
        "name": "São Jorge de Arroios",
        "latitude": 38.728888888,
        "longitude": -9.138888888
    },
    {
        "id": 3036572,
        "wikiDataId": "Q1786370",
        "type": "CITY",
        "city": "São José",
        "name": "São José",
        "latitude": 38.718055555,
        "longitude": -9.1425
    },
    {
        "id": 3091940,
        "wikiDataId": "Q1528245",
        "type": "CITY",
        "city": "São João",
        "name": "São João",
        "latitude": 38.728888888,
        "longitude": -9.122777777
    },
    {
        "id": 3009013,
        "wikiDataId": "Q33862485",
        "type": "ADM2",
        "city": "São João Dos Montes",
        "name": "São João Dos Montes",
        "latitude": 38.95166,
        "longitude": -9.05449
    },
    {
        "id": 2990747,
        "wikiDataId": "Q1024823",
        "type": "CITY",
        "city": "São João da Talha",
        "name": "São João da Talha",
        "latitude": 38.825833333,
        "longitude": -9.092222222
    },
    {
        "id": 3052636,
        "wikiDataId": "Q992328",
        "type": "CITY",
        "city": "São João das Lampas",
        "name": "São João das Lampas",
        "latitude": 38.87,
        "longitude": -9.421111111
    },
    {
        "id": 3081021,
        "wikiDataId": "Q960058",
        "type": "CITY",
        "city": "São João de Brito",
        "name": "São João de Brito",
        "latitude": 38.755,
        "longitude": -9.137777777
    },
    {
        "id": 3059514,
        "wikiDataId": "Q786334",
        "type": "CITY",
        "city": "São João de Deus",
        "name": "São João de Deus",
        "latitude": 38.740277777,
        "longitude": -9.137777777
    },
    {
        "id": 94770,
        "wikiDataId": "Q2119166",
        "type": "CITY",
        "city": "São João dos Montes",
        "name": "São João dos Montes",
        "latitude": 38.93944,
        "longitude": -9.01892
    },
    {
        "id": 2972015,
        "wikiDataId": "Q32691",
        "type": "CITY",
        "city": "São Julião",
        "name": "São Julião",
        "latitude": 40.48757,
        "longitude": -7.59498
    },
    {
        "id": 3052172,
        "wikiDataId": "Q1024945",
        "type": "CITY",
        "city": "São Julião do Tojal",
        "name": "São Julião do Tojal",
        "latitude": 38.858055555,
        "longitude": -9.135555555
    },
    {
        "id": 3054659,
        "wikiDataId": "Q2035325",
        "type": "CITY",
        "city": "São Mamede",
        "name": "São Mamede",
        "latitude": 38.72023,
        "longitude": -9.15298
    },
    {
        "id": 3059234,
        "wikiDataId": "Q1021763",
        "type": "CITY",
        "city": "São Marcos",
        "name": "São Marcos",
        "latitude": 38.75624,
        "longitude": -9.29731
    },
    {
        "id": 3057180,
        "wikiDataId": "Q1267023",
        "type": "CITY",
        "city": "São Martinho",
        "name": "São Martinho",
        "latitude": 40.443055555,
        "longitude": -7.671944444
    },
    {
        "id": 3070986,
        "wikiDataId": "Q1858831",
        "type": "CITY",
        "city": "São Martinho",
        "name": "São Martinho",
        "latitude": 38.8125,
        "longitude": -9.420833333
    },
    {
        "id": 3088143,
        "wikiDataId": "Q969311",
        "type": "CITY",
        "city": "São Miguel",
        "name": "São Miguel",
        "latitude": 38.711111111,
        "longitude": -9.129444444
    },
    {
        "id": 2967902,
        "wikiDataId": "Q45913",
        "type": "CITY",
        "city": "São Miguel da Guarda",
        "name": "São Miguel da Guarda",
        "latitude": 40.555555555,
        "longitude": -7.246111111
    },
    {
        "id": 3059608,
        "wikiDataId": "Q267405",
        "type": "CITY",
        "city": "São Miguel de Alcainça",
        "name": "São Miguel de Alcainça",
        "latitude": 38.921111111,
        "longitude": -9.295833333
    },
    {
        "id": 3044689,
        "wikiDataId": "Q1786384",
        "type": "CITY",
        "city": "São Nicolau",
        "name": "São Nicolau",
        "latitude": 38.7075,
        "longitude": -9.136666666
    },
    {
        "id": 3022445,
        "wikiDataId": "Q32670",
        "type": "ADM2",
        "city": "São Paio",
        "name": "São Paio",
        "latitude": 40.515277777,
        "longitude": -7.582222222
    },
    {
        "id": 3018626,
        "wikiDataId": "Q1817090",
        "type": "CITY",
        "city": "São Paulo",
        "name": "São Paulo",
        "latitude": 38.7076,
        "longitude": -9.14707
    },
    {
        "id": 2969006,
        "wikiDataId": "Q23984",
        "type": "CITY",
        "city": "São Pedro",
        "name": "São Pedro",
        "latitude": 40.632222222,
        "longitude": -7.381388888
    },
    {
        "id": 3079389,
        "wikiDataId": "Q1468139",
        "type": "CITY",
        "city": "São Pedro",
        "name": "São Pedro",
        "latitude": 40.788055555,
        "longitude": -7.343333333
    },
    {
        "id": 3084847,
        "wikiDataId": "Q32667",
        "type": "CITY",
        "city": "São Pedro",
        "name": "São Pedro",
        "latitude": 40.47065,
        "longitude": -7.54769
    },
    {
        "id": 94951,
        "wikiDataId": "Q33503173",
        "type": "CITY",
        "city": "São Pedro da Cadeira",
        "name": "São Pedro da Cadeira",
        "latitude": 39.069722222,
        "longitude": -9.371666666
    },
    {
        "id": 3019420,
        "wikiDataId": "Q1617626",
        "type": "CITY",
        "city": "São Pedro de Penaferrim",
        "name": "São Pedro de Penaferrim",
        "latitude": 38.76947,
        "longitude": -9.38963
    },
    {
        "id": 3064906,
        "wikiDataId": "Q24035",
        "type": "ADM2",
        "city": "São Pedro de Rio Seco",
        "name": "São Pedro de Rio Seco",
        "latitude": 40.661944444,
        "longitude": -6.839166666
    },
    {
        "id": 95760,
        "wikiDataId": "Q1943011",
        "type": "CITY",
        "city": "São Romão",
        "name": "São Romão",
        "latitude": 40.401944444,
        "longitude": -7.716944444
    },
    {
        "id": 3065435,
        "wikiDataId": "Q1285555",
        "type": "CITY",
        "city": "São Sebastião da Pedreira",
        "name": "São Sebastião da Pedreira",
        "latitude": 38.730833333,
        "longitude": -9.149166666
    },
    {
        "id": 3066155,
        "wikiDataId": "Q45807",
        "type": "ADM2",
        "city": "São Vicente",
        "name": "São Vicente",
        "latitude": 40.53979,
        "longitude": -7.23536
    },
    {
        "id": 3055458,
        "wikiDataId": "Q1026664",
        "type": "CITY",
        "city": "São Vicente de Fora",
        "name": "São Vicente de Fora",
        "latitude": 38.715833333,
        "longitude": -9.124166666
    },
    {
        "id": 3011833,
        "wikiDataId": "Q45915",
        "type": "CITY",
        "city": "Sé",
        "name": "Sé",
        "latitude": 40.538611111,
        "longitude": -7.269166666
    },
    {
        "id": 3085702,
        "wikiDataId": "Q585130",
        "type": "CITY",
        "city": "Sé",
        "name": "Sé",
        "latitude": 38.71,
        "longitude": -9.1325
    },
    {
        "id": 2995058,
        "wikiDataId": "Q1990826",
        "type": "ADM2",
        "city": "Tamanhos",
        "name": "Tamanhos",
        "latitude": 40.761666666,
        "longitude": -7.315555555
    },
    {
        "id": 2981708,
        "wikiDataId": "Q2296653",
        "type": "ADM2",
        "city": "Teixeira",
        "name": "Teixeira",
        "latitude": 40.253333333,
        "longitude": -7.741666666
    },
    {
        "id": 3044585,
        "wikiDataId": "Q628312",
        "type": "CITY",
        "city": "Terrenho",
        "name": "Terrenho",
        "latitude": 40.866111111,
        "longitude": -7.354166666
    },
    {
        "id": 94999,
        "wikiDataId": "Q1328618",
        "type": "CITY",
        "city": "Terrugem",
        "name": "Terrugem",
        "latitude": 38.851111111,
        "longitude": -9.374722222
    },
    {
        "id": 3029443,
        "wikiDataId": "Q33506118",
        "type": "CITY",
        "city": "Terrugem",
        "name": "Terrugem",
        "latitude": 38.70647,
        "longitude": -9.28693
    },
    {
        "id": 3047439,
        "wikiDataId": "Q1950406",
        "type": "CITY",
        "city": "Torre do Terrenho",
        "name": "Torre do Terrenho",
        "latitude": 40.888888888,
        "longitude": -7.359444444
    },
    {
        "id": 3046961,
        "wikiDataId": "Q2120504",
        "type": "CITY",
        "city": "Torres",
        "name": "Torres",
        "latitude": 40.748333333,
        "longitude": -7.319166666
    },
    {
        "id": 95054,
        "wikiDataId": "Q917319",
        "type": "CITY",
        "city": "Torres Vedras",
        "name": "Torres Vedras",
        "latitude": 39.083333333,
        "longitude": -9.266666666
    },
    {
        "id": 3099482,
        "wikiDataId": "Q1566702",
        "type": "CITY",
        "city": "Torrozelo",
        "name": "Torrozelo",
        "latitude": 40.386111111,
        "longitude": -7.760277777
    },
    {
        "id": 3060555,
        "wikiDataId": "Q2120440",
        "type": "CITY",
        "city": "Tourais",
        "name": "Tourais",
        "latitude": 40.471388888,
        "longitude": -7.750833333
    },
    {
        "id": 3081210,
        "wikiDataId": "Q253045",
        "type": "CITY",
        "city": "Touça",
        "name": "Touça",
        "latitude": 41.047222222,
        "longitude": -7.233888888
    },
    {
        "id": 160163,
        "wikiDataId": "Q686868",
        "type": "CITY",
        "city": "Trancoso",
        "name": "Trancoso",
        "latitude": 40.7833,
        "longitude": -7.35
    },
    {
        "id": 3027111,
        "wikiDataId": "Q919362",
        "type": "CITY",
        "city": "Travancinha",
        "name": "Travancinha",
        "latitude": 40.42234,
        "longitude": -7.82175
    },
    {
        "id": 3061065,
        "wikiDataId": "Q1704986",
        "type": "CITY",
        "city": "Triana",
        "name": "Triana",
        "latitude": 39.06988,
        "longitude": -8.9866
    },
    {
        "id": 3067191,
        "wikiDataId": "Q45905",
        "type": "CITY",
        "city": "Trinta",
        "name": "Trinta",
        "latitude": 40.504444444,
        "longitude": -7.355277777
    },
    {
        "id": 2988562,
        "wikiDataId": "Q2119181",
        "type": "CITY",
        "city": "Turcifal",
        "name": "Turcifal",
        "latitude": 39.03578,
        "longitude": -9.26017
    },
    {
        "id": 2970841,
        "wikiDataId": "Q954974",
        "type": "CITY",
        "city": "Unhos",
        "name": "Unhos",
        "latitude": 38.825833333,
        "longitude": -9.121388888
    },
    {
        "id": 3003679,
        "wikiDataId": "Q1893823",
        "type": "CITY",
        "city": "Valbom",
        "name": "Valbom",
        "latitude": 40.780555555,
        "longitude": -7.128888888
    },
    {
        "id": 3023869,
        "wikiDataId": "Q2120496",
        "type": "ADM2",
        "city": "Valdujo",
        "name": "Valdujo",
        "latitude": 40.845,
        "longitude": -7.266944444
    },
    {
        "id": 3067433,
        "wikiDataId": "Q938288",
        "type": "CITY",
        "city": "Vale Flor",
        "name": "Vale Flor",
        "latitude": 40.912777777,
        "longitude": -7.282222222
    },
    {
        "id": 3042003,
        "wikiDataId": "Q24125",
        "type": "ADM2",
        "city": "Vale da Mula",
        "name": "Vale da Mula",
        "latitude": 40.703611111,
        "longitude": -6.823611111
    },
    {
        "id": 3025713,
        "wikiDataId": "Q45801",
        "type": "ADM2",
        "city": "Vale de Amoreira",
        "name": "Vale de Amoreira",
        "latitude": 40.414166666,
        "longitude": -7.441388888
    },
    {
        "id": 3095893,
        "wikiDataId": "Q24025",
        "type": "ADM2",
        "city": "Vale de Azares",
        "name": "Vale de Azares",
        "latitude": 40.60492,
        "longitude": -7.36421
    },
    {
        "id": 3060295,
        "wikiDataId": "Q2120421",
        "type": "ADM2",
        "city": "Vale de Espinho",
        "name": "Vale de Espinho",
        "latitude": 40.296944444,
        "longitude": -6.950555555
    },
    {
        "id": 2975228,
        "wikiDataId": "Q1018765",
        "type": "ADM2",
        "city": "Vale de Estrela",
        "name": "Vale de Estrela",
        "latitude": 40.499444444,
        "longitude": -7.307777777
    },
    {
        "id": 2990210,
        "wikiDataId": "Q1024768",
        "type": "ADM2",
        "city": "Vale do Paraíso",
        "name": "Vale do Paraíso",
        "latitude": 39.115555555,
        "longitude": -8.885833333
    },
    {
        "id": 3016953,
        "wikiDataId": "Q1534106",
        "type": "CITY",
        "city": "Vale do Seixo",
        "name": "Vale do Seixo",
        "latitude": 40.79291,
        "longitude": -7.27266
    },
    {
        "id": 3002553,
        "wikiDataId": "Q2051680",
        "type": "ADM2",
        "city": "Valezim",
        "name": "Valezim",
        "latitude": 40.35889,
        "longitude": -7.70831
    },
    {
        "id": 2985887,
        "wikiDataId": "Q45876",
        "type": "ADM2",
        "city": "Valhelhas",
        "name": "Valhelhas",
        "latitude": 40.407222222,
        "longitude": -7.403055555
    },
    {
        "id": 3057193,
        "wikiDataId": "Q1667932",
        "type": "CITY",
        "city": "Valverde",
        "name": "Valverde",
        "latitude": 40.784166666,
        "longitude": -7.521944444
    },
    {
        "id": 2979906,
        "wikiDataId": "Q1893997",
        "type": "ADM2",
        "city": "Vascoveiro",
        "name": "Vascoveiro",
        "latitude": 40.734166666,
        "longitude": -7.069722222
    },
    {
        "id": 2983752,
        "wikiDataId": "Q45879",
        "type": "ADM2",
        "city": "Vela",
        "name": "Vela",
        "latitude": 40.43585,
        "longitude": -7.30369
    },
    {
        "id": 3045587,
        "wikiDataId": "Q24013",
        "type": "CITY",
        "city": "Velosa",
        "name": "Velosa",
        "latitude": 40.6525,
        "longitude": -7.29
    },
    {
        "id": 2988359,
        "wikiDataId": "Q1024973",
        "type": "CITY",
        "city": "Venda Nova",
        "name": "Venda Nova",
        "latitude": 38.75422,
        "longitude": -9.21452
    },
    {
        "id": 3046796,
        "wikiDataId": "Q1024966",
        "type": "CITY",
        "city": "Venda do Pinheiro",
        "name": "Venda do Pinheiro",
        "latitude": 38.925277777,
        "longitude": -9.232222222
    },
    {
        "id": 3099224,
        "wikiDataId": "Q1024994",
        "type": "ADM2",
        "city": "Venteira",
        "name": "Venteira",
        "latitude": 38.759444444,
        "longitude": -9.241111111
    },
    {
        "id": 94746,
        "wikiDataId": "Q33511589",
        "type": "CITY",
        "city": "Ventosa",
        "name": "Ventosa",
        "latitude": 39.126944444,
        "longitude": -9.084166666
    },
    {
        "id": 2976433,
        "wikiDataId": "Q1967102",
        "type": "ADM2",
        "city": "Ventosa",
        "name": "Ventosa",
        "latitude": 39.0675,
        "longitude": -9.309166666
    },
    {
        "id": 3002469,
        "wikiDataId": "Q1901338",
        "type": "ADM2",
        "city": "Vermelha",
        "name": "Vermelha",
        "latitude": 39.272777777,
        "longitude": -9.105555555
    },
    {
        "id": 3090902,
        "wikiDataId": "Q24008",
        "type": "ADM2",
        "city": "Vermiosa",
        "name": "Vermiosa",
        "latitude": 40.827222222,
        "longitude": -6.8775
    },
    {
        "id": 94761,
        "wikiDataId": "Q33511692",
        "type": "CITY",
        "city": "Vialonga",
        "name": "Vialonga",
        "latitude": 38.87094,
        "longitude": -9.06823
    },
    {
        "id": 3028609,
        "wikiDataId": "Q1340615",
        "type": "CITY",
        "city": "Vialonga",
        "name": "Vialonga",
        "latitude": 38.874022222,
        "longitude": -9.083397222
    },
    {
        "id": 3030150,
        "wikiDataId": "Q1664151",
        "type": "CITY",
        "city": "Vide",
        "name": "Vide",
        "latitude": 40.294444444,
        "longitude": -7.784166666
    },
    {
        "id": 3002172,
        "wikiDataId": "Q24029",
        "type": "CITY",
        "city": "Vide Entre Vinhas",
        "name": "Vide Entre Vinhas",
        "latitude": 40.597222222,
        "longitude": -7.404166666
    },
    {
        "id": 3024514,
        "wikiDataId": "Q45903",
        "type": "ADM2",
        "city": "Videmonte",
        "name": "Videmonte",
        "latitude": 40.513888888,
        "longitude": -7.39
    },
    {
        "id": 3066133,
        "wikiDataId": "Q934992",
        "type": "ADM2",
        "city": "Vila Boa",
        "name": "Vila Boa",
        "latitude": 40.383055555,
        "longitude": -7.003888888
    },
    {
        "id": 3088572,
        "wikiDataId": "Q24001",
        "type": "CITY",
        "city": "Vila Boa do Mondego",
        "name": "Vila Boa do Mondego",
        "latitude": 40.626944444,
        "longitude": -7.437777777
    },
    {
        "id": 2972315,
        "wikiDataId": "Q32649",
        "type": "ADM2",
        "city": "Vila Cortês da Serra",
        "name": "Vila Cortês da Serra",
        "latitude": 40.550833333,
        "longitude": -7.529444444
    },
    {
        "id": 2986698,
        "wikiDataId": "Q45887",
        "type": "ADM2",
        "city": "Vila Cortês do Mondego",
        "name": "Vila Cortês do Mondego",
        "latitude": 40.60593,
        "longitude": -7.31236
    },
    {
        "id": 2990761,
        "wikiDataId": "Q1861972",
        "type": "ADM2",
        "city": "Vila Cova à Coelheira",
        "name": "Vila Cova à Coelheira",
        "latitude": 40.383333333,
        "longitude": -7.734166666
    },
    {
        "id": 3013900,
        "wikiDataId": "Q45897",
        "type": "ADM2",
        "city": "Vila Fernando",
        "name": "Vila Fernando",
        "latitude": 40.494722222,
        "longitude": -7.154444444
    },
    {
        "id": 3095662,
        "wikiDataId": "Q32664",
        "type": "ADM2",
        "city": "Vila Franca da Serra",
        "name": "Vila Franca da Serra",
        "latitude": 40.587222222,
        "longitude": -7.539444444
    },
    {
        "id": 3086279,
        "wikiDataId": "Q2297859",
        "type": "CITY",
        "city": "Vila Franca das Naves",
        "name": "Vila Franca das Naves",
        "latitude": 40.72392,
        "longitude": -7.26206
    },
    {
        "id": 160104,
        "wikiDataId": "Q917326",
        "type": "CITY",
        "city": "Vila Franca de Xira",
        "name": "Vila Franca de Xira",
        "latitude": 38.95,
        "longitude": -8.983333333
    },
    {
        "id": 3072131,
        "wikiDataId": "Q49292312",
        "type": "CITY",
        "city": "Vila Franca de Xira",
        "name": "Vila Franca de Xira",
        "latitude": 38.955277777,
        "longitude": -8.989722222
    },
    {
        "id": 2970577,
        "wikiDataId": "Q45899",
        "type": "ADM2",
        "city": "Vila Franca do Deão",
        "name": "Vila Franca do Deão",
        "latitude": 40.652777777,
        "longitude": -7.242222222
    },
    {
        "id": 3023585,
        "wikiDataId": "Q1025009",
        "type": "CITY",
        "city": "Vila Franca do Rosário",
        "name": "Vila Franca do Rosário",
        "latitude": 38.974722222,
        "longitude": -9.256111111
    },
    {
        "id": 3072088,
        "wikiDataId": "Q1803493",
        "type": "CITY",
        "city": "Vila Garcia",
        "name": "Vila Garcia",
        "latitude": 40.79414,
        "longitude": -7.23318
    },
    {
        "id": 3078089,
        "wikiDataId": "Q45896",
        "type": "ADM2",
        "city": "Vila Garcia",
        "name": "Vila Garcia",
        "latitude": 40.51181,
        "longitude": -7.17233
    },
    {
        "id": 3020671,
        "wikiDataId": "Q144683",
        "type": "CITY",
        "city": "Vila Nova da Rainha",
        "name": "Vila Nova da Rainha",
        "latitude": 39.037222222,
        "longitude": -8.933611111
    },
    {
        "id": 160080,
        "wikiDataId": "Q537471",
        "type": "CITY",
        "city": "Vila Nova de Foz Côa",
        "name": "Vila Nova de Foz Côa",
        "latitude": 41.083333333,
        "longitude": -7.133333333
    },
    {
        "id": 3026683,
        "wikiDataId": "Q2452445",
        "type": "ADM2",
        "city": "Vila Nova de Foz Côa",
        "name": "Vila Nova de Foz Côa",
        "latitude": 41.082777777,
        "longitude": -7.135277777
    },
    {
        "id": 3001526,
        "wikiDataId": "Q1010908",
        "type": "CITY",
        "city": "Vila Nova de São Pedro",
        "name": "Vila Nova de São Pedro",
        "latitude": 39.2198,
        "longitude": -8.84037
    },
    {
        "id": 3006332,
        "wikiDataId": "Q32561",
        "type": "CITY",
        "city": "Vila Nova de Tazem",
        "name": "Vila Nova de Tazem",
        "latitude": 40.5025,
        "longitude": -7.703055555
    },
    {
        "id": 3078667,
        "wikiDataId": "Q32711",
        "type": "CITY",
        "city": "Vila Ruiva",
        "name": "Vila Ruiva",
        "latitude": 40.569444444,
        "longitude": -7.514166666
    },
    {
        "id": 3012423,
        "wikiDataId": "Q32644",
        "type": "CITY",
        "city": "Vila Soeiro do Chão",
        "name": "Vila Soeiro do Chão",
        "latitude": 40.61036,
        "longitude": -7.48202
    },
    {
        "id": 94703,
        "type": "CITY",
        "city": "Vila Verde",
        "name": "Vila Verde",
        "latitude": 39.15489,
        "longitude": -9.11512
    },
    {
        "id": 3073428,
        "wikiDataId": "Q2118819",
        "type": "ADM2",
        "city": "Vila Verde dos Francos",
        "name": "Vila Verde dos Francos",
        "latitude": 39.154444444,
        "longitude": -9.113333333
    },
    {
        "id": 3000694,
        "wikiDataId": "Q1566520",
        "type": "CITY",
        "city": "Vila do Touro",
        "name": "Vila do Touro",
        "latitude": 40.416388888,
        "longitude": -7.105555555
    },
    {
        "id": 3007329,
        "wikiDataId": "Q1024961",
        "type": "ADM2",
        "city": "Vilar",
        "name": "Vilar",
        "latitude": 39.18671,
        "longitude": -9.10687
    },
    {
        "id": 3046160,
        "wikiDataId": "Q33878223",
        "type": "ADM2",
        "city": "Vilar Formoso",
        "name": "Vilar Formoso",
        "latitude": 40.61382,
        "longitude": -6.83493
    },
    {
        "id": 3067427,
        "wikiDataId": "Q2120488",
        "type": "CITY",
        "city": "Vilar Maior",
        "name": "Vilar Maior",
        "latitude": 40.48473,
        "longitude": -6.91999
    },
    {
        "id": 3034219,
        "wikiDataId": "Q24033",
        "type": "CITY",
        "city": "Vilar Torpim",
        "name": "Vilar Torpim",
        "latitude": 40.825555555,
        "longitude": -6.951944444
    },
    {
        "id": 2973513,
        "wikiDataId": "Q1362994",
        "type": "CITY",
        "city": "Vilar de Amargo",
        "name": "Vilar de Amargo",
        "latitude": 40.94636,
        "longitude": -7.00157
    },
    {
        "id": 3048264,
        "wikiDataId": "Q1416473",
        "type": "CITY",
        "city": "Vilares",
        "name": "Vilares",
        "latitude": 40.72062,
        "longitude": -7.28348
    },
    {
        "id": 94937,
        "wikiDataId": "Q1932382",
        "type": "ADM2",
        "city": "Vimeiro",
        "name": "Vimeiro",
        "latitude": 39.177777777,
        "longitude": -9.317777777
    },
    {
        "id": 2979832,
        "wikiDataId": "Q32585",
        "type": "CITY",
        "city": "Vinhó",
        "name": "Vinhó",
        "latitude": 40.495833333,
        "longitude": -7.626944444
    },
    {
        "id": 3041668,
        "wikiDataId": "Q1687150",
        "type": "CITY",
        "city": "Várzea de Meruge",
        "name": "Várzea de Meruge",
        "latitude": 40.395277777,
        "longitude": -7.783611111
    },
    {
        "id": 3038708,
        "wikiDataId": "Q249788",
        "type": "ADM2",
        "city": "Águas Belas",
        "name": "Águas Belas",
        "latitude": 40.37472222,
        "longitude": -7.16694444
    }
]
