[
    {
        "id": 110317,
        "wikiDataId": "Q895880",
        "type": "ADM2",
        "city": "Boyabat",
        "name": "Boyabat",
        "latitude": 41.46889,
        "longitude": 34.76667
    },
    {
        "id": 168481,
        "type": "ADM2",
        "city": "Boyabat İlçesi",
        "name": "Boyabat İlçesi",
        "latitude": 41.47914,
        "longitude": 34.77175
    },
    {
        "id": 168438,
        "wikiDataId": "Q3027936",
        "type": "ADM2",
        "city": "Dikmen",
        "name": "Dikmen",
        "latitude": 41.66,
        "longitude": 35.270555555
    },
    {
        "id": 110190,
        "wikiDataId": "Q2670763",
        "type": "ADM2",
        "city": "Durağan",
        "name": "Durağan",
        "latitude": 41.425555555,
        "longitude": 35.057777777
    },
    {
        "id": 110443,
        "wikiDataId": "Q1872912",
        "type": "CITY",
        "city": "Erfelek",
        "name": "Erfelek",
        "latitude": 41.87926,
        "longitude": 34.91838
    },
    {
        "id": 168168,
        "type": "ADM2",
        "city": "Erfelek İlçesi",
        "name": "Erfelek İlçesi",
        "latitude": 41.88907,
        "longitude": 34.92652
    },
    {
        "id": 111002,
        "wikiDataId": "Q2014028",
        "type": "ADM2",
        "city": "Gerze",
        "name": "Gerze",
        "latitude": 41.81,
        "longitude": 35.190277777
    },
    {
        "id": 167942,
        "type": "ADM2",
        "city": "Merkez",
        "name": "Merkez",
        "latitude": 41.91835,
        "longitude": 35.00687
    },
    {
        "id": 168324,
        "wikiDataId": "Q1834901",
        "type": "ADM2",
        "city": "Saraydüzü",
        "name": "Saraydüzü",
        "latitude": 41.337222222,
        "longitude": 34.853611111
    },
    {
        "id": 110370,
        "wikiDataId": "Q599416",
        "type": "CITY",
        "city": "Sinop",
        "name": "Sinop",
        "latitude": 42.027192,
        "longitude": 35.150441
    },
    {
        "id": 110788,
        "wikiDataId": "Q606923",
        "type": "ADM2",
        "city": "Türkeli",
        "name": "Türkeli",
        "latitude": 41.947777777,
        "longitude": 34.338611111
    },
    {
        "id": 168334,
        "type": "ADM2",
        "city": "Türkeli İlçesi",
        "name": "Türkeli İlçesi",
        "latitude": 41.94197,
        "longitude": 34.34821
    }
]
