[
    {
        "id": 3081098,
        "wikiDataId": "Q667265",
        "type": "CITY",
        "city": "Albeck",
        "name": "Albeck",
        "latitude": 46.816666666,
        "longitude": 14.1
    },
    {
        "id": 4623,
        "wikiDataId": "Q441016",
        "type": "CITY",
        "city": "Althofen",
        "name": "Althofen",
        "latitude": 46.866666666,
        "longitude": 14.466666666
    },
    {
        "id": 4579,
        "type": "CITY",
        "city": "Annabichl",
        "name": "Annabichl",
        "latitude": 46.65,
        "longitude": 14.31667
    },
    {
        "id": 4699,
        "wikiDataId": "Q660716",
        "type": "CITY",
        "city": "Arnoldstein",
        "name": "Arnoldstein",
        "latitude": 46.550555555,
        "longitude": 13.703888888
    },
    {
        "id": 4568,
        "wikiDataId": "Q664562",
        "type": "CITY",
        "city": "Arriach",
        "name": "Arriach",
        "latitude": 46.73,
        "longitude": 13.850277777
    },
    {
        "id": 4831,
        "type": "CITY",
        "city": "Auen",
        "name": "Auen",
        "latitude": 46.59963,
        "longitude": 13.84389
    },
    {
        "id": 3011783,
        "wikiDataId": "Q535737",
        "type": "CITY",
        "city": "Bad Bleiberg",
        "name": "Bad Bleiberg",
        "latitude": 46.624166666,
        "longitude": 13.687777777
    },
    {
        "id": 3063295,
        "wikiDataId": "Q14954747",
        "type": "ADM2",
        "city": "Bad Eisenkappel",
        "name": "Bad Eisenkappel",
        "latitude": 46.48333333,
        "longitude": 14.6
    },
    {
        "id": 3040567,
        "wikiDataId": "Q649069",
        "type": "CITY",
        "city": "Bad Kleinkirchheim",
        "name": "Bad Kleinkirchheim",
        "latitude": 46.813611111,
        "longitude": 13.792777777
    },
    {
        "id": 3099841,
        "wikiDataId": "Q21880426",
        "type": "ADM2",
        "city": "Bad Kleinkirchheim",
        "name": "Bad Kleinkirchheim",
        "latitude": 46.84279,
        "longitude": 13.79123
    },
    {
        "id": 2501,
        "wikiDataId": "Q660781",
        "type": "CITY",
        "city": "Bad Sankt Leonhard im Lavanttal",
        "name": "Bad Sankt Leonhard im Lavanttal",
        "latitude": 46.9625,
        "longitude": 14.794722222
    },
    {
        "id": 3419,
        "wikiDataId": "Q661983",
        "type": "CITY",
        "city": "Baldramsdorf",
        "name": "Baldramsdorf",
        "latitude": 46.801111111,
        "longitude": 13.453333333
    },
    {
        "id": 4318,
        "wikiDataId": "Q819321",
        "type": "CITY",
        "city": "Berg im Drautal",
        "name": "Berg im Drautal",
        "latitude": 46.748888888,
        "longitude": 13.131111111
    },
    {
        "id": 3358,
        "wikiDataId": "Q871356",
        "type": "CITY",
        "city": "Bleiburg",
        "name": "Bleiburg",
        "latitude": 46.59,
        "longitude": 14.798888888
    },
    {
        "id": 3259,
        "type": "CITY",
        "city": "Bodensdorf",
        "name": "Bodensdorf",
        "latitude": 46.69111,
        "longitude": 13.97111
    },
    {
        "id": 3156,
        "wikiDataId": "Q662453",
        "type": "CITY",
        "city": "Brückl",
        "name": "Brückl",
        "latitude": 46.753055555,
        "longitude": 14.535833333
    },
    {
        "id": 3021692,
        "wikiDataId": "Q667126",
        "type": "CITY",
        "city": "Dellach",
        "name": "Dellach",
        "latitude": 46.661388888,
        "longitude": 13.079444444
    },
    {
        "id": 3691,
        "wikiDataId": "Q662270",
        "type": "CITY",
        "city": "Dellach im Drautal",
        "name": "Dellach im Drautal",
        "latitude": 46.7375,
        "longitude": 13.075555555
    },
    {
        "id": 3237,
        "type": "CITY",
        "city": "Deutsch Griffen",
        "name": "Deutsch Griffen",
        "latitude": 46.85606,
        "longitude": 14.07501
    },
    {
        "id": 3022401,
        "wikiDataId": "Q662011",
        "type": "CITY",
        "city": "Deutsch-Griffen",
        "name": "Deutsch-Griffen",
        "latitude": 46.855,
        "longitude": 14.073888888
    },
    {
        "id": 3522,
        "wikiDataId": "Q674672",
        "type": "CITY",
        "city": "Diex",
        "name": "Diex",
        "latitude": 46.744444444,
        "longitude": 14.616666666
    },
    {
        "id": 3764,
        "type": "CITY",
        "city": "Döbriach",
        "name": "Döbriach",
        "latitude": 46.78049,
        "longitude": 13.65738
    },
    {
        "id": 3424,
        "wikiDataId": "Q284179",
        "type": "CITY",
        "city": "Ebenthal",
        "name": "Ebenthal",
        "latitude": 46.609444444,
        "longitude": 14.355555555
    },
    {
        "id": 3247,
        "wikiDataId": "Q662378",
        "type": "CITY",
        "city": "Eberndorf",
        "name": "Eberndorf",
        "latitude": 46.591388888,
        "longitude": 14.643611111
    },
    {
        "id": 3327,
        "wikiDataId": "Q662203",
        "type": "CITY",
        "city": "Eberstein",
        "name": "Eberstein",
        "latitude": 46.808055555,
        "longitude": 14.56
    },
    {
        "id": 2996881,
        "wikiDataId": "Q61958991",
        "type": "CITY",
        "city": "Ebriach",
        "name": "Ebriach",
        "latitude": 46.46667,
        "longitude": 14.51667
    },
    {
        "id": 3043871,
        "wikiDataId": "Q702095",
        "type": "CITY",
        "city": "Eisenkappel-Vellach",
        "name": "Eisenkappel-Vellach",
        "latitude": 46.486388888,
        "longitude": 14.596111111
    },
    {
        "id": 3064,
        "wikiDataId": "Q19932786",
        "type": "CITY",
        "city": "Faak am See",
        "name": "Faak am See",
        "latitude": 46.568055555,
        "longitude": 13.909722222
    },
    {
        "id": 2999564,
        "wikiDataId": "Q5441483",
        "type": "CITY",
        "city": "Feffernitz",
        "name": "Feffernitz",
        "latitude": 46.68333333,
        "longitude": 13.7
    },
    {
        "id": 3958,
        "wikiDataId": "Q5441584",
        "type": "CITY",
        "city": "Feistritz an der Drau",
        "name": "Feistritz an der Drau",
        "latitude": 46.7,
        "longitude": 13.68333333
    },
    {
        "id": 3011,
        "wikiDataId": "Q690447",
        "type": "CITY",
        "city": "Feistritz an der Gail",
        "name": "Feistritz an der Gail",
        "latitude": 46.573888888,
        "longitude": 13.603888888
    },
    {
        "id": 2986,
        "wikiDataId": "Q672557",
        "type": "CITY",
        "city": "Feistritz im Rosental",
        "name": "Feistritz im Rosental",
        "latitude": 46.5225,
        "longitude": 14.171666666
    },
    {
        "id": 3389,
        "wikiDataId": "Q664452",
        "type": "CITY",
        "city": "Feistritz ob Bleiburg",
        "name": "Feistritz ob Bleiburg",
        "latitude": 46.556944444,
        "longitude": 14.759444444
    },
    {
        "id": 3918,
        "wikiDataId": "Q663618",
        "type": "CITY",
        "city": "Feld am See",
        "name": "Feld am See",
        "latitude": 46.775555555,
        "longitude": 13.747222222
    },
    {
        "id": 132799,
        "wikiDataId": "Q665735",
        "type": "ADM2",
        "city": "Feldkirchen District",
        "name": "Feldkirchen District",
        "latitude": 46.75,
        "longitude": 14.037
    },
    {
        "id": 3837,
        "wikiDataId": "Q507533",
        "type": "CITY",
        "city": "Feldkirchen in Kärnten",
        "name": "Feldkirchen in Kärnten",
        "latitude": 46.723611111,
        "longitude": 14.091944444
    },
    {
        "id": 3632,
        "wikiDataId": "Q610514",
        "type": "CITY",
        "city": "Ferlach",
        "name": "Ferlach",
        "latitude": 46.526944444,
        "longitude": 14.301944444
    },
    {
        "id": 3801,
        "wikiDataId": "Q662037",
        "type": "CITY",
        "city": "Ferndorf",
        "name": "Ferndorf",
        "latitude": 46.736111111,
        "longitude": 13.626388888
    },
    {
        "id": 3565,
        "type": "CITY",
        "city": "Finkenstein",
        "name": "Finkenstein",
        "latitude": 46.56155,
        "longitude": 13.87086
    },
    {
        "id": 4330,
        "wikiDataId": "Q662080",
        "type": "CITY",
        "city": "Finkenstein am Faaker See",
        "name": "Finkenstein am Faaker See",
        "latitude": 46.562777777,
        "longitude": 13.870555555
    },
    {
        "id": 3206,
        "wikiDataId": "Q667440",
        "type": "CITY",
        "city": "Flattach",
        "name": "Flattach",
        "latitude": 46.934722222,
        "longitude": 13.129722222
    },
    {
        "id": 3052297,
        "wikiDataId": "Q664570",
        "type": "CITY",
        "city": "Frantschach-Sankt Gertraud",
        "name": "Frantschach-Sankt Gertraud",
        "latitude": 46.861111111,
        "longitude": 14.860277777
    },
    {
        "id": 4229,
        "wikiDataId": "Q664768",
        "type": "CITY",
        "city": "Frauenstein",
        "name": "Frauenstein",
        "latitude": 46.813611111,
        "longitude": 14.3675
    },
    {
        "id": 3437,
        "wikiDataId": "Q662026",
        "type": "CITY",
        "city": "Fresach",
        "name": "Fresach",
        "latitude": 46.712222222,
        "longitude": 13.6925
    },
    {
        "id": 3561,
        "wikiDataId": "Q871601",
        "type": "CITY",
        "city": "Friesach",
        "name": "Friesach",
        "latitude": 46.9525,
        "longitude": 14.409722222
    },
    {
        "id": 4490,
        "type": "CITY",
        "city": "Föderlach I",
        "name": "Föderlach I",
        "latitude": 46.59998,
        "longitude": 13.96128
    },
    {
        "id": 3716,
        "type": "CITY",
        "city": "Fürnitz",
        "name": "Fürnitz",
        "latitude": 46.56188,
        "longitude": 13.81732
    },
    {
        "id": 3481,
        "type": "CITY",
        "city": "Gailitz",
        "name": "Gailitz",
        "latitude": 46.56083,
        "longitude": 13.70444
    },
    {
        "id": 3279,
        "wikiDataId": "Q875799",
        "type": "CITY",
        "city": "Gallizien",
        "name": "Gallizien",
        "latitude": 46.556944444,
        "longitude": 14.507777777
    },
    {
        "id": 3021680,
        "wikiDataId": "Q997665",
        "type": "CITY",
        "city": "Gemmersdorf",
        "name": "Gemmersdorf",
        "latitude": 46.7574,
        "longitude": 14.9022
    },
    {
        "id": 3181651,
        "wikiDataId": "Q63560776",
        "type": "ADM2",
        "city": "Gerlamoos",
        "name": "Gerlamoos",
        "latitude": 46.76391,
        "longitude": 13.272
    },
    {
        "id": 3078347,
        "wikiDataId": "Q692815",
        "type": "CITY",
        "city": "Gitschtal",
        "name": "Gitschtal",
        "latitude": 46.679722222,
        "longitude": 13.260555555
    },
    {
        "id": 3631,
        "wikiDataId": "Q665112",
        "type": "CITY",
        "city": "Glanegg",
        "name": "Glanegg",
        "latitude": 46.713611111,
        "longitude": 14.206388888
    },
    {
        "id": 3898,
        "wikiDataId": "Q671487",
        "type": "CITY",
        "city": "Globasnitz",
        "name": "Globasnitz",
        "latitude": 46.556944444,
        "longitude": 14.702777777
    },
    {
        "id": 3856,
        "wikiDataId": "Q696958",
        "type": "CITY",
        "city": "Glödnitz",
        "name": "Glödnitz",
        "latitude": 46.866666666,
        "longitude": 14.116666666
    },
    {
        "id": 3551,
        "wikiDataId": "Q660580",
        "type": "CITY",
        "city": "Gmünd",
        "name": "Gmünd",
        "latitude": 46.906666666,
        "longitude": 13.535
    },
    {
        "id": 3100610,
        "wikiDataId": "Q21879753",
        "type": "ADM2",
        "city": "Gmünd in Kärnten",
        "name": "Gmünd in Kärnten",
        "latitude": 46.91472,
        "longitude": 13.5467
    },
    {
        "id": 3255,
        "wikiDataId": "Q155113",
        "type": "CITY",
        "city": "Gnesau",
        "name": "Gnesau",
        "latitude": 46.775,
        "longitude": 13.966666666
    },
    {
        "id": 3080,
        "wikiDataId": "Q662798",
        "type": "CITY",
        "city": "Grafenstein",
        "name": "Grafenstein",
        "latitude": 46.615,
        "longitude": 14.467222222
    },
    {
        "id": 3190,
        "wikiDataId": "Q692935",
        "type": "CITY",
        "city": "Greifenburg",
        "name": "Greifenburg",
        "latitude": 46.750555555,
        "longitude": 13.179722222
    },
    {
        "id": 4258,
        "type": "CITY",
        "city": "Gries",
        "name": "Gries",
        "latitude": 46.8316,
        "longitude": 14.85103
    },
    {
        "id": 3427,
        "wikiDataId": "Q696964",
        "type": "CITY",
        "city": "Griffen",
        "name": "Griffen",
        "latitude": 46.704444444,
        "longitude": 14.732777777
    },
    {
        "id": 4861,
        "wikiDataId": "Q664412",
        "type": "CITY",
        "city": "Großkirchheim",
        "name": "Großkirchheim",
        "latitude": 46.975,
        "longitude": 12.891666666
    },
    {
        "id": 3548,
        "wikiDataId": "Q662048",
        "type": "CITY",
        "city": "Gurk",
        "name": "Gurk",
        "latitude": 46.875277777,
        "longitude": 14.288888888
    },
    {
        "id": 3947,
        "wikiDataId": "Q669323",
        "type": "CITY",
        "city": "Guttaring",
        "name": "Guttaring",
        "latitude": 46.889444444,
        "longitude": 14.511666666
    },
    {
        "id": 3096709,
        "wikiDataId": "Q61474469",
        "type": "CITY",
        "city": "Görtschach",
        "name": "Görtschach",
        "latitude": 46.61278,
        "longitude": 13.465
    },
    {
        "id": 3742,
        "wikiDataId": "Q875812",
        "type": "CITY",
        "city": "Heiligenblut",
        "name": "Heiligenblut",
        "latitude": 47.041388888,
        "longitude": 12.836944444
    },
    {
        "id": 132776,
        "wikiDataId": "Q613991",
        "type": "ADM2",
        "city": "Hermagor District",
        "name": "Hermagor District",
        "latitude": 46.662,
        "longitude": 13.183
    },
    {
        "id": 3061,
        "wikiDataId": "Q672649",
        "type": "CITY",
        "city": "Hermagor-Pressegger See",
        "name": "Hermagor-Pressegger See",
        "latitude": 46.627222222,
        "longitude": 13.367222222
    },
    {
        "id": 3803,
        "wikiDataId": "Q693010",
        "type": "CITY",
        "city": "Himmelberg",
        "name": "Himmelberg",
        "latitude": 46.748386111,
        "longitude": 14.037058333
    },
    {
        "id": 3337,
        "wikiDataId": "Q660601",
        "type": "CITY",
        "city": "Hohenthurn",
        "name": "Hohenthurn",
        "latitude": 46.556666666,
        "longitude": 13.659166666
    },
    {
        "id": 3971,
        "type": "CITY",
        "city": "Hörtendorf",
        "name": "Hörtendorf",
        "latitude": 46.63333,
        "longitude": 14.4
    },
    {
        "id": 3384,
        "wikiDataId": "Q661966",
        "type": "CITY",
        "city": "Hüttenberg",
        "name": "Hüttenberg",
        "latitude": 46.939722222,
        "longitude": 14.548611111
    },
    {
        "id": 3352,
        "wikiDataId": "Q692681",
        "type": "CITY",
        "city": "Irschen",
        "name": "Irschen",
        "latitude": 46.756944444,
        "longitude": 13.025277777
    },
    {
        "id": 3647,
        "wikiDataId": "Q664615",
        "type": "CITY",
        "city": "Kappel am Krappfeld",
        "name": "Kappel am Krappfeld",
        "latitude": 46.837777777,
        "longitude": 14.486111111
    },
    {
        "id": 3879,
        "wikiDataId": "Q662784",
        "type": "CITY",
        "city": "Keutschach am See",
        "name": "Keutschach am See",
        "latitude": 46.593055555,
        "longitude": 14.187777777
    },
    {
        "id": 3865,
        "wikiDataId": "Q667149",
        "type": "CITY",
        "city": "Kirchbach",
        "name": "Kirchbach",
        "latitude": 46.641111111,
        "longitude": 13.183333333
    },
    {
        "id": 3079274,
        "wikiDataId": "Q21880504",
        "type": "ADM2",
        "city": "Klagenfurt",
        "name": "Klagenfurt",
        "latitude": 46.63873,
        "longitude": 14.2973
    },
    {
        "id": 132768,
        "wikiDataId": "Q41753",
        "type": "CITY",
        "city": "Klagenfurt am Wörthersee",
        "name": "Klagenfurt am Wörthersee",
        "latitude": 46.616666666,
        "longitude": 14.3
    },
    {
        "id": 132766,
        "wikiDataId": "Q660701",
        "type": "ADM2",
        "city": "Klagenfurt-Land District",
        "name": "Klagenfurt-Land District",
        "latitude": 46.609,
        "longitude": 14.234
    },
    {
        "id": 2993132,
        "wikiDataId": "Q433696",
        "type": "CITY",
        "city": "Kleblach-Lind",
        "name": "Kleblach-Lind",
        "latitude": 46.767222222,
        "longitude": 13.358055555
    },
    {
        "id": 3541,
        "wikiDataId": "Q664696",
        "type": "CITY",
        "city": "Klein Sankt Paul",
        "name": "Klein Sankt Paul",
        "latitude": 46.836111111,
        "longitude": 14.541666666
    },
    {
        "id": 4356,
        "type": "CITY",
        "city": "Kleinedling",
        "name": "Kleinedling",
        "latitude": 46.81417,
        "longitude": 14.82778
    },
    {
        "id": 3032949,
        "wikiDataId": "Q667328",
        "type": "CITY",
        "city": "Krems",
        "name": "Krems",
        "latitude": 46.9225,
        "longitude": 13.5675
    },
    {
        "id": 3239,
        "wikiDataId": "Q662440",
        "type": "CITY",
        "city": "Krumpendorf",
        "name": "Krumpendorf",
        "latitude": 46.625555555,
        "longitude": 14.211388888
    },
    {
        "id": 3242,
        "type": "CITY",
        "city": "Kötschach",
        "name": "Kötschach",
        "latitude": 46.68167,
        "longitude": 13.00694
    },
    {
        "id": 3001447,
        "wikiDataId": "Q667212",
        "type": "CITY",
        "city": "Kötschach-Mauthen",
        "name": "Kötschach-Mauthen",
        "latitude": 46.666666666,
        "longitude": 13
    },
    {
        "id": 3830,
        "wikiDataId": "Q664542",
        "type": "CITY",
        "city": "Köttmannsdorf",
        "name": "Köttmannsdorf",
        "latitude": 46.561388888,
        "longitude": 14.233888888
    },
    {
        "id": 3091,
        "type": "CITY",
        "city": "Kühnsdorf",
        "name": "Kühnsdorf",
        "latitude": 46.62194,
        "longitude": 14.63639
    },
    {
        "id": 3081035,
        "wikiDataId": "Q21868827",
        "type": "CITY",
        "city": "Lamnitz",
        "name": "Lamnitz",
        "latitude": 46.866666666,
        "longitude": 12.983333333
    },
    {
        "id": 3059,
        "type": "CITY",
        "city": "Landskron",
        "name": "Landskron",
        "latitude": 46.61667,
        "longitude": 13.88333
    },
    {
        "id": 3082,
        "type": "CITY",
        "city": "Launsdorf",
        "name": "Launsdorf",
        "latitude": 46.77056,
        "longitude": 14.45194
    },
    {
        "id": 3330,
        "wikiDataId": "Q875816",
        "type": "CITY",
        "city": "Lavamünd",
        "name": "Lavamünd",
        "latitude": 46.641666666,
        "longitude": 14.941666666
    },
    {
        "id": 3584,
        "type": "CITY",
        "city": "Ledenitzen",
        "name": "Ledenitzen",
        "latitude": 46.56639,
        "longitude": 13.96139
    },
    {
        "id": 3484,
        "wikiDataId": "Q667578",
        "type": "CITY",
        "city": "Lendorf",
        "name": "Lendorf",
        "latitude": 46.833333333,
        "longitude": 13.416666666
    },
    {
        "id": 2977689,
        "wikiDataId": "Q60226792",
        "type": "CITY",
        "city": "Leppen",
        "name": "Leppen",
        "latitude": 46.48333,
        "longitude": 14.63333
    },
    {
        "id": 3062468,
        "wikiDataId": "Q677851",
        "type": "CITY",
        "city": "Lesachtal",
        "name": "Lesachtal",
        "latitude": 46.693888888,
        "longitude": 12.815833333
    },
    {
        "id": 4152,
        "wikiDataId": "Q664662",
        "type": "CITY",
        "city": "Liebenfels",
        "name": "Liebenfels",
        "latitude": 46.738055555,
        "longitude": 14.286944444
    },
    {
        "id": 4519,
        "type": "CITY",
        "city": "Lind",
        "name": "Lind",
        "latitude": 46.62244,
        "longitude": 13.84715
    },
    {
        "id": 3026335,
        "wikiDataId": "Q21869040",
        "type": "CITY",
        "city": "Lobersberg",
        "name": "Lobersberg",
        "latitude": 46.865,
        "longitude": 12.911111111
    },
    {
        "id": 3836,
        "wikiDataId": "Q662465",
        "type": "CITY",
        "city": "Ludmannsdorf",
        "name": "Ludmannsdorf",
        "latitude": 46.541388888,
        "longitude": 14.136388888
    },
    {
        "id": 3001628,
        "wikiDataId": "Q572166",
        "type": "CITY",
        "city": "Lurnfeld",
        "name": "Lurnfeld",
        "latitude": 46.833333333,
        "longitude": 13.366666666
    },
    {
        "id": 3057207,
        "wikiDataId": "Q662478",
        "type": "CITY",
        "city": "Magdalensberg",
        "name": "Magdalensberg",
        "latitude": 46.701111111,
        "longitude": 14.431111111
    },
    {
        "id": 3047998,
        "wikiDataId": "Q692892",
        "type": "CITY",
        "city": "Mallnitz",
        "name": "Mallnitz",
        "latitude": 46.989722222,
        "longitude": 13.17
    },
    {
        "id": 3006176,
        "wikiDataId": "Q340115",
        "type": "CITY",
        "city": "Malta",
        "name": "Malta",
        "latitude": 46.966666666,
        "longitude": 13.516666666
    },
    {
        "id": 3543,
        "wikiDataId": "Q674690",
        "type": "CITY",
        "city": "Maria Rain",
        "name": "Maria Rain",
        "latitude": 46.555277777,
        "longitude": 14.295833333
    },
    {
        "id": 3554,
        "wikiDataId": "Q702126",
        "type": "CITY",
        "city": "Maria Saal",
        "name": "Maria Saal",
        "latitude": 46.680833333,
        "longitude": 14.348611111
    },
    {
        "id": 3719,
        "wikiDataId": "Q664432",
        "type": "CITY",
        "city": "Maria Wörth",
        "name": "Maria Wörth",
        "latitude": 46.616388888,
        "longitude": 14.161388888
    },
    {
        "id": 3810,
        "wikiDataId": "Q664708",
        "type": "CITY",
        "city": "Metnitz",
        "name": "Metnitz",
        "latitude": 46.980555555,
        "longitude": 14.217222222
    },
    {
        "id": 3256,
        "wikiDataId": "Q663674",
        "type": "CITY",
        "city": "Micheldorf",
        "name": "Micheldorf",
        "latitude": 46.913888888,
        "longitude": 14.427777777
    },
    {
        "id": 2252,
        "wikiDataId": "Q668044",
        "type": "CITY",
        "city": "Millstatt",
        "name": "Millstatt",
        "latitude": 46.804166666,
        "longitude": 13.580555555
    },
    {
        "id": 3207,
        "wikiDataId": "Q662412",
        "type": "CITY",
        "city": "Moosburg",
        "name": "Moosburg",
        "latitude": 46.657777777,
        "longitude": 14.173611111
    },
    {
        "id": 3356,
        "wikiDataId": "Q662243",
        "type": "CITY",
        "city": "Mölbling",
        "name": "Mölbling",
        "latitude": 46.861666666,
        "longitude": 14.446388888
    },
    {
        "id": 3855,
        "type": "CITY",
        "city": "Möllbrücke",
        "name": "Möllbrücke",
        "latitude": 46.83639,
        "longitude": 13.37278
    },
    {
        "id": 3028,
        "wikiDataId": "Q692797",
        "type": "CITY",
        "city": "Mörtschach",
        "name": "Mörtschach",
        "latitude": 46.922222222,
        "longitude": 12.911388888
    },
    {
        "id": 3513,
        "wikiDataId": "Q692993",
        "type": "CITY",
        "city": "Mühldorf",
        "name": "Mühldorf",
        "latitude": 46.8575,
        "longitude": 13.351944444
    },
    {
        "id": 4562,
        "type": "CITY",
        "city": "Neu-Feffernitz",
        "name": "Neu-Feffernitz",
        "latitude": 46.68772,
        "longitude": 13.67914
    },
    {
        "id": 3129,
        "wikiDataId": "Q698544",
        "type": "CITY",
        "city": "Neuhaus",
        "name": "Neuhaus",
        "latitude": 46.643333333,
        "longitude": 14.887777777
    },
    {
        "id": 2541,
        "type": "CITY",
        "city": "Niederdorf",
        "name": "Niederdorf",
        "latitude": 46.61667,
        "longitude": 14.4
    },
    {
        "id": 3030475,
        "wikiDataId": "Q664507",
        "type": "CITY",
        "city": "Nötsch im Gailtal",
        "name": "Nötsch im Gailtal",
        "latitude": 46.59,
        "longitude": 13.622777777
    },
    {
        "id": 2770,
        "wikiDataId": "Q692721",
        "type": "CITY",
        "city": "Oberdrauburg",
        "name": "Oberdrauburg",
        "latitude": 46.743055555,
        "longitude": 12.970277777
    },
    {
        "id": 2977917,
        "wikiDataId": "Q69880788",
        "type": "CITY",
        "city": "Oberdörfl",
        "name": "Oberdörfl",
        "latitude": 46.55528,
        "longitude": 14.10806
    },
    {
        "id": 3035132,
        "wikiDataId": "Q2010423",
        "type": "CITY",
        "city": "Obermillstatt",
        "name": "Obermillstatt",
        "latitude": 46.8106,
        "longitude": 13.5908
    },
    {
        "id": 2836,
        "wikiDataId": "Q876239",
        "type": "CITY",
        "city": "Obervellach",
        "name": "Obervellach",
        "latitude": 46.931944444,
        "longitude": 13.202222222
    },
    {
        "id": 2250,
        "wikiDataId": "Q661996",
        "type": "CITY",
        "city": "Ossiach",
        "name": "Ossiach",
        "latitude": 46.675,
        "longitude": 13.982222222
    },
    {
        "id": 2957,
        "wikiDataId": "Q660468",
        "type": "CITY",
        "city": "Paternion",
        "name": "Paternion",
        "latitude": 46.712222222,
        "longitude": 13.637777777
    },
    {
        "id": 3000692,
        "wikiDataId": "Q69883614",
        "type": "CITY",
        "city": "Pischeldorf",
        "name": "Pischeldorf",
        "latitude": 46.68333,
        "longitude": 14.45
    },
    {
        "id": 2228,
        "wikiDataId": "Q664423",
        "type": "CITY",
        "city": "Poggersdorf",
        "name": "Poggersdorf",
        "latitude": 46.65,
        "longitude": 14.45
    },
    {
        "id": 2172,
        "wikiDataId": "Q605176",
        "type": "CITY",
        "city": "Preitenegg",
        "name": "Preitenegg",
        "latitude": 46.940277777,
        "longitude": 14.921666666
    },
    {
        "id": 4035,
        "type": "CITY",
        "city": "Priel",
        "name": "Priel",
        "latitude": 46.82758,
        "longitude": 14.8333
    },
    {
        "id": 3073429,
        "wikiDataId": "Q31271744",
        "type": "CITY",
        "city": "Pusarnitz",
        "name": "Pusarnitz",
        "latitude": 46.83333,
        "longitude": 13.4
    },
    {
        "id": 3183853,
        "wikiDataId": "Q2120658",
        "type": "CITY",
        "city": "Pöckau",
        "name": "Pöckau",
        "latitude": 46.55,
        "longitude": 13.7333
    },
    {
        "id": 2849,
        "wikiDataId": "Q875805",
        "type": "CITY",
        "city": "Pörtschach am Wörthersee",
        "name": "Pörtschach am Wörthersee",
        "latitude": 46.635555555,
        "longitude": 14.1425
    },
    {
        "id": 2248,
        "wikiDataId": "Q700132",
        "type": "CITY",
        "city": "Radenthein",
        "name": "Radenthein",
        "latitude": 46.8,
        "longitude": 13.7
    },
    {
        "id": 4347,
        "type": "CITY",
        "city": "Rain",
        "name": "Rain",
        "latitude": 46.60528,
        "longitude": 14.38611
    },
    {
        "id": 2220,
        "wikiDataId": "Q692849",
        "type": "CITY",
        "city": "Rangersdorf",
        "name": "Rangersdorf",
        "latitude": 46.863611111,
        "longitude": 12.964722222
    },
    {
        "id": 2549,
        "type": "CITY",
        "city": "Reding",
        "name": "Reding",
        "latitude": 46.81667,
        "longitude": 14.85
    },
    {
        "id": 3082076,
        "wikiDataId": "Q662068",
        "type": "CITY",
        "city": "Reichenau",
        "name": "Reichenau",
        "latitude": 46.854166666,
        "longitude": 13.893055555
    },
    {
        "id": 2726,
        "wikiDataId": "Q664859",
        "type": "CITY",
        "city": "Reichenfels",
        "name": "Reichenfels",
        "latitude": 47.0075,
        "longitude": 14.743611111
    },
    {
        "id": 2986515,
        "wikiDataId": "Q692764",
        "type": "CITY",
        "city": "Reißeck",
        "name": "Reißeck",
        "latitude": 46.876944444,
        "longitude": 13.305555555
    },
    {
        "id": 2822,
        "wikiDataId": "Q186112",
        "type": "CITY",
        "city": "Rennweg am Katschberg",
        "name": "Rennweg am Katschberg",
        "latitude": 47.016666666,
        "longitude": 13.616666666
    },
    {
        "id": 2986310,
        "wikiDataId": "Q68042411",
        "type": "ADM2",
        "city": "Rittersdorf",
        "name": "Rittersdorf",
        "latitude": 46.75111,
        "longitude": 13.03444
    },
    {
        "id": 2147,
        "wikiDataId": "Q664587",
        "type": "CITY",
        "city": "Rosegg",
        "name": "Rosegg",
        "latitude": 46.588611111,
        "longitude": 14.018611111
    },
    {
        "id": 2765,
        "wikiDataId": "Q126811",
        "type": "CITY",
        "city": "Ruden",
        "name": "Ruden",
        "latitude": 46.656388888,
        "longitude": 14.769722222
    },
    {
        "id": 2815,
        "wikiDataId": "Q664890",
        "type": "CITY",
        "city": "Sachsenburg",
        "name": "Sachsenburg",
        "latitude": 46.829166666,
        "longitude": 13.355
    },
    {
        "id": 2171,
        "wikiDataId": "Q514179",
        "type": "CITY",
        "city": "Sankt Andrä",
        "name": "Sankt Andrä",
        "latitude": 46.766666666,
        "longitude": 14.816666666
    },
    {
        "id": 2999207,
        "wikiDataId": "Q69882624",
        "type": "CITY",
        "city": "Sankt Egyden an der Drau",
        "name": "Sankt Egyden an der Drau",
        "latitude": 46.57722,
        "longitude": 14.06167
    },
    {
        "id": 4296,
        "wikiDataId": "Q664135",
        "type": "CITY",
        "city": "Sankt Georgen am Längsee",
        "name": "Sankt Georgen am Längsee",
        "latitude": 46.78,
        "longitude": 14.431944444
    },
    {
        "id": 3055407,
        "wikiDataId": "Q664849",
        "type": "CITY",
        "city": "Sankt Georgen im Lavanttal",
        "name": "Sankt Georgen im Lavanttal",
        "latitude": 46.716666666,
        "longitude": 14.916666666
    },
    {
        "id": 3099633,
        "wikiDataId": "Q21865347",
        "type": "CITY",
        "city": "Sankt Jakob",
        "name": "Sankt Jakob",
        "latitude": 46.547777777,
        "longitude": 14.057222222
    },
    {
        "id": 3045149,
        "wikiDataId": "Q662392",
        "type": "CITY",
        "city": "Sankt Jakob im Rosental",
        "name": "Sankt Jakob im Rosental",
        "latitude": 46.547777777,
        "longitude": 14.057222222
    },
    {
        "id": 3043807,
        "wikiDataId": "Q692865",
        "type": "CITY",
        "city": "Sankt Kanzian am Klopeiner See",
        "name": "Sankt Kanzian am Klopeiner See",
        "latitude": 46.614444444,
        "longitude": 14.575833333
    },
    {
        "id": 2644,
        "type": "CITY",
        "city": "Sankt Magdalen",
        "name": "Sankt Magdalen",
        "latitude": 46.61667,
        "longitude": 13.88333
    },
    {
        "id": 2321,
        "wikiDataId": "Q875824",
        "type": "CITY",
        "city": "Sankt Margareten im Rosental",
        "name": "Sankt Margareten im Rosental",
        "latitude": 46.542777777,
        "longitude": 14.418055555
    },
    {
        "id": 2894,
        "type": "CITY",
        "city": "Sankt Martin",
        "name": "Sankt Martin",
        "latitude": 46.61667,
        "longitude": 14.28333
    },
    {
        "id": 2039,
        "wikiDataId": "Q692880",
        "type": "CITY",
        "city": "Sankt Paul im Lavanttal",
        "name": "Sankt Paul im Lavanttal",
        "latitude": 46.702222222,
        "longitude": 14.868611111
    },
    {
        "id": 2472,
        "type": "CITY",
        "city": "Sankt Peter",
        "name": "Sankt Peter",
        "latitude": 46.62978,
        "longitude": 14.34016
    },
    {
        "id": 2450,
        "type": "CITY",
        "city": "Sankt Ruprecht",
        "name": "Sankt Ruprecht",
        "latitude": 46.6,
        "longitude": 14.31667
    },
    {
        "id": 2080,
        "wikiDataId": "Q667075",
        "type": "CITY",
        "city": "Sankt Stefan im Gailtal",
        "name": "Sankt Stefan im Gailtal",
        "latitude": 46.616666666,
        "longitude": 13.516666666
    },
    {
        "id": 3042706,
        "wikiDataId": "Q692666",
        "type": "CITY",
        "city": "Sankt Urban",
        "name": "Sankt Urban",
        "latitude": 46.750277777,
        "longitude": 14.169166666
    },
    {
        "id": 2280,
        "wikiDataId": "Q494604",
        "type": "CITY",
        "city": "Sankt Veit an der Glan",
        "name": "Sankt Veit an der Glan",
        "latitude": 46.766666666,
        "longitude": 14.360277777
    },
    {
        "id": 132736,
        "wikiDataId": "Q660255",
        "type": "ADM2",
        "city": "Sankt Veit an der Glan District",
        "name": "Sankt Veit an der Glan District",
        "latitude": 46.862,
        "longitude": 14.428
    },
    {
        "id": 2334,
        "wikiDataId": "Q664600",
        "type": "CITY",
        "city": "Schiefling am See",
        "name": "Schiefling am See",
        "latitude": 46.601666666,
        "longitude": 14.097777777
    },
    {
        "id": 2320,
        "type": "CITY",
        "city": "Seebach",
        "name": "Seebach",
        "latitude": 46.61667,
        "longitude": 13.86667
    },
    {
        "id": 2106,
        "wikiDataId": "Q660576",
        "type": "CITY",
        "city": "Seeboden",
        "name": "Seeboden",
        "latitude": 46.818888888,
        "longitude": 13.518333333
    },
    {
        "id": 3025034,
        "wikiDataId": "Q43015266",
        "type": "ADM2",
        "city": "Sirnitz",
        "name": "Sirnitz",
        "latitude": 46.82361,
        "longitude": 14.05944
    },
    {
        "id": 2462,
        "wikiDataId": "Q664396",
        "type": "CITY",
        "city": "Sittersdorf",
        "name": "Sittersdorf",
        "latitude": 46.544444444,
        "longitude": 14.605833333
    },
    {
        "id": 2064,
        "wikiDataId": "Q487500",
        "type": "CITY",
        "city": "Spittal an der Drau",
        "name": "Spittal an der Drau",
        "latitude": 46.791666666,
        "longitude": 13.495833333
    },
    {
        "id": 132730,
        "wikiDataId": "Q660293",
        "type": "ADM2",
        "city": "Spittal an der Drau District",
        "name": "Spittal an der Drau District",
        "latitude": 46.833,
        "longitude": 13.306
    },
    {
        "id": 4820,
        "type": "CITY",
        "city": "St. Agathen und Perau",
        "name": "St. Agathen und Perau",
        "latitude": 46.60627,
        "longitude": 13.85615
    },
    {
        "id": 2987659,
        "wikiDataId": "Q21880410",
        "type": "ADM2",
        "city": "St. Andrä",
        "name": "St. Andrä",
        "latitude": 46.76473,
        "longitude": 14.82442
    },
    {
        "id": 2974581,
        "wikiDataId": "Q21880500",
        "type": "ADM2",
        "city": "St. Margareten im Rosental",
        "name": "St. Margareten im Rosental",
        "latitude": 46.52498,
        "longitude": 14.416
    },
    {
        "id": 2979239,
        "wikiDataId": "Q21880409",
        "type": "ADM2",
        "city": "St. Paul im Lavanttal",
        "name": "St. Paul im Lavanttal",
        "latitude": 46.69869,
        "longitude": 14.84877
    },
    {
        "id": 3101471,
        "wikiDataId": "Q21879766",
        "type": "ADM2",
        "city": "St. Stefan im Gailtal",
        "name": "St. Stefan im Gailtal",
        "latitude": 46.60796,
        "longitude": 13.50973
    },
    {
        "id": 3101083,
        "wikiDataId": "Q21880405",
        "type": "ADM2",
        "city": "St. Urban",
        "name": "St. Urban",
        "latitude": 46.76128,
        "longitude": 14.16658
    },
    {
        "id": 3101312,
        "wikiDataId": "Q21879756",
        "type": "ADM2",
        "city": "St. Veit an der Glan",
        "name": "St. Veit an der Glan",
        "latitude": 46.73536,
        "longitude": 14.35404
    },
    {
        "id": 4517,
        "type": "CITY",
        "city": "St. Veiter Vorstadt",
        "name": "St. Veiter Vorstadt",
        "latitude": 46.6317,
        "longitude": 14.30579
    },
    {
        "id": 2342,
        "wikiDataId": "Q278359",
        "type": "CITY",
        "city": "Stall",
        "name": "Stall",
        "latitude": 46.886944444,
        "longitude": 13.034722222
    },
    {
        "id": 2111,
        "wikiDataId": "Q692707",
        "type": "CITY",
        "city": "Steindorf am Ossiacher See",
        "name": "Steindorf am Ossiacher See",
        "latitude": 46.698333333,
        "longitude": 14.006111111
    },
    {
        "id": 2099,
        "wikiDataId": "Q664720",
        "type": "CITY",
        "city": "Steinfeld",
        "name": "Steinfeld",
        "latitude": 46.757777777,
        "longitude": 13.25
    },
    {
        "id": 2144,
        "wikiDataId": "Q692907",
        "type": "CITY",
        "city": "Steuerberg",
        "name": "Steuerberg",
        "latitude": 46.783333333,
        "longitude": 14.116666666
    },
    {
        "id": 2694,
        "wikiDataId": "Q597549",
        "type": "CITY",
        "city": "Stockenboi",
        "name": "Stockenboi",
        "latitude": 46.729166666,
        "longitude": 13.580555555
    },
    {
        "id": 3089809,
        "wikiDataId": "Q660945",
        "type": "CITY",
        "city": "Straßburg",
        "name": "Straßburg",
        "latitude": 46.895555555,
        "longitude": 14.330833333
    },
    {
        "id": 2942,
        "type": "CITY",
        "city": "Straßburg-Stadt",
        "name": "Straßburg-Stadt",
        "latitude": 46.89444,
        "longitude": 14.32861
    },
    {
        "id": 2980106,
        "wikiDataId": "Q59429120",
        "type": "CITY",
        "city": "Suetschach",
        "name": "Suetschach",
        "latitude": 46.526944444,
        "longitude": 14.156388888
    },
    {
        "id": 3061110,
        "wikiDataId": "Q664869",
        "type": "CITY",
        "city": "Techelsberg",
        "name": "Techelsberg",
        "latitude": 46.658611111,
        "longitude": 14.101944444
    },
    {
        "id": 3005276,
        "wikiDataId": "Q69881257",
        "type": "CITY",
        "city": "Timenitz",
        "name": "Timenitz",
        "latitude": 46.68333,
        "longitude": 14.41667
    },
    {
        "id": 2376,
        "wikiDataId": "Q584454",
        "type": "CITY",
        "city": "Trebesing",
        "name": "Trebesing",
        "latitude": 46.883055555,
        "longitude": 13.510555555
    },
    {
        "id": 3030767,
        "wikiDataId": "Q661948",
        "type": "CITY",
        "city": "Treffen",
        "name": "Treffen",
        "latitude": 46.668333333,
        "longitude": 13.855555555
    },
    {
        "id": 2955,
        "type": "CITY",
        "city": "Treibach",
        "name": "Treibach",
        "latitude": 46.86667,
        "longitude": 14.46667
    },
    {
        "id": 2988735,
        "wikiDataId": "Q64500299",
        "type": "CITY",
        "city": "Tschachoritsch",
        "name": "Tschachoritsch",
        "latitude": 46.55352,
        "longitude": 14.21461
    },
    {
        "id": 3089154,
        "wikiDataId": "Q60719171",
        "type": "CITY",
        "city": "Umberg",
        "name": "Umberg",
        "latitude": 46.64833,
        "longitude": 13.9575
    },
    {
        "id": 2925,
        "type": "CITY",
        "city": "Untere Fellach",
        "name": "Untere Fellach",
        "latitude": 46.62504,
        "longitude": 13.82681
    },
    {
        "id": 2782,
        "wikiDataId": "Q660687",
        "type": "CITY",
        "city": "Velden am Wörther See",
        "name": "Velden am Wörther See",
        "latitude": 46.6125,
        "longitude": 14.041944444
    },
    {
        "id": 2838,
        "wikiDataId": "Q694633",
        "type": "CITY",
        "city": "Viktring",
        "name": "Viktring",
        "latitude": 46.591111111,
        "longitude": 14.273888888
    },
    {
        "id": 4555,
        "type": "CITY",
        "city": "Viktringer Vorstadt",
        "name": "Viktringer Vorstadt",
        "latitude": 46.61773,
        "longitude": 14.30931
    },
    {
        "id": 132719,
        "wikiDataId": "Q483522",
        "type": "CITY",
        "city": "Villach",
        "name": "Villach",
        "latitude": 46.616666666,
        "longitude": 13.833333333
    },
    {
        "id": 4457,
        "type": "CITY",
        "city": "Villach-Innere Stadt",
        "name": "Villach-Innere Stadt",
        "latitude": 46.61275,
        "longitude": 13.84638
    },
    {
        "id": 132723,
        "wikiDataId": "Q660264",
        "type": "ADM2",
        "city": "Villach-Land District",
        "name": "Villach-Land District",
        "latitude": 46.624,
        "longitude": 13.724
    },
    {
        "id": 4089,
        "type": "CITY",
        "city": "Villacher Vorstadt",
        "name": "Villacher Vorstadt",
        "latitude": 46.62368,
        "longitude": 14.28892
    },
    {
        "id": 2418,
        "type": "CITY",
        "city": "Völkendorf",
        "name": "Völkendorf",
        "latitude": 46.60806,
        "longitude": 13.83153
    },
    {
        "id": 2739,
        "wikiDataId": "Q164488",
        "type": "CITY",
        "city": "Völkermarkt",
        "name": "Völkermarkt",
        "latitude": 46.662222222,
        "longitude": 14.634444444
    },
    {
        "id": 132722,
        "wikiDataId": "Q660279",
        "type": "ADM2",
        "city": "Völkermarkt District",
        "name": "Völkermarkt District",
        "latitude": 46.591,
        "longitude": 14.644
    },
    {
        "id": 4601,
        "type": "CITY",
        "city": "Völkermarkter Vorstadt",
        "name": "Völkermarkter Vorstadt",
        "latitude": 46.62418,
        "longitude": 14.32081
    },
    {
        "id": 2804,
        "type": "CITY",
        "city": "Waiern",
        "name": "Waiern",
        "latitude": 46.73028,
        "longitude": 14.08194
    },
    {
        "id": 3635,
        "type": "CITY",
        "city": "Warmbad-Judendorf",
        "name": "Warmbad-Judendorf",
        "latitude": 46.60126,
        "longitude": 13.82241
    },
    {
        "id": 2481,
        "type": "CITY",
        "city": "Weitensfeld",
        "name": "Weitensfeld",
        "latitude": 46.84743,
        "longitude": 14.19213
    },
    {
        "id": 3074676,
        "wikiDataId": "Q664752",
        "type": "CITY",
        "city": "Weitensfeld im Gurktal",
        "name": "Weitensfeld im Gurktal",
        "latitude": 46.848611111,
        "longitude": 14.191666666
    },
    {
        "id": 3056085,
        "wikiDataId": "Q692919",
        "type": "CITY",
        "city": "Weißensee",
        "name": "Weißensee",
        "latitude": 46.716666666,
        "longitude": 13.3
    },
    {
        "id": 3048032,
        "wikiDataId": "Q689409",
        "type": "CITY",
        "city": "Weißenstein",
        "name": "Weißenstein",
        "latitude": 46.682222222,
        "longitude": 13.723611111
    },
    {
        "id": 2812,
        "wikiDataId": "Q664548",
        "type": "CITY",
        "city": "Wernberg",
        "name": "Wernberg",
        "latitude": 46.623055555,
        "longitude": 13.939444444
    },
    {
        "id": 2299,
        "wikiDataId": "Q669349",
        "type": "CITY",
        "city": "Winklern",
        "name": "Winklern",
        "latitude": 46.870833333,
        "longitude": 12.876388888
    },
    {
        "id": 2084,
        "wikiDataId": "Q487527",
        "type": "CITY",
        "city": "Wolfsberg",
        "name": "Wolfsberg",
        "latitude": 46.841944444,
        "longitude": 14.840833333
    },
    {
        "id": 132715,
        "wikiDataId": "Q665641",
        "type": "ADM2",
        "city": "Wolfsberg District",
        "name": "Wolfsberg District",
        "latitude": 46.842,
        "longitude": 14.86
    },
    {
        "id": 2819,
        "type": "CITY",
        "city": "Wölfnitz",
        "name": "Wölfnitz",
        "latitude": 46.66639,
        "longitude": 14.25806
    },
    {
        "id": 3013241,
        "wikiDataId": "Q187493",
        "type": "CITY",
        "city": "Zell",
        "name": "Zell",
        "latitude": 46.472222222,
        "longitude": 14.388888888
    }
]
