[
    {
        "id": 3053998,
        "wikiDataId": "Q23697114",
        "type": "CITY",
        "city": "Acevedo",
        "name": "Acevedo",
        "latitude": 1.836111111,
        "longitude": -75.855
    },
    {
        "id": 16003,
        "wikiDataId": "Q1524884",
        "type": "CITY",
        "city": "Aipe",
        "name": "Aipe",
        "latitude": 3.221944444,
        "longitude": -75.2375
    },
    {
        "id": 16113,
        "wikiDataId": "Q1441055",
        "type": "CITY",
        "city": "Algeciras",
        "name": "Algeciras",
        "latitude": 2.521944444,
        "longitude": -75.314444444
    },
    {
        "id": 142167,
        "wikiDataId": "Q1654714",
        "type": "CITY",
        "city": "Altamira",
        "name": "Altamira",
        "latitude": 2.063333333,
        "longitude": -75.787777777
    },
    {
        "id": 16358,
        "wikiDataId": "Q977818",
        "type": "CITY",
        "city": "Baraya",
        "name": "Baraya",
        "latitude": 3.153055555,
        "longitude": -75.0525
    },
    {
        "id": 16021,
        "wikiDataId": "Q2327412",
        "type": "CITY",
        "city": "Campoalegre",
        "name": "Campoalegre",
        "latitude": 2.686666666,
        "longitude": -75.325555555
    },
    {
        "id": 16492,
        "wikiDataId": "Q1576192",
        "type": "CITY",
        "city": "Colombia",
        "name": "Colombia",
        "latitude": 3.375,
        "longitude": -74.801944444
    },
    {
        "id": 142199,
        "wikiDataId": "Q1576785",
        "type": "CITY",
        "city": "El Agrado",
        "name": "El Agrado",
        "latitude": 2.258330555,
        "longitude": -75.7725
    },
    {
        "id": 16385,
        "wikiDataId": "Q1656750",
        "type": "CITY",
        "city": "Elias",
        "name": "Elias",
        "latitude": 2.013611111,
        "longitude": -75.939722222
    },
    {
        "id": 141891,
        "wikiDataId": "Q1970613",
        "type": "CITY",
        "city": "Garzón",
        "name": "Garzón",
        "latitude": 2.196111111,
        "longitude": -75.629166666
    },
    {
        "id": 16015,
        "wikiDataId": "Q919595",
        "type": "CITY",
        "city": "Gigante",
        "name": "Gigante",
        "latitude": 2.386669444,
        "longitude": -75.5461
    },
    {
        "id": 16625,
        "wikiDataId": "Q1525875",
        "type": "CITY",
        "city": "Guadalupe",
        "name": "Guadalupe",
        "latitude": 2.025,
        "longitude": -75.756388888
    },
    {
        "id": 16355,
        "wikiDataId": "Q751116",
        "type": "CITY",
        "city": "Hobo",
        "name": "Hobo",
        "latitude": 2.5825,
        "longitude": -75.451111111
    },
    {
        "id": 16795,
        "wikiDataId": "Q1574768",
        "type": "CITY",
        "city": "Iquira",
        "name": "Iquira",
        "latitude": 2.648333333,
        "longitude": -75.636388888
    },
    {
        "id": 16467,
        "wikiDataId": "Q953401",
        "type": "CITY",
        "city": "Isnos",
        "name": "Isnos",
        "latitude": 1.928888888,
        "longitude": -76.215833333
    },
    {
        "id": 16283,
        "wikiDataId": "Q593144",
        "type": "CITY",
        "city": "La Plata",
        "name": "La Plata",
        "latitude": 2.39,
        "longitude": -75.891944444
    },
    {
        "id": 15955,
        "wikiDataId": "Q600553",
        "type": "CITY",
        "city": "Nataga",
        "name": "Nataga",
        "latitude": 2.543888888,
        "longitude": -75.808611111
    },
    {
        "id": 141737,
        "wikiDataId": "Q638260",
        "type": "CITY",
        "city": "Neiva",
        "name": "Neiva",
        "latitude": 2.9275,
        "longitude": -75.2875
    },
    {
        "id": 16918,
        "wikiDataId": "Q1575433",
        "type": "CITY",
        "city": "Oporapa",
        "name": "Oporapa",
        "latitude": 2.023055555,
        "longitude": -75.995277777
    },
    {
        "id": 16572,
        "wikiDataId": "Q1655580",
        "type": "CITY",
        "city": "Paicol",
        "name": "Paicol",
        "latitude": 2.449722222,
        "longitude": -75.773888888
    },
    {
        "id": 16675,
        "wikiDataId": "Q1442359",
        "type": "CITY",
        "city": "Palermo",
        "name": "Palermo",
        "latitude": 2.888333333,
        "longitude": -75.433888888
    },
    {
        "id": 16407,
        "wikiDataId": "Q2083903",
        "type": "CITY",
        "city": "Palestina",
        "name": "Palestina",
        "latitude": 1.7225,
        "longitude": -76.130555555
    },
    {
        "id": 16009,
        "wikiDataId": "Q23685010",
        "type": "CITY",
        "city": "Pital",
        "name": "Pital",
        "latitude": 2.266388888,
        "longitude": -75.804444444
    },
    {
        "id": 16119,
        "wikiDataId": "Q1014922",
        "type": "CITY",
        "city": "Pitalito",
        "name": "Pitalito",
        "latitude": 1.853888888,
        "longitude": -76.051388888
    },
    {
        "id": 16796,
        "wikiDataId": "Q23684493",
        "type": "CITY",
        "city": "Rivera",
        "name": "Rivera",
        "latitude": 2.777222222,
        "longitude": -75.256388888
    },
    {
        "id": 16752,
        "wikiDataId": "Q1579483",
        "type": "CITY",
        "city": "Saladoblanco",
        "name": "Saladoblanco",
        "latitude": 1.993333333,
        "longitude": -76.045277777
    },
    {
        "id": 16673,
        "wikiDataId": "Q1010129",
        "type": "CITY",
        "city": "San Agustín",
        "name": "San Agustín",
        "latitude": 1.879166666,
        "longitude": -76.268333333
    },
    {
        "id": 3061048,
        "wikiDataId": "Q1575656",
        "type": "CITY",
        "city": "Santa María",
        "name": "Santa María",
        "latitude": 2.937777777,
        "longitude": -75.586944444
    },
    {
        "id": 15095,
        "wikiDataId": "Q1526187",
        "type": "CITY",
        "city": "Suaza",
        "name": "Suaza",
        "latitude": 1.975,
        "longitude": -75.795555555
    },
    {
        "id": 15452,
        "wikiDataId": "Q1526198",
        "type": "CITY",
        "city": "Tarqui",
        "name": "Tarqui",
        "latitude": 2.110555555,
        "longitude": -75.823055555
    },
    {
        "id": 141476,
        "wikiDataId": "Q934561",
        "type": "CITY",
        "city": "Tello",
        "name": "Tello",
        "latitude": 3.066666666,
        "longitude": -75.138611111
    },
    {
        "id": 141437,
        "wikiDataId": "Q641800",
        "type": "CITY",
        "city": "Teruel",
        "name": "Teruel",
        "latitude": 2.740555555,
        "longitude": -75.568333333
    },
    {
        "id": 15763,
        "wikiDataId": "Q384534",
        "type": "CITY",
        "city": "Tesalia",
        "name": "Tesalia",
        "latitude": 2.484722222,
        "longitude": -75.73
    },
    {
        "id": 14983,
        "wikiDataId": "Q1441125",
        "type": "CITY",
        "city": "Timana",
        "name": "Timana",
        "latitude": 1.97136,
        "longitude": -75.93123
    },
    {
        "id": 15030,
        "wikiDataId": "Q1574725",
        "type": "CITY",
        "city": "Villavieja",
        "name": "Villavieja",
        "latitude": 3.218888888,
        "longitude": -75.218333333
    },
    {
        "id": 15546,
        "wikiDataId": "Q23680863",
        "type": "CITY",
        "city": "Yaguará",
        "name": "Yaguará",
        "latitude": 2.663611111,
        "longitude": -75.5175
    }
]
