[
    {
        "id": 142150,
        "wikiDataId": "Q1576197",
        "type": "CITY",
        "city": "Albán",
        "name": "Albán",
        "latitude": 4.878333333,
        "longitude": -74.438333333
    },
    {
        "id": 16741,
        "wikiDataId": "Q1577095",
        "type": "CITY",
        "city": "Anapoima",
        "name": "Anapoima",
        "latitude": 4.550277777,
        "longitude": -74.536111111
    },
    {
        "id": 16505,
        "wikiDataId": "Q1524766",
        "type": "CITY",
        "city": "Anolaima",
        "name": "Anolaima",
        "latitude": 4.763333333,
        "longitude": -74.464722222
    },
    {
        "id": 15978,
        "wikiDataId": "Q23684351",
        "type": "CITY",
        "city": "Apulo",
        "name": "Apulo",
        "latitude": 4.519444444,
        "longitude": -74.593055555
    },
    {
        "id": 142174,
        "wikiDataId": "Q925824",
        "type": "CITY",
        "city": "Arbeláez",
        "name": "Arbeláez",
        "latitude": 4.272222222,
        "longitude": -74.415555555
    },
    {
        "id": 16364,
        "type": "CITY",
        "city": "Barrio San Luis",
        "name": "Barrio San Luis",
        "latitude": 4.66779,
        "longitude": -74.0215
    },
    {
        "id": 142112,
        "wikiDataId": "Q432570",
        "type": "CITY",
        "city": "Beltrán, Cundinamarca",
        "name": "Beltrán, Cundinamarca",
        "latitude": 4.801388888,
        "longitude": -74.743055555
    },
    {
        "id": 16518,
        "wikiDataId": "Q1655019",
        "type": "CITY",
        "city": "Bituima",
        "name": "Bituima",
        "latitude": 4.874444444,
        "longitude": -74.540555555
    },
    {
        "id": 15938,
        "wikiDataId": "Q2841",
        "type": "CITY",
        "city": "Bogota",
        "name": "Bogota",
        "latitude": 4.612638888,
        "longitude": -74.0705
    },
    {
        "id": 16602,
        "wikiDataId": "Q1577083",
        "type": "CITY",
        "city": "Bojacá",
        "name": "Bojacá",
        "latitude": 4.733611111,
        "longitude": -74.342222222
    },
    {
        "id": 16309,
        "wikiDataId": "Q922111",
        "type": "CITY",
        "city": "Cabrera, Cundinamarca",
        "name": "Cabrera, Cundinamarca",
        "latitude": 3.978055555,
        "longitude": -74.485833333
    },
    {
        "id": 16755,
        "wikiDataId": "Q23696124",
        "type": "CITY",
        "city": "Cachipay",
        "name": "Cachipay",
        "latitude": 5.266666666,
        "longitude": -74.566666666
    },
    {
        "id": 16010,
        "wikiDataId": "Q23696182",
        "type": "CITY",
        "city": "Cajicá",
        "name": "Cajicá",
        "latitude": 4.918611111,
        "longitude": -74.028055555
    },
    {
        "id": 16813,
        "wikiDataId": "Q1524797",
        "type": "CITY",
        "city": "Caparrapí",
        "name": "Caparrapí",
        "latitude": 5.344166666,
        "longitude": -74.491666666
    },
    {
        "id": 15994,
        "wikiDataId": "Q639256",
        "type": "CITY",
        "city": "Carmen de Carupa",
        "name": "Carmen de Carupa",
        "latitude": 5.350277777,
        "longitude": -73.901388888
    },
    {
        "id": 16488,
        "wikiDataId": "Q1654559",
        "type": "CITY",
        "city": "Chaguaní",
        "name": "Chaguaní",
        "latitude": 4.948611111,
        "longitude": -74.593611111
    },
    {
        "id": 16686,
        "wikiDataId": "Q740349",
        "type": "CITY",
        "city": "Chipaque",
        "name": "Chipaque",
        "latitude": 4.4425,
        "longitude": -74.044166666
    },
    {
        "id": 16408,
        "wikiDataId": "Q936199",
        "type": "CITY",
        "city": "Choachí",
        "name": "Choachí",
        "latitude": 4.533333333,
        "longitude": -73.933333333
    },
    {
        "id": 16465,
        "wikiDataId": "Q1525247",
        "type": "CITY",
        "city": "Chocontá",
        "name": "Chocontá",
        "latitude": 5.146666666,
        "longitude": -73.6825
    },
    {
        "id": 142044,
        "wikiDataId": "Q1093102",
        "type": "CITY",
        "city": "Chía",
        "name": "Chía",
        "latitude": 4.863333333,
        "longitude": -74.052777777
    },
    {
        "id": 16746,
        "wikiDataId": "Q1524844",
        "type": "CITY",
        "city": "Cogua",
        "name": "Cogua",
        "latitude": 5.061944444,
        "longitude": -73.979444444
    },
    {
        "id": 16812,
        "wikiDataId": "Q579820",
        "type": "CITY",
        "city": "Cota, Colombia",
        "name": "Cota, Colombia",
        "latitude": 4.809444444,
        "longitude": -74.1025
    },
    {
        "id": 16756,
        "wikiDataId": "Q1575538",
        "type": "CITY",
        "city": "Cucunubá",
        "name": "Cucunubá",
        "latitude": 5.25,
        "longitude": -73.766111111
    },
    {
        "id": 16075,
        "wikiDataId": "Q577538",
        "type": "CITY",
        "city": "Cáqueza",
        "name": "Cáqueza",
        "latitude": 4.405277777,
        "longitude": -73.947777777
    },
    {
        "id": 141977,
        "wikiDataId": "Q935205",
        "type": "CITY",
        "city": "El Colegio",
        "name": "El Colegio",
        "latitude": 4.580833333,
        "longitude": -74.4425
    },
    {
        "id": 16117,
        "wikiDataId": "Q680909",
        "type": "CITY",
        "city": "El Maríachi",
        "name": "El Maríachi",
        "latitude": 5.130555555,
        "longitude": -74.158333333
    },
    {
        "id": 16186,
        "wikiDataId": "Q23691792",
        "type": "CITY",
        "city": "El Peñón",
        "name": "El Peñón",
        "latitude": 5.2525,
        "longitude": -74.290555555
    },
    {
        "id": 16912,
        "wikiDataId": "Q602957",
        "type": "CITY",
        "city": "El Rosal",
        "name": "El Rosal",
        "latitude": 4.851944444,
        "longitude": -74.262777777
    },
    {
        "id": 16506,
        "wikiDataId": "Q1947594",
        "type": "CITY",
        "city": "Facatativá",
        "name": "Facatativá",
        "latitude": 4.814722222,
        "longitude": -74.355277777
    },
    {
        "id": 16754,
        "wikiDataId": "Q1525506",
        "type": "CITY",
        "city": "Fomeque",
        "name": "Fomeque",
        "latitude": 4.484722222,
        "longitude": -73.893611111
    },
    {
        "id": 16054,
        "wikiDataId": "Q1577716",
        "type": "CITY",
        "city": "Fosca",
        "name": "Fosca",
        "latitude": 4.338333333,
        "longitude": -73.939166666
    },
    {
        "id": 16911,
        "wikiDataId": "Q608955",
        "type": "CITY",
        "city": "Funza",
        "name": "Funza",
        "latitude": 4.7175,
        "longitude": -74.209444444
    },
    {
        "id": 16068,
        "wikiDataId": "Q2077525",
        "type": "CITY",
        "city": "Fusagasugá",
        "name": "Fusagasugá",
        "latitude": 4.337222222,
        "longitude": -74.364444444
    },
    {
        "id": 141916,
        "wikiDataId": "Q1656191",
        "type": "CITY",
        "city": "Fúquene",
        "name": "Fúquene",
        "latitude": 5.405,
        "longitude": -73.795833333
    },
    {
        "id": 16411,
        "wikiDataId": "Q1577621",
        "type": "CITY",
        "city": "Gachalá",
        "name": "Gachalá",
        "latitude": 4.693055555,
        "longitude": -73.52
    },
    {
        "id": 16482,
        "wikiDataId": "Q1575577",
        "type": "CITY",
        "city": "Gachancipá",
        "name": "Gachancipá",
        "latitude": 4.990833333,
        "longitude": -73.873055555
    },
    {
        "id": 141920,
        "wikiDataId": "Q1577746",
        "type": "CITY",
        "city": "Gachetá",
        "name": "Gachetá",
        "latitude": 4.816388888,
        "longitude": -73.636111111
    },
    {
        "id": 16804,
        "wikiDataId": "Q1656344",
        "type": "CITY",
        "city": "Gama",
        "name": "Gama",
        "latitude": 4.762777777,
        "longitude": -73.610833333
    },
    {
        "id": 141937,
        "wikiDataId": "Q186193",
        "type": "CITY",
        "city": "Girardot",
        "name": "Girardot",
        "latitude": 4.303611111,
        "longitude": -74.803888888
    },
    {
        "id": 3082906,
        "wikiDataId": "Q23690741",
        "type": "CITY",
        "city": "Granada",
        "name": "Granada",
        "latitude": 5.066666666,
        "longitude": -74.566666666
    },
    {
        "id": 15967,
        "wikiDataId": "Q955108",
        "type": "CITY",
        "city": "Guachetá",
        "name": "Guachetá",
        "latitude": 5.385555555,
        "longitude": -73.685555555
    },
    {
        "id": 141933,
        "wikiDataId": "Q685990",
        "type": "CITY",
        "city": "Guaduas",
        "name": "Guaduas",
        "latitude": 5.069444,
        "longitude": -74.598056
    },
    {
        "id": 16080,
        "wikiDataId": "Q179672",
        "type": "CITY",
        "city": "Guasca",
        "name": "Guasca",
        "latitude": 4.865833333,
        "longitude": -73.877222222
    },
    {
        "id": 16615,
        "wikiDataId": "Q1654896",
        "type": "CITY",
        "city": "Guataquí",
        "name": "Guataquí",
        "latitude": 4.516944444,
        "longitude": -74.790555555
    },
    {
        "id": 16510,
        "wikiDataId": "Q1576750",
        "type": "CITY",
        "city": "Guatavita",
        "name": "Guatavita",
        "latitude": 4.934444444,
        "longitude": -73.834444444
    },
    {
        "id": 16468,
        "wikiDataId": "Q1654927",
        "type": "CITY",
        "city": "Guayabal de Síquima",
        "name": "Guayabal de Síquima",
        "latitude": 4.877222222,
        "longitude": -74.466944444
    },
    {
        "id": 16324,
        "wikiDataId": "Q1656121",
        "type": "CITY",
        "city": "Guayabetal",
        "name": "Guayabetal",
        "latitude": 4.215277777,
        "longitude": -73.814444444
    },
    {
        "id": 141873,
        "wikiDataId": "Q1654682",
        "type": "CITY",
        "city": "Gutiérrez",
        "name": "Gutiérrez",
        "latitude": 4.254166666,
        "longitude": -74.003055555
    },
    {
        "id": 16640,
        "wikiDataId": "Q23689265",
        "type": "CITY",
        "city": "Jerusalén",
        "name": "Jerusalén",
        "latitude": 4.563055555,
        "longitude": -74.695277777
    },
    {
        "id": 141855,
        "wikiDataId": "Q1579341",
        "type": "CITY",
        "city": "Junín",
        "name": "Junín",
        "latitude": 4.790277777,
        "longitude": -73.663333333
    },
    {
        "id": 141853,
        "wikiDataId": "Q1440823",
        "type": "CITY",
        "city": "La Calera",
        "name": "La Calera",
        "latitude": 4.719722222,
        "longitude": -73.97
    },
    {
        "id": 2983799,
        "wikiDataId": "Q23688527",
        "type": "CITY",
        "city": "La Mesa",
        "name": "La Mesa",
        "latitude": 5.266666666,
        "longitude": -73.916666666
    },
    {
        "id": 141843,
        "wikiDataId": "Q936790",
        "type": "CITY",
        "city": "La Mesa, Colombia",
        "name": "La Mesa, Colombia",
        "latitude": 4.630277777,
        "longitude": -74.4625
    },
    {
        "id": 141837,
        "wikiDataId": "Q1578797",
        "type": "CITY",
        "city": "La Palma",
        "name": "La Palma",
        "latitude": 5.360555555,
        "longitude": -74.389722222
    },
    {
        "id": 16386,
        "wikiDataId": "Q23688588",
        "type": "CITY",
        "city": "La Peña",
        "name": "La Peña",
        "latitude": 5.198611111,
        "longitude": -74.393611111
    },
    {
        "id": 141831,
        "wikiDataId": "Q2022377",
        "type": "CITY",
        "city": "La Vega, Cundinamarca",
        "name": "La Vega, Cundinamarca",
        "latitude": 4.999166666,
        "longitude": -74.341111111
    },
    {
        "id": 16089,
        "wikiDataId": "Q516210",
        "type": "CITY",
        "city": "Lenguazaque",
        "name": "Lenguazaque",
        "latitude": 5.306944444,
        "longitude": -73.711666666
    },
    {
        "id": 16433,
        "wikiDataId": "Q1577733",
        "type": "CITY",
        "city": "Machetá",
        "name": "Machetá",
        "latitude": 5.080217,
        "longitude": -73.607475
    },
    {
        "id": 141810,
        "wikiDataId": "Q2316396",
        "type": "CITY",
        "city": "Madrid",
        "name": "Madrid",
        "latitude": 4.730555555,
        "longitude": -74.263888888
    },
    {
        "id": 141802,
        "wikiDataId": "Q1654947",
        "type": "CITY",
        "city": "Manta",
        "name": "Manta",
        "latitude": 5.008055555,
        "longitude": -73.540277777
    },
    {
        "id": 16418,
        "wikiDataId": "Q1579406",
        "type": "CITY",
        "city": "Medina",
        "name": "Medina",
        "latitude": 4.509166666,
        "longitude": -73.349444444
    },
    {
        "id": 141752,
        "wikiDataId": "Q2432909",
        "type": "CITY",
        "city": "Mosquera",
        "name": "Mosquera",
        "latitude": 4.707778,
        "longitude": -74.232778
    },
    {
        "id": 141749,
        "wikiDataId": "Q1847862",
        "type": "CITY",
        "city": "Nariño, Cundinamarca",
        "name": "Nariño, Cundinamarca",
        "latitude": 4.398055555,
        "longitude": -74.828055555
    },
    {
        "id": 16144,
        "wikiDataId": "Q1574741",
        "type": "CITY",
        "city": "Nemocón",
        "name": "Nemocón",
        "latitude": 5.066666666,
        "longitude": -73.878055555
    },
    {
        "id": 16547,
        "wikiDataId": "Q1524825",
        "type": "CITY",
        "city": "Nilo",
        "name": "Nilo",
        "latitude": 4.306944444,
        "longitude": -74.62
    },
    {
        "id": 16360,
        "wikiDataId": "Q1654819",
        "type": "CITY",
        "city": "Nimaima",
        "name": "Nimaima",
        "latitude": 5.126111111,
        "longitude": -74.385833333
    },
    {
        "id": 16906,
        "wikiDataId": "Q1577029",
        "type": "CITY",
        "city": "Nocaima",
        "name": "Nocaima",
        "latitude": 5.070277777,
        "longitude": -74.378055555
    },
    {
        "id": 16846,
        "wikiDataId": "Q597973",
        "type": "CITY",
        "city": "Paime",
        "name": "Paime",
        "latitude": 5.370555555,
        "longitude": -74.151666666
    },
    {
        "id": 141692,
        "wikiDataId": "Q1656274",
        "type": "CITY",
        "city": "Pandi",
        "name": "Pandi",
        "latitude": 4.191111111,
        "longitude": -74.487777777
    },
    {
        "id": 16649,
        "wikiDataId": "Q932870",
        "type": "CITY",
        "city": "Paratebueno",
        "name": "Paratebueno",
        "latitude": 4.375277777,
        "longitude": -73.213055555
    },
    {
        "id": 16747,
        "wikiDataId": "Q2241175",
        "type": "CITY",
        "city": "Pasca",
        "name": "Pasca",
        "latitude": 4.3075,
        "longitude": -74.300833333
    },
    {
        "id": 16271,
        "type": "CITY",
        "city": "Puerto Bogotá",
        "name": "Puerto Bogotá",
        "latitude": 5.19994,
        "longitude": -74.72733
    },
    {
        "id": 141660,
        "wikiDataId": "Q1524761",
        "type": "CITY",
        "city": "Puerto Salgar",
        "name": "Puerto Salgar",
        "latitude": 5.465277777,
        "longitude": -74.653055555
    },
    {
        "id": 16724,
        "wikiDataId": "Q1656309",
        "type": "CITY",
        "city": "Pulí",
        "name": "Pulí",
        "latitude": 4.681944444,
        "longitude": -74.714722222
    },
    {
        "id": 141645,
        "wikiDataId": "Q1656162",
        "type": "CITY",
        "city": "Quebradanegra",
        "name": "Quebradanegra",
        "latitude": 5.117777777,
        "longitude": -74.479166666
    },
    {
        "id": 16170,
        "wikiDataId": "Q1577699",
        "type": "CITY",
        "city": "Quetame",
        "name": "Quetame",
        "latitude": 4.330277777,
        "longitude": -73.862777777
    },
    {
        "id": 16059,
        "wikiDataId": "Q941367",
        "type": "CITY",
        "city": "Quipile",
        "name": "Quipile",
        "latitude": 4.743333333,
        "longitude": -74.533333333
    },
    {
        "id": 16264,
        "wikiDataId": "Q2226527",
        "type": "CITY",
        "city": "Ricaurte, Cundinamarca",
        "name": "Ricaurte, Cundinamarca",
        "latitude": 4.279166666,
        "longitude": -74.772777777
    },
    {
        "id": 141568,
        "wikiDataId": "Q610537",
        "type": "CITY",
        "city": "San Cayetano",
        "name": "San Cayetano",
        "latitude": 5.332222222,
        "longitude": -74.025555555
    },
    {
        "id": 141598,
        "wikiDataId": "Q1576269",
        "type": "CITY",
        "city": "San Francisco",
        "name": "San Francisco",
        "latitude": 4.971111111,
        "longitude": -74.289166666
    },
    {
        "id": 15387,
        "wikiDataId": "Q1575923",
        "type": "CITY",
        "city": "Sasaima",
        "name": "Sasaima",
        "latitude": 4.965,
        "longitude": -74.434722222
    },
    {
        "id": 15683,
        "wikiDataId": "Q1576281",
        "type": "CITY",
        "city": "Sesquilé",
        "name": "Sesquilé",
        "latitude": 5.045277777,
        "longitude": -73.797222222
    },
    {
        "id": 15266,
        "wikiDataId": "Q1391630",
        "type": "CITY",
        "city": "Sibaté",
        "name": "Sibaté",
        "latitude": 4.490833333,
        "longitude": -74.259444444
    },
    {
        "id": 15790,
        "wikiDataId": "Q1441993",
        "type": "CITY",
        "city": "Silvania",
        "name": "Silvania",
        "latitude": 4.403333333,
        "longitude": -74.388055555
    },
    {
        "id": 141509,
        "wikiDataId": "Q1576943",
        "type": "CITY",
        "city": "Simijacá",
        "name": "Simijacá",
        "latitude": 5.503333333,
        "longitude": -73.851666666
    },
    {
        "id": 15782,
        "wikiDataId": "Q1011151",
        "type": "CITY",
        "city": "Soacha",
        "name": "Soacha",
        "latitude": 4.578055555,
        "longitude": -74.214444444
    },
    {
        "id": 15769,
        "wikiDataId": "Q1440902",
        "type": "CITY",
        "city": "Sopó",
        "name": "Sopó",
        "latitude": 4.908055555,
        "longitude": -73.940277777
    },
    {
        "id": 15134,
        "wikiDataId": "Q959079",
        "type": "CITY",
        "city": "Subachoque",
        "name": "Subachoque",
        "latitude": 4.928055555,
        "longitude": -74.173611111
    },
    {
        "id": 15350,
        "wikiDataId": "Q1525782",
        "type": "CITY",
        "city": "Suesca",
        "name": "Suesca",
        "latitude": 5.101666666,
        "longitude": -73.798055555
    },
    {
        "id": 15087,
        "wikiDataId": "Q1654867",
        "type": "CITY",
        "city": "Supatá",
        "name": "Supatá",
        "latitude": 5.061111111,
        "longitude": -74.236666666
    },
    {
        "id": 141495,
        "wikiDataId": "Q598748",
        "type": "CITY",
        "city": "Susa",
        "name": "Susa",
        "latitude": 5.453888888,
        "longitude": -73.814444444
    },
    {
        "id": 14944,
        "wikiDataId": "Q1654822",
        "type": "CITY",
        "city": "Sutatausa",
        "name": "Sutatausa",
        "latitude": 5.247222222,
        "longitude": -73.8525
    },
    {
        "id": 15916,
        "wikiDataId": "Q1441966",
        "type": "CITY",
        "city": "Tabio",
        "name": "Tabio",
        "latitude": 4.915833333,
        "longitude": -74.098333333
    },
    {
        "id": 15247,
        "wikiDataId": "Q1577109",
        "type": "CITY",
        "city": "Tausa",
        "name": "Tausa",
        "latitude": 5.196388888,
        "longitude": -73.8875
    },
    {
        "id": 15049,
        "wikiDataId": "Q1575522",
        "type": "CITY",
        "city": "Tena",
        "name": "Tena",
        "latitude": 4.654722222,
        "longitude": -74.39
    },
    {
        "id": 15393,
        "wikiDataId": "Q1525701",
        "type": "CITY",
        "city": "Tenjo",
        "name": "Tenjo",
        "latitude": 4.869722222,
        "longitude": -74.143888888
    },
    {
        "id": 141412,
        "wikiDataId": "Q1654475",
        "type": "CITY",
        "city": "Tibacuy",
        "name": "Tibacuy",
        "latitude": 4.347222222,
        "longitude": -74.4525
    },
    {
        "id": 3091953,
        "wikiDataId": "Q23712626",
        "type": "CITY",
        "city": "Tibacuy",
        "name": "Tibacuy",
        "latitude": 4.351111111,
        "longitude": -72.456388888
    },
    {
        "id": 15727,
        "wikiDataId": "Q1655992",
        "type": "CITY",
        "city": "Tibirita",
        "name": "Tibirita",
        "latitude": 5.051111111,
        "longitude": -73.504166666
    },
    {
        "id": 141438,
        "wikiDataId": "Q1525235",
        "type": "CITY",
        "city": "Tocaima",
        "name": "Tocaima",
        "latitude": 4.457777777,
        "longitude": -74.634722222
    },
    {
        "id": 15102,
        "wikiDataId": "Q1442348",
        "type": "CITY",
        "city": "Tocancipá",
        "name": "Tocancipá",
        "latitude": 4.966111111,
        "longitude": -73.911111111
    },
    {
        "id": 15013,
        "wikiDataId": "Q1656355",
        "type": "CITY",
        "city": "Topaipí",
        "name": "Topaipí",
        "latitude": 5.336111111,
        "longitude": -74.303055555
    },
    {
        "id": 15765,
        "wikiDataId": "Q1525790",
        "type": "CITY",
        "city": "Ubalá",
        "name": "Ubalá",
        "latitude": 4.743888888,
        "longitude": -73.534722222
    },
    {
        "id": 15935,
        "wikiDataId": "Q1574736",
        "type": "CITY",
        "city": "Ubaque",
        "name": "Ubaque",
        "latitude": 4.483055555,
        "longitude": -73.934444444
    },
    {
        "id": 15121,
        "wikiDataId": "Q2219816",
        "type": "CITY",
        "city": "Ubaté",
        "name": "Ubaté",
        "latitude": 5.307222222,
        "longitude": -73.814444444
    },
    {
        "id": 141411,
        "wikiDataId": "Q1577653",
        "type": "CITY",
        "city": "Une",
        "name": "Une",
        "latitude": 4.401944444,
        "longitude": -74.025
    },
    {
        "id": 15618,
        "wikiDataId": "Q2434762",
        "type": "CITY",
        "city": "Venecia, Cundinamarca",
        "name": "Venecia, Cundinamarca",
        "latitude": 4.088611111,
        "longitude": -74.4775
    },
    {
        "id": 141377,
        "wikiDataId": "Q1575601",
        "type": "CITY",
        "city": "Vergara",
        "name": "Vergara",
        "latitude": 5.117777777,
        "longitude": -74.346111111
    },
    {
        "id": 141380,
        "wikiDataId": "Q1656656",
        "type": "CITY",
        "city": "Vianí",
        "name": "Vianí",
        "latitude": 4.873888888,
        "longitude": -74.562777777
    },
    {
        "id": 15426,
        "wikiDataId": "Q1655514",
        "type": "CITY",
        "city": "Villagómez",
        "name": "Villagómez",
        "latitude": 5.273333333,
        "longitude": -74.194722222
    },
    {
        "id": 15779,
        "wikiDataId": "Q1526073",
        "type": "CITY",
        "city": "Villapinzón",
        "name": "Villapinzón",
        "latitude": 5.215833333,
        "longitude": -73.596666666
    },
    {
        "id": 141373,
        "wikiDataId": "Q1440837",
        "type": "CITY",
        "city": "Villeta",
        "name": "Villeta",
        "latitude": 5.012777777,
        "longitude": -74.473055555
    },
    {
        "id": 15854,
        "wikiDataId": "Q1524864",
        "type": "CITY",
        "city": "Viotá",
        "name": "Viotá",
        "latitude": 4.438055555,
        "longitude": -74.523888888
    },
    {
        "id": 15560,
        "wikiDataId": "Q1525351",
        "type": "CITY",
        "city": "Yacopí",
        "name": "Yacopí",
        "latitude": 5.459722222,
        "longitude": -74.338333333
    },
    {
        "id": 15737,
        "wikiDataId": "Q1654791",
        "type": "CITY",
        "city": "Zipacón",
        "name": "Zipacón",
        "latitude": 4.76,
        "longitude": -74.379722222
    },
    {
        "id": 15622,
        "wikiDataId": "Q205429",
        "type": "CITY",
        "city": "Zipaquirá",
        "name": "Zipaquirá",
        "latitude": 5.024722222,
        "longitude": -74.001388888
    },
    {
        "id": 141428,
        "wikiDataId": "Q1655784",
        "type": "CITY",
        "city": "Útica",
        "name": "Útica",
        "latitude": 5.188611111,
        "longitude": -74.481111111
    }
]
