[
    {
        "id": 57036,
        "wikiDataId": "Q2350169",
        "type": "CITY",
        "city": "Adalaj",
        "name": "Adalaj",
        "latitude": 23.17,
        "longitude": 72.58
    },
    {
        "id": 56894,
        "wikiDataId": "Q760153",
        "type": "CITY",
        "city": "Ahmedabad",
        "name": "Ahmedabad",
        "latitude": 21.69482,
        "longitude": 72.9805
    },
    {
        "id": 56924,
        "wikiDataId": "Q1070",
        "type": "CITY",
        "city": "Ahmedabad",
        "name": "Ahmedabad",
        "latitude": 23.03,
        "longitude": 72.58
    },
    {
        "id": 3101777,
        "wikiDataId": "Q401686",
        "type": "ADM2",
        "city": "Ahmedabad district",
        "name": "Ahmedabad district",
        "latitude": 23.03,
        "longitude": 72.58
    },
    {
        "id": 57352,
        "wikiDataId": "Q1964214",
        "type": "CITY",
        "city": "Ahwa",
        "name": "Ahwa",
        "latitude": 20.75,
        "longitude": 73.683333333
    },
    {
        "id": 57605,
        "wikiDataId": "Q2724262",
        "type": "CITY",
        "city": "Amod, Gujarat",
        "name": "Amod, Gujarat",
        "latitude": 21.991,
        "longitude": 72.871
    },
    {
        "id": 147725,
        "wikiDataId": "Q589163",
        "type": "CITY",
        "city": "Amreli",
        "name": "Amreli",
        "latitude": 21.616666666,
        "longitude": 71.233333333
    },
    {
        "id": 57127,
        "wikiDataId": "Q2722516",
        "type": "CITY",
        "city": "Amroli",
        "name": "Amroli",
        "latitude": 21.239941666,
        "longitude": 72.856522222
    },
    {
        "id": 147829,
        "wikiDataId": "Q1798750",
        "type": "CITY",
        "city": "Anand",
        "name": "Anand",
        "latitude": 22.556,
        "longitude": 72.951
    },
    {
        "id": 57637,
        "wikiDataId": "Q1945434",
        "type": "CITY",
        "city": "Anjar",
        "name": "Anjar",
        "latitude": 23.13,
        "longitude": 70.02
    },
    {
        "id": 57613,
        "wikiDataId": "Q588924",
        "type": "CITY",
        "city": "Ankleshwar",
        "name": "Ankleshwar",
        "latitude": 21.6,
        "longitude": 73
    },
    {
        "id": 57332,
        "wikiDataId": "Q8239185",
        "type": "CITY",
        "city": "Babra",
        "name": "Babra",
        "latitude": 21.84577,
        "longitude": 71.30544
    },
    {
        "id": 56888,
        "wikiDataId": "Q589286",
        "type": "CITY",
        "city": "Bagasara",
        "name": "Bagasara",
        "latitude": 21.483333333,
        "longitude": 70.95
    },
    {
        "id": 57562,
        "wikiDataId": "Q625718",
        "type": "CITY",
        "city": "Bantva",
        "name": "Bantva",
        "latitude": 21.483333333,
        "longitude": 70.066666666
    },
    {
        "id": 147714,
        "type": "ADM2",
        "city": "Banās Kāntha",
        "name": "Banās Kāntha",
        "latitude": 24.25,
        "longitude": 72.5
    },
    {
        "id": 57544,
        "wikiDataId": "Q712003",
        "type": "CITY",
        "city": "Bardoli",
        "name": "Bardoli",
        "latitude": 21.12,
        "longitude": 73.12
    },
    {
        "id": 57392,
        "wikiDataId": "Q516587",
        "type": "CITY",
        "city": "Bedi",
        "name": "Bedi",
        "latitude": 22.5,
        "longitude": 70.05
    },
    {
        "id": 56852,
        "wikiDataId": "Q759550",
        "type": "CITY",
        "city": "Bhachau",
        "name": "Bhachau",
        "latitude": 23.28,
        "longitude": 70.35
    },
    {
        "id": 57750,
        "wikiDataId": "Q720917",
        "type": "CITY",
        "city": "Bhanvad",
        "name": "Bhanvad",
        "latitude": 21.93,
        "longitude": 69.78
    },
    {
        "id": 57276,
        "wikiDataId": "Q242992",
        "type": "CITY",
        "city": "Bhavnagar",
        "name": "Bhavnagar",
        "latitude": 21.765,
        "longitude": 72.136944444
    },
    {
        "id": 56972,
        "wikiDataId": "Q759168",
        "type": "CITY",
        "city": "Bhayavadar",
        "name": "Bhayavadar",
        "latitude": 21.85,
        "longitude": 70.25
    },
    {
        "id": 57722,
        "wikiDataId": "Q798382",
        "type": "CITY",
        "city": "Bhuj",
        "name": "Bhuj",
        "latitude": 23.25,
        "longitude": 69.67
    },
    {
        "id": 3184720,
        "wikiDataId": "Q26791340",
        "type": "ADM2",
        "city": "Bhāvnagar",
        "name": "Bhāvnagar",
        "latitude": 21.666666666,
        "longitude": 71.833333333
    },
    {
        "id": 56768,
        "wikiDataId": "Q862141",
        "type": "CITY",
        "city": "Bilimora",
        "name": "Bilimora",
        "latitude": 20.75,
        "longitude": 72.95
    },
    {
        "id": 56103,
        "type": "CITY",
        "city": "Bilkha",
        "name": "Bilkha",
        "latitude": 21.4415,
        "longitude": 70.60063
    },
    {
        "id": 56543,
        "wikiDataId": "Q858219",
        "type": "CITY",
        "city": "Borsad",
        "name": "Borsad",
        "latitude": 22.42,
        "longitude": 72.9
    },
    {
        "id": 56045,
        "wikiDataId": "Q858162",
        "type": "CITY",
        "city": "Botad",
        "name": "Botad",
        "latitude": 22.17,
        "longitude": 71.67
    },
    {
        "id": 56586,
        "wikiDataId": "Q607388",
        "type": "CITY",
        "city": "Chaklasi",
        "name": "Chaklasi",
        "latitude": 22.65,
        "longitude": 72.93
    },
    {
        "id": 56353,
        "wikiDataId": "Q858287",
        "type": "CITY",
        "city": "Chalala",
        "name": "Chalala",
        "latitude": 21.42,
        "longitude": 71.17
    },
    {
        "id": 55984,
        "wikiDataId": "Q859113",
        "type": "CITY",
        "city": "Chanasma",
        "name": "Chanasma",
        "latitude": 23.72,
        "longitude": 72.12
    },
    {
        "id": 55930,
        "type": "CITY",
        "city": "Chhala",
        "name": "Chhala",
        "latitude": 23.30779,
        "longitude": 72.77404
    },
    {
        "id": 56495,
        "wikiDataId": "Q612721",
        "type": "CITY",
        "city": "Chhota Udepur",
        "name": "Chhota Udepur",
        "latitude": 22.32,
        "longitude": 74.01
    },
    {
        "id": 55792,
        "wikiDataId": "Q1945471",
        "type": "CITY",
        "city": "Chikhli",
        "name": "Chikhli",
        "latitude": 20.75,
        "longitude": 73.07
    },
    {
        "id": 56358,
        "wikiDataId": "Q2723942",
        "type": "CITY",
        "city": "Chotila",
        "name": "Chotila",
        "latitude": 22.425,
        "longitude": 71.188
    },
    {
        "id": 56166,
        "wikiDataId": "Q1156554",
        "type": "CITY",
        "city": "Dabhoi",
        "name": "Dabhoi",
        "latitude": 22.129469444,
        "longitude": 73.417555555
    },
    {
        "id": 56717,
        "wikiDataId": "Q582485",
        "type": "CITY",
        "city": "Dahegam",
        "name": "Dahegam",
        "latitude": 23.17,
        "longitude": 72.82
    },
    {
        "id": 147808,
        "wikiDataId": "Q1262380",
        "type": "CITY",
        "city": "Dahod",
        "name": "Dahod",
        "latitude": 22.52,
        "longitude": 74.15
    },
    {
        "id": 56760,
        "wikiDataId": "Q1192377",
        "type": "CITY",
        "city": "Dakor",
        "name": "Dakor",
        "latitude": 22.768888888,
        "longitude": 73.137777777
    },
    {
        "id": 56193,
        "wikiDataId": "Q1189805",
        "type": "CITY",
        "city": "Damnagar",
        "name": "Damnagar",
        "latitude": 21.7,
        "longitude": 71.52
    },
    {
        "id": 147418,
        "wikiDataId": "Q26780106",
        "type": "ADM2",
        "city": "Dangs (India)",
        "name": "Dangs (India)",
        "latitude": 20.75,
        "longitude": 73.75
    },
    {
        "id": 56991,
        "type": "CITY",
        "city": "Dayapar",
        "name": "Dayapar",
        "latitude": 23.63371,
        "longitude": 68.90192
    },
    {
        "id": 56192,
        "wikiDataId": "Q16999192",
        "type": "CITY",
        "city": "Delwada",
        "name": "Delwada",
        "latitude": 20.7833,
        "longitude": 71.05
    },
    {
        "id": 148056,
        "type": "ADM2",
        "city": "Devbhumi Dwarka",
        "name": "Devbhumi Dwarka",
        "latitude": 22.20253,
        "longitude": 69.65498
    },
    {
        "id": 55814,
        "wikiDataId": "Q1263667",
        "type": "CITY",
        "city": "Devgadh Bariya",
        "name": "Devgadh Bariya",
        "latitude": 22.702205555,
        "longitude": 73.915027777
    },
    {
        "id": 55953,
        "wikiDataId": "Q1259584",
        "type": "CITY",
        "city": "Dhandhuka",
        "name": "Dhandhuka",
        "latitude": 22.37,
        "longitude": 71.98
    },
    {
        "id": 56207,
        "wikiDataId": "Q1266017",
        "type": "CITY",
        "city": "Dhanera",
        "name": "Dhanera",
        "latitude": 24.52,
        "longitude": 72.02
    },
    {
        "id": 55857,
        "wikiDataId": "Q2465676",
        "type": "CITY",
        "city": "Dharampur",
        "name": "Dharampur",
        "latitude": 20.538333333,
        "longitude": 73.174722222
    },
    {
        "id": 56459,
        "wikiDataId": "Q2761749",
        "type": "CITY",
        "city": "Dhari",
        "name": "Dhari",
        "latitude": 21.326111111,
        "longitude": 71.027222222
    },
    {
        "id": 56422,
        "wikiDataId": "Q2355879",
        "type": "CITY",
        "city": "Dhola",
        "name": "Dhola",
        "latitude": 21.88,
        "longitude": 71.78
    },
    {
        "id": 55893,
        "wikiDataId": "Q1263568",
        "type": "CITY",
        "city": "Dholka",
        "name": "Dholka",
        "latitude": 22.72,
        "longitude": 72.47
    },
    {
        "id": 56724,
        "wikiDataId": "Q1259573",
        "type": "CITY",
        "city": "Dhoraji",
        "name": "Dhoraji",
        "latitude": 21.73359,
        "longitude": 70.45004
    },
    {
        "id": 56660,
        "wikiDataId": "Q1265559",
        "type": "CITY",
        "city": "Dhrangadhra",
        "name": "Dhrangadhra",
        "latitude": 22.99167,
        "longitude": 71.46793
    },
    {
        "id": 56702,
        "wikiDataId": "Q927778",
        "type": "CITY",
        "city": "Dhrol",
        "name": "Dhrol",
        "latitude": 22.568861,
        "longitude": 70.412478
    },
    {
        "id": 56770,
        "type": "CITY",
        "city": "Dhuwaran",
        "name": "Dhuwaran",
        "latitude": 22.23779,
        "longitude": 72.7591
    },
    {
        "id": 56074,
        "type": "CITY",
        "city": "Dungarpur",
        "name": "Dungarpur",
        "latitude": 21.28777,
        "longitude": 71.7556
    },
    {
        "id": 55853,
        "wikiDataId": "Q817247",
        "type": "CITY",
        "city": "Dwarka",
        "name": "Dwarka",
        "latitude": 22.240277777,
        "longitude": 68.968611111
    },
    {
        "id": 56218,
        "wikiDataId": "Q31856848",
        "type": "CITY",
        "city": "Dīsa",
        "name": "Dīsa",
        "latitude": 24.256111111,
        "longitude": 72.179166666
    },
    {
        "id": 56007,
        "wikiDataId": "Q1525333",
        "type": "CITY",
        "city": "Gadhada",
        "name": "Gadhada",
        "latitude": 21.97,
        "longitude": 71.57
    },
    {
        "id": 55815,
        "wikiDataId": "Q721365",
        "type": "CITY",
        "city": "Gandevi",
        "name": "Gandevi",
        "latitude": 20.82,
        "longitude": 72.98
    },
    {
        "id": 55956,
        "wikiDataId": "Q41543",
        "type": "CITY",
        "city": "Gandhidham",
        "name": "Gandhidham",
        "latitude": 23.068055555,
        "longitude": 70.128333333
    },
    {
        "id": 55833,
        "wikiDataId": "Q11910",
        "type": "CITY",
        "city": "Gandhinagar",
        "name": "Gandhinagar",
        "latitude": 23.22,
        "longitude": 72.68
    },
    {
        "id": 56321,
        "wikiDataId": "Q536870",
        "type": "CITY",
        "city": "Gariadhar",
        "name": "Gariadhar",
        "latitude": 21.53,
        "longitude": 71.58
    },
    {
        "id": 56301,
        "wikiDataId": "Q1707463",
        "type": "CITY",
        "city": "Ghogha",
        "name": "Ghogha",
        "latitude": 21.68,
        "longitude": 72.28
    },
    {
        "id": 148068,
        "type": "ADM2",
        "city": "Gir Somnath",
        "name": "Gir Somnath",
        "latitude": 20.91287,
        "longitude": 70.3671
    },
    {
        "id": 56511,
        "wikiDataId": "Q1708114",
        "type": "CITY",
        "city": "Godhra",
        "name": "Godhra",
        "latitude": 22.777222222,
        "longitude": 73.620277777
    },
    {
        "id": 56739,
        "wikiDataId": "Q1536978",
        "type": "CITY",
        "city": "Gondal",
        "name": "Gondal",
        "latitude": 21.97,
        "longitude": 70.8
    },
    {
        "id": 56191,
        "wikiDataId": "Q1707605",
        "type": "CITY",
        "city": "Halol",
        "name": "Halol",
        "latitude": 22.5,
        "longitude": 73.47
    },
    {
        "id": 56583,
        "wikiDataId": "Q1707007",
        "type": "CITY",
        "city": "Halvad",
        "name": "Halvad",
        "latitude": 23.02,
        "longitude": 71.18
    },
    {
        "id": 56484,
        "wikiDataId": "Q2777153",
        "type": "CITY",
        "city": "Hansot",
        "name": "Hansot",
        "latitude": 21.58333333,
        "longitude": 72.8
    },
    {
        "id": 56560,
        "wikiDataId": "Q1708423",
        "type": "CITY",
        "city": "Harij",
        "name": "Harij",
        "latitude": 23.7,
        "longitude": 71.9
    },
    {
        "id": 56433,
        "wikiDataId": "Q1708155",
        "type": "CITY",
        "city": "Himatnagar",
        "name": "Himatnagar",
        "latitude": 23.56666667,
        "longitude": 73.01666667
    },
    {
        "id": 56415,
        "wikiDataId": "Q2013180",
        "type": "CITY",
        "city": "Jalalpore",
        "name": "Jalalpore",
        "latitude": 20.9491,
        "longitude": 72.9136
    },
    {
        "id": 55842,
        "wikiDataId": "Q2013301",
        "type": "CITY",
        "city": "Jambusar",
        "name": "Jambusar",
        "latitude": 22.05,
        "longitude": 72.8
    },
    {
        "id": 56237,
        "wikiDataId": "Q1154",
        "type": "CITY",
        "city": "Jamnagar",
        "name": "Jamnagar",
        "latitude": 22.47,
        "longitude": 70.07
    },
    {
        "id": 56664,
        "wikiDataId": "Q1714838",
        "type": "CITY",
        "city": "Jasdan",
        "name": "Jasdan",
        "latitude": 22.03,
        "longitude": 71.2
    },
    {
        "id": 56065,
        "type": "CITY",
        "city": "Jetalsar",
        "name": "Jetalsar",
        "latitude": 21.70891,
        "longitude": 70.57695
    },
    {
        "id": 56651,
        "wikiDataId": "Q968713",
        "type": "CITY",
        "city": "Jetpur, Navagadh",
        "name": "Jetpur, Navagadh",
        "latitude": 21.75482,
        "longitude": 70.62347
    },
    {
        "id": 57401,
        "type": "CITY",
        "city": "Jhulasan",
        "name": "Jhulasan",
        "latitude": 23.3286,
        "longitude": 72.47314
    },
    {
        "id": 56706,
        "wikiDataId": "Q1609645",
        "type": "CITY",
        "city": "Jodhpur (Ahmedabad)",
        "name": "Jodhpur (Ahmedabad)",
        "latitude": 21.88,
        "longitude": 70.03
    },
    {
        "id": 55796,
        "wikiDataId": "Q2758600",
        "type": "CITY",
        "city": "Jodia",
        "name": "Jodia",
        "latitude": 22.71667,
        "longitude": 70.28333
    },
    {
        "id": 147585,
        "wikiDataId": "Q11864",
        "type": "CITY",
        "city": "Junagadh",
        "name": "Junagadh",
        "latitude": 21.52,
        "longitude": 70.47
    },
    {
        "id": 3184841,
        "wikiDataId": "Q1797344",
        "type": "ADM2",
        "city": "Junagadh district",
        "name": "Junagadh district",
        "latitude": 21.516666666,
        "longitude": 70.45
    },
    {
        "id": 56393,
        "wikiDataId": "Q2726621",
        "type": "CITY",
        "city": "Kadi",
        "name": "Kadi",
        "latitude": 23.18,
        "longitude": 72.2
    },
    {
        "id": 56087,
        "wikiDataId": "Q2726639",
        "type": "CITY",
        "city": "Kadod",
        "name": "Kadod",
        "latitude": 21.218,
        "longitude": 73.22
    },
    {
        "id": 56431,
        "wikiDataId": "Q2251785",
        "type": "CITY",
        "city": "Kalavad",
        "name": "Kalavad",
        "latitude": 22.22,
        "longitude": 70.38
    },
    {
        "id": 55861,
        "wikiDataId": "Q2724740",
        "type": "CITY",
        "city": "Kalol",
        "name": "Kalol",
        "latitude": 22.606,
        "longitude": 73.463
    },
    {
        "id": 56194,
        "wikiDataId": "Q581480",
        "type": "CITY",
        "city": "Kandla port",
        "name": "Kandla port",
        "latitude": 23.03,
        "longitude": 70.22
    },
    {
        "id": 55913,
        "wikiDataId": "Q2564896",
        "type": "CITY",
        "city": "Kanodar",
        "name": "Kanodar",
        "latitude": 24.1,
        "longitude": 72.38
    },
    {
        "id": 56110,
        "wikiDataId": "Q2341421",
        "type": "CITY",
        "city": "Kapadvanj",
        "name": "Kapadvanj",
        "latitude": 23.02,
        "longitude": 73.07
    },
    {
        "id": 55931,
        "wikiDataId": "Q2349890",
        "type": "CITY",
        "city": "Karamsad",
        "name": "Karamsad",
        "latitude": 22.55,
        "longitude": 72.9
    },
    {
        "id": 56372,
        "wikiDataId": "Q2726550",
        "type": "CITY",
        "city": "Kathor",
        "name": "Kathor",
        "latitude": 21.3,
        "longitude": 72.93333333
    },
    {
        "id": 55434,
        "type": "CITY",
        "city": "Katpur",
        "name": "Katpur",
        "latitude": 21.05869,
        "longitude": 71.79457
    },
    {
        "id": 55232,
        "wikiDataId": "Q18011653",
        "type": "CITY",
        "city": "Kavant",
        "name": "Kavant",
        "latitude": 22.09282,
        "longitude": 74.05078
    },
    {
        "id": 54971,
        "wikiDataId": "Q599414",
        "type": "CITY",
        "city": "Keshod",
        "name": "Keshod",
        "latitude": 21.3,
        "longitude": 70.25
    },
    {
        "id": 55539,
        "wikiDataId": "Q2120093",
        "type": "CITY",
        "city": "Khambhalia",
        "name": "Khambhalia",
        "latitude": 22.2,
        "longitude": 69.65
    },
    {
        "id": 54972,
        "wikiDataId": "Q1740527",
        "type": "CITY",
        "city": "Khambhat",
        "name": "Khambhat",
        "latitude": 22.313114,
        "longitude": 72.619408
    },
    {
        "id": 147558,
        "wikiDataId": "Q775759",
        "type": "CITY",
        "city": "Kheda",
        "name": "Kheda",
        "latitude": 22.75,
        "longitude": 72.68
    },
    {
        "id": 55346,
        "wikiDataId": "Q9461",
        "type": "CITY",
        "city": "Khedbrahma",
        "name": "Khedbrahma",
        "latitude": 24.0299,
        "longitude": 73.04632
    },
    {
        "id": 55475,
        "wikiDataId": "Q2236264",
        "type": "CITY",
        "city": "Kheralu",
        "name": "Kheralu",
        "latitude": 23.88,
        "longitude": 72.62
    },
    {
        "id": 55531,
        "wikiDataId": "Q2239007",
        "type": "CITY",
        "city": "Kodinar",
        "name": "Kodinar",
        "latitude": 20.86,
        "longitude": 70.8
    },
    {
        "id": 55456,
        "wikiDataId": "Q431049",
        "type": "CITY",
        "city": "Kosamba",
        "name": "Kosamba",
        "latitude": 21.48,
        "longitude": 72.95
    },
    {
        "id": 147581,
        "wikiDataId": "Q1063417",
        "type": "ADM2",
        "city": "Kutch district",
        "name": "Kutch district",
        "latitude": 23.915,
        "longitude": 70.367
    },
    {
        "id": 55335,
        "wikiDataId": "Q2238993",
        "type": "CITY",
        "city": "Kutiyana",
        "name": "Kutiyana",
        "latitude": 21.63,
        "longitude": 69.98
    },
    {
        "id": 54989,
        "wikiDataId": "Q11931118",
        "type": "ADM2",
        "city": "Lakhtar State",
        "name": "Lakhtar State",
        "latitude": 22.85,
        "longitude": 71.83333333
    },
    {
        "id": 54892,
        "wikiDataId": "Q2771361",
        "type": "CITY",
        "city": "Lalpur",
        "name": "Lalpur",
        "latitude": 22.19073,
        "longitude": 69.96351
    },
    {
        "id": 55070,
        "wikiDataId": "Q3827464",
        "type": "CITY",
        "city": "Lathi",
        "name": "Lathi",
        "latitude": 21.72,
        "longitude": 71.38
    },
    {
        "id": 55588,
        "wikiDataId": "Q715228",
        "type": "CITY",
        "city": "Limbdi",
        "name": "Limbdi",
        "latitude": 22.57,
        "longitude": 71.8
    },
    {
        "id": 55766,
        "wikiDataId": "Q2240915",
        "type": "CITY",
        "city": "Lunavada",
        "name": "Lunavada",
        "latitude": 23.133333333,
        "longitude": 73.616666666
    },
    {
        "id": 55397,
        "wikiDataId": "Q2233469",
        "type": "CITY",
        "city": "Mahemdavad",
        "name": "Mahemdavad",
        "latitude": 22.83,
        "longitude": 72.77
    },
    {
        "id": 55383,
        "wikiDataId": "Q2606805",
        "type": "CITY",
        "city": "Mahudha",
        "name": "Mahudha",
        "latitude": 22.82,
        "longitude": 72.93
    },
    {
        "id": 54979,
        "wikiDataId": "Q2234238",
        "type": "CITY",
        "city": "Malpur",
        "name": "Malpur",
        "latitude": 23.359094,
        "longitude": 73.46455
    },
    {
        "id": 55306,
        "wikiDataId": "Q1330938",
        "type": "CITY",
        "city": "Manavadar",
        "name": "Manavadar",
        "latitude": 21.5,
        "longitude": 70.13
    },
    {
        "id": 55401,
        "wikiDataId": "Q26783813",
        "type": "CITY",
        "city": "Mandal",
        "name": "Mandal",
        "latitude": 23.28865,
        "longitude": 71.91854
    },
    {
        "id": 55405,
        "wikiDataId": "Q2570689",
        "type": "CITY",
        "city": "Mandvi",
        "name": "Mandvi",
        "latitude": 22.81,
        "longitude": 69.36
    },
    {
        "id": 3005513,
        "wikiDataId": "Q2768275",
        "type": "CITY",
        "city": "Mandvi (Surat)",
        "name": "Mandvi (Surat)",
        "latitude": 21.25526,
        "longitude": 73.30412
    },
    {
        "id": 55337,
        "wikiDataId": "Q2577440",
        "type": "CITY",
        "city": "Mangrol (Junagadh)",
        "name": "Mangrol (Junagadh)",
        "latitude": 21.12,
        "longitude": 70.12
    },
    {
        "id": 55156,
        "wikiDataId": "Q720211",
        "type": "CITY",
        "city": "Mansa",
        "name": "Mansa",
        "latitude": 23.43,
        "longitude": 72.67
    },
    {
        "id": 55069,
        "wikiDataId": "Q2673443",
        "type": "CITY",
        "city": "Meghraj",
        "name": "Meghraj",
        "latitude": 23.5,
        "longitude": 73.5
    },
    {
        "id": 147531,
        "wikiDataId": "Q1922283",
        "type": "CITY",
        "city": "Mehsana",
        "name": "Mehsana",
        "latitude": 23.6,
        "longitude": 72.4
    },
    {
        "id": 3184775,
        "wikiDataId": "Q2019694",
        "type": "ADM2",
        "city": "Mehsana district",
        "name": "Mehsana district",
        "latitude": 23.666666666,
        "longitude": 72.5
    },
    {
        "id": 55131,
        "wikiDataId": "Q2768932",
        "type": "CITY",
        "city": "Mendarda",
        "name": "Mendarda",
        "latitude": 21.3202,
        "longitude": 70.4385
    },
    {
        "id": 54940,
        "wikiDataId": "Q2320097",
        "type": "CITY",
        "city": "Modasa",
        "name": "Modasa",
        "latitude": 23.47,
        "longitude": 73.3
    },
    {
        "id": 54801,
        "wikiDataId": "Q2087713",
        "type": "CITY",
        "city": "Morbi",
        "name": "Morbi",
        "latitude": 22.816666666,
        "longitude": 70.833333333
    },
    {
        "id": 54878,
        "wikiDataId": "Q2769626",
        "type": "CITY",
        "city": "Morva (Hadaf)",
        "name": "Morva (Hadaf)",
        "latitude": 22.90469,
        "longitude": 73.83912
    },
    {
        "id": 55116,
        "wikiDataId": "Q2234250",
        "type": "CITY",
        "city": "Mundra",
        "name": "Mundra",
        "latitude": 22.85,
        "longitude": 69.73
    },
    {
        "id": 55597,
        "wikiDataId": "Q219039",
        "type": "CITY",
        "city": "Nadiad",
        "name": "Nadiad",
        "latitude": 22.7,
        "longitude": 72.87
    },
    {
        "id": 55770,
        "wikiDataId": "Q6960925",
        "type": "CITY",
        "city": "Naliya",
        "name": "Naliya",
        "latitude": 23.26111111,
        "longitude": 68.82666667
    },
    {
        "id": 147992,
        "type": "ADM2",
        "city": "Narmada",
        "name": "Narmada",
        "latitude": 21.87377,
        "longitude": 73.49527
    },
    {
        "id": 55708,
        "wikiDataId": "Q6966092",
        "type": "CITY",
        "city": "Naroda",
        "name": "Naroda",
        "latitude": 23.08333333,
        "longitude": 72.66666667
    },
    {
        "id": 148021,
        "wikiDataId": "Q1922248",
        "type": "CITY",
        "city": "Navsari",
        "name": "Navsari",
        "latitude": 20.950555555,
        "longitude": 72.923055555
    },
    {
        "id": 55606,
        "wikiDataId": "Q2726034",
        "type": "CITY",
        "city": "Okha",
        "name": "Okha",
        "latitude": 22.466666666,
        "longitude": 69.066666666
    },
    {
        "id": 55753,
        "wikiDataId": "Q2726258",
        "type": "CITY",
        "city": "Olpad",
        "name": "Olpad",
        "latitude": 21.33333333,
        "longitude": 72.75
    },
    {
        "id": 55664,
        "wikiDataId": "Q2575916",
        "type": "CITY",
        "city": "Paddhari",
        "name": "Paddhari",
        "latitude": 22.43,
        "longitude": 70.6
    },
    {
        "id": 55098,
        "wikiDataId": "Q2247454",
        "type": "CITY",
        "city": "Padra",
        "name": "Padra",
        "latitude": 22.23,
        "longitude": 73.08
    },
    {
        "id": 55453,
        "wikiDataId": "Q949907",
        "type": "CITY",
        "city": "Palanpur",
        "name": "Palanpur",
        "latitude": 24.166666666,
        "longitude": 72.433333333
    },
    {
        "id": 54917,
        "wikiDataId": "Q6730925",
        "type": "ADM2",
        "city": "Palitana",
        "name": "Palitana",
        "latitude": 21.52,
        "longitude": 71.83
    },
    {
        "id": 55162,
        "wikiDataId": "Q15132884",
        "type": "CITY",
        "city": "Paliyad (Bhavnagar)",
        "name": "Paliyad (Bhavnagar)",
        "latitude": 22.25757,
        "longitude": 71.56024
    },
    {
        "id": 147491,
        "wikiDataId": "Q1781463",
        "type": "ADM2",
        "city": "Panchmahal district",
        "name": "Panchmahal district",
        "latitude": 22.75,
        "longitude": 73.6
    },
    {
        "id": 55061,
        "wikiDataId": "Q1925363",
        "type": "CITY",
        "city": "Pardi",
        "name": "Pardi",
        "latitude": 20.52,
        "longitude": 72.95
    },
    {
        "id": 55265,
        "wikiDataId": "Q2735009",
        "type": "CITY",
        "city": "Parnera",
        "name": "Parnera",
        "latitude": 20.55,
        "longitude": 72.95
    },
    {
        "id": 54846,
        "wikiDataId": "Q579702",
        "type": "CITY",
        "city": "Patan",
        "name": "Patan",
        "latitude": 23.83,
        "longitude": 72.12
    },
    {
        "id": 3060961,
        "wikiDataId": "Q26788214",
        "type": "CITY",
        "city": "Pavi Jetpur",
        "name": "Pavi Jetpur",
        "latitude": 22.34472,
        "longitude": 73.84093
    },
    {
        "id": 54832,
        "wikiDataId": "Q2734226",
        "type": "CITY",
        "city": "Petlad",
        "name": "Petlad",
        "latitude": 22.47,
        "longitude": 72.8
    },
    {
        "id": 54776,
        "wikiDataId": "Q33473477",
        "type": "CITY",
        "city": "Porbandar",
        "name": "Porbandar",
        "latitude": 21.64219,
        "longitude": 69.60929
    },
    {
        "id": 54727,
        "wikiDataId": "Q2068178",
        "type": "CITY",
        "city": "Radhanpur",
        "name": "Radhanpur",
        "latitude": 23.83,
        "longitude": 71.6
    },
    {
        "id": 147464,
        "wikiDataId": "Q11854",
        "type": "CITY",
        "city": "Rajkot",
        "name": "Rajkot",
        "latitude": 22.296908333,
        "longitude": 70.798363888
    },
    {
        "id": 54510,
        "wikiDataId": "Q1816866",
        "type": "CITY",
        "city": "Rajpipla",
        "name": "Rajpipla",
        "latitude": 21.870369444,
        "longitude": 73.502569444
    },
    {
        "id": 54621,
        "wikiDataId": "Q2734999",
        "type": "CITY",
        "city": "Rajula",
        "name": "Rajula",
        "latitude": 21.05,
        "longitude": 71.43
    },
    {
        "id": 54417,
        "wikiDataId": "Q2570700",
        "type": "CITY",
        "city": "Ranavav",
        "name": "Ranavav",
        "latitude": 21.68,
        "longitude": 69.75
    },
    {
        "id": 53939,
        "wikiDataId": "Q2724400",
        "type": "CITY",
        "city": "Rapar",
        "name": "Rapar",
        "latitude": 23.57,
        "longitude": 70.63
    },
    {
        "id": 54369,
        "type": "CITY",
        "city": "Roha",
        "name": "Roha",
        "latitude": 23.19646,
        "longitude": 69.27076
    },
    {
        "id": 147460,
        "wikiDataId": "Q26780767",
        "type": "ADM2",
        "city": "Sabar Kāntha (India : District)",
        "name": "Sabar Kāntha (India : District)",
        "latitude": 23.5,
        "longitude": 73.25
    },
    {
        "id": 54395,
        "wikiDataId": "Q2774361",
        "type": "CITY",
        "city": "Sachin",
        "name": "Sachin",
        "latitude": 21.08,
        "longitude": 72.88
    },
    {
        "id": 53950,
        "wikiDataId": "Q2734222",
        "type": "CITY",
        "city": "Salaya",
        "name": "Salaya",
        "latitude": 22.32,
        "longitude": 69.6
    },
    {
        "id": 54617,
        "wikiDataId": "Q2228906",
        "type": "CITY",
        "city": "Sanand",
        "name": "Sanand",
        "latitude": 22.98,
        "longitude": 72.38
    },
    {
        "id": 54524,
        "wikiDataId": "Q2774237",
        "type": "CITY",
        "city": "Sankheda",
        "name": "Sankheda",
        "latitude": 22.166666666,
        "longitude": 73.583333333
    },
    {
        "id": 54772,
        "wikiDataId": "Q3107283",
        "type": "CITY",
        "city": "Sarkhej",
        "name": "Sarkhej",
        "latitude": 22.983333333,
        "longitude": 72.5
    },
    {
        "id": 54800,
        "wikiDataId": "Q2734216",
        "type": "CITY",
        "city": "Savarkundla",
        "name": "Savarkundla",
        "latitude": 21.34222,
        "longitude": 71.30633
    },
    {
        "id": 57656,
        "type": "CITY",
        "city": "Savarkundla",
        "name": "Savarkundla",
        "latitude": 21.33726,
        "longitude": 71.3035
    },
    {
        "id": 54729,
        "wikiDataId": "Q2775259",
        "type": "CITY",
        "city": "Sayla",
        "name": "Sayla",
        "latitude": 22.54925,
        "longitude": 71.48324
    },
    {
        "id": 54107,
        "type": "CITY",
        "city": "Shivrājpur",
        "name": "Shivrājpur",
        "latitude": 22.42319,
        "longitude": 73.60865
    },
    {
        "id": 54559,
        "type": "CITY",
        "city": "Shāhpur",
        "name": "Shāhpur",
        "latitude": 22.15611,
        "longitude": 70.77068
    },
    {
        "id": 53882,
        "wikiDataId": "Q2572203",
        "type": "CITY",
        "city": "Siddhpur",
        "name": "Siddhpur",
        "latitude": 23.9167,
        "longitude": 72.3833
    },
    {
        "id": 54189,
        "wikiDataId": "Q2572958",
        "type": "CITY",
        "city": "Sihor",
        "name": "Sihor",
        "latitude": 21.7,
        "longitude": 71.97
    },
    {
        "id": 54119,
        "wikiDataId": "Q1617473",
        "type": "CITY",
        "city": "Sikka",
        "name": "Sikka",
        "latitude": 22.424430555,
        "longitude": 69.842016666
    },
    {
        "id": 54053,
        "wikiDataId": "Q2773921",
        "type": "CITY",
        "city": "Sinor",
        "name": "Sinor",
        "latitude": 22,
        "longitude": 73.3
    },
    {
        "id": 54058,
        "wikiDataId": "Q7555023",
        "type": "CITY",
        "city": "Sojitra",
        "name": "Sojitra",
        "latitude": 22.55,
        "longitude": 72.71972222
    },
    {
        "id": 54233,
        "wikiDataId": "Q2734240",
        "type": "CITY",
        "city": "Songadh",
        "name": "Songadh",
        "latitude": 21.17,
        "longitude": 73.57
    },
    {
        "id": 147415,
        "wikiDataId": "Q4629",
        "type": "CITY",
        "city": "Surat",
        "name": "Surat",
        "latitude": 21.17,
        "longitude": 72.83
    },
    {
        "id": 54027,
        "wikiDataId": "Q766933",
        "type": "CITY",
        "city": "Talaja",
        "name": "Talaja",
        "latitude": 21.35,
        "longitude": 72.05
    },
    {
        "id": 54370,
        "wikiDataId": "Q7683522",
        "type": "CITY",
        "city": "Tankara",
        "name": "Tankara",
        "latitude": 22.66,
        "longitude": 70.73
    },
    {
        "id": 148006,
        "wikiDataId": "Q670165",
        "type": "ADM2",
        "city": "Tapi district",
        "name": "Tapi district",
        "latitude": 21.12,
        "longitude": 73.4
    },
    {
        "id": 53903,
        "wikiDataId": "Q2231030",
        "type": "CITY",
        "city": "Thangadh",
        "name": "Thangadh",
        "latitude": 22.566666666,
        "longitude": 71.183333333
    },
    {
        "id": 54064,
        "wikiDataId": "Q2557742",
        "type": "CITY",
        "city": "Tharad",
        "name": "Tharad",
        "latitude": 24.392563888,
        "longitude": 71.624838888
    },
    {
        "id": 54614,
        "wikiDataId": "Q2759268",
        "type": "CITY",
        "city": "Thasra",
        "name": "Thasra",
        "latitude": 22.79831,
        "longitude": 73.21174
    },
    {
        "id": 54463,
        "wikiDataId": "Q2725836",
        "type": "CITY",
        "city": "Umrala",
        "name": "Umrala",
        "latitude": 21.84353,
        "longitude": 71.80305
    },
    {
        "id": 54289,
        "wikiDataId": "Q2724380",
        "type": "CITY",
        "city": "Umreth",
        "name": "Umreth",
        "latitude": 22.7,
        "longitude": 73.12
    },
    {
        "id": 53801,
        "type": "CITY",
        "city": "Un",
        "name": "Un",
        "latitude": 23.88745,
        "longitude": 71.76975
    },
    {
        "id": 54667,
        "wikiDataId": "Q1622928",
        "type": "CITY",
        "city": "Una",
        "name": "Una",
        "latitude": 20.82,
        "longitude": 71.03
    },
    {
        "id": 54348,
        "wikiDataId": "Q767916",
        "type": "CITY",
        "city": "Unjha",
        "name": "Unjha",
        "latitude": 23.8,
        "longitude": 72.4
    },
    {
        "id": 54232,
        "wikiDataId": "Q2734950",
        "type": "CITY",
        "city": "Upleta",
        "name": "Upleta",
        "latitude": 21.73,
        "longitude": 70.28
    },
    {
        "id": 54277,
        "wikiDataId": "Q2231121",
        "type": "CITY",
        "city": "Utran",
        "name": "Utran",
        "latitude": 21.23,
        "longitude": 72.87
    },
    {
        "id": 54566,
        "wikiDataId": "Q2570726",
        "type": "CITY",
        "city": "Vadnagar",
        "name": "Vadnagar",
        "latitude": 23.785,
        "longitude": 72.64
    },
    {
        "id": 54362,
        "wikiDataId": "Q11909",
        "type": "CITY",
        "city": "Vadodara",
        "name": "Vadodara",
        "latitude": 22.3,
        "longitude": 73.2
    },
    {
        "id": 54613,
        "wikiDataId": "Q1935461",
        "type": "CITY",
        "city": "Vaghodia INA",
        "name": "Vaghodia INA",
        "latitude": 22.3,
        "longitude": 73.3833
    },
    {
        "id": 53900,
        "wikiDataId": "Q2234110",
        "type": "CITY",
        "city": "Vallabh Vidyanagar",
        "name": "Vallabh Vidyanagar",
        "latitude": 22.33,
        "longitude": 72.55
    },
    {
        "id": 53987,
        "wikiDataId": "Q1534153",
        "type": "CITY",
        "city": "Vallabhipur",
        "name": "Vallabhipur",
        "latitude": 21.8878,
        "longitude": 71.8795
    },
    {
        "id": 147405,
        "wikiDataId": "Q302654",
        "type": "CITY",
        "city": "Valsad",
        "name": "Valsad",
        "latitude": 20.633333333,
        "longitude": 72.933333333
    },
    {
        "id": 3184833,
        "wikiDataId": "Q1946743",
        "type": "ADM2",
        "city": "Valsad district",
        "name": "Valsad district",
        "latitude": 20.61005,
        "longitude": 72.925872222
    },
    {
        "id": 54447,
        "wikiDataId": "Q2724780",
        "type": "CITY",
        "city": "Vansda",
        "name": "Vansda",
        "latitude": 20.45,
        "longitude": 73.22
    },
    {
        "id": 57528,
        "wikiDataId": "Q2087696",
        "type": "CITY",
        "city": "Vapi",
        "name": "Vapi",
        "latitude": 20.366666666,
        "longitude": 72.9
    },
    {
        "id": 54461,
        "wikiDataId": "Q2738371",
        "type": "CITY",
        "city": "Vartej",
        "name": "Vartej",
        "latitude": 21.73,
        "longitude": 72.07
    },
    {
        "id": 54430,
        "wikiDataId": "Q2772372",
        "type": "CITY",
        "city": "Vaso",
        "name": "Vaso",
        "latitude": 22.66079,
        "longitude": 72.75519
    },
    {
        "id": 54598,
        "wikiDataId": "Q2558274",
        "type": "CITY",
        "city": "Vejalpur",
        "name": "Vejalpur",
        "latitude": 22.68,
        "longitude": 73.57
    },
    {
        "id": 53907,
        "wikiDataId": "Q518791",
        "type": "CITY",
        "city": "Veraval",
        "name": "Veraval",
        "latitude": 20.9,
        "longitude": 70.37
    },
    {
        "id": 54029,
        "wikiDataId": "Q2234286",
        "type": "CITY",
        "city": "Vijapur",
        "name": "Vijapur",
        "latitude": 23.57,
        "longitude": 72.75
    },
    {
        "id": 54241,
        "wikiDataId": "Q2773382",
        "type": "CITY",
        "city": "Vinchhiya",
        "name": "Vinchhiya",
        "latitude": 22.21027,
        "longitude": 71.37967
    },
    {
        "id": 54318,
        "type": "CITY",
        "city": "Virpur",
        "name": "Virpur",
        "latitude": 23.1892,
        "longitude": 73.47987
    },
    {
        "id": 53828,
        "wikiDataId": "Q2452720",
        "type": "CITY",
        "city": "Visavadar",
        "name": "Visavadar",
        "latitude": 21.38,
        "longitude": 70.68
    },
    {
        "id": 54615,
        "wikiDataId": "Q2452712",
        "type": "CITY",
        "city": "Visnagar",
        "name": "Visnagar",
        "latitude": 23.7,
        "longitude": 72.55
    },
    {
        "id": 54167,
        "wikiDataId": "Q1964842",
        "type": "CITY",
        "city": "Vyara",
        "name": "Vyara",
        "latitude": 21.12,
        "longitude": 73.4
    },
    {
        "id": 54048,
        "wikiDataId": "Q2771789",
        "type": "CITY",
        "city": "Wadhai",
        "name": "Wadhai",
        "latitude": 20.766666666,
        "longitude": 73.483333333
    },
    {
        "id": 54532,
        "wikiDataId": "Q1023682",
        "type": "CITY",
        "city": "Wadhwan",
        "name": "Wadhwan",
        "latitude": 22.7,
        "longitude": 71.683333333
    },
    {
        "id": 54410,
        "wikiDataId": "Q2006496",
        "type": "CITY",
        "city": "Wankaner",
        "name": "Wankaner",
        "latitude": 22.62,
        "longitude": 70.93
    }
]
