[
    {
        "id": 57469,
        "type": "CITY",
        "city": "Adampur",
        "name": "Adampur",
        "latitude": 31.43224,
        "longitude": 75.71484
    },
    {
        "id": 57402,
        "wikiDataId": "Q1949069",
        "type": "CITY",
        "city": "Ajitgarh",
        "name": "Ajitgarh",
        "latitude": 30.78,
        "longitude": 76.69
    },
    {
        "id": 57601,
        "wikiDataId": "Q585651",
        "type": "CITY",
        "city": "Ajnala",
        "name": "Ajnala",
        "latitude": 31.84,
        "longitude": 74.76
    },
    {
        "id": 56929,
        "wikiDataId": "Q585750",
        "type": "CITY",
        "city": "Akalgarh",
        "name": "Akalgarh",
        "latitude": 29.819052777,
        "longitude": 75.884627777
    },
    {
        "id": 57214,
        "wikiDataId": "Q583873",
        "type": "CITY",
        "city": "Alawalpur",
        "name": "Alawalpur",
        "latitude": 31.43,
        "longitude": 75.65
    },
    {
        "id": 57707,
        "wikiDataId": "Q582278",
        "type": "CITY",
        "city": "Amloh",
        "name": "Amloh",
        "latitude": 30.61,
        "longitude": 76.23
    },
    {
        "id": 147726,
        "wikiDataId": "Q48403",
        "type": "CITY",
        "city": "Amritsar",
        "name": "Amritsar",
        "latitude": 31.616666666,
        "longitude": 74.85
    },
    {
        "id": 56982,
        "wikiDataId": "Q589664",
        "type": "CITY",
        "city": "Anandpur Sahib",
        "name": "Anandpur Sahib",
        "latitude": 31.23,
        "longitude": 76.5
    },
    {
        "id": 56915,
        "wikiDataId": "Q585375",
        "type": "CITY",
        "city": "Badhni Kalan",
        "name": "Badhni Kalan",
        "latitude": 30.6833,
        "longitude": 75.2833
    },
    {
        "id": 57139,
        "wikiDataId": "Q625714",
        "type": "CITY",
        "city": "Bagha Purana",
        "name": "Bagha Purana",
        "latitude": 30.68809,
        "longitude": 75.09838
    },
    {
        "id": 57516,
        "wikiDataId": "Q622831",
        "type": "CITY",
        "city": "Bakloh",
        "name": "Bakloh",
        "latitude": 32.465488888,
        "longitude": 75.925622222
    },
    {
        "id": 57695,
        "wikiDataId": "Q3634124",
        "type": "CITY",
        "city": "Banga, India",
        "name": "Banga, India",
        "latitude": 31.19,
        "longitude": 75.99
    },
    {
        "id": 57064,
        "type": "CITY",
        "city": "Banūr",
        "name": "Banūr",
        "latitude": 30.55407,
        "longitude": 76.71948
    },
    {
        "id": 56962,
        "wikiDataId": "Q711996",
        "type": "CITY",
        "city": "Barnala",
        "name": "Barnala",
        "latitude": 30.37,
        "longitude": 75.54
    },
    {
        "id": 57522,
        "wikiDataId": "Q709254",
        "type": "CITY",
        "city": "Batala",
        "name": "Batala",
        "latitude": 31.8186,
        "longitude": 75.2028
    },
    {
        "id": 57657,
        "wikiDataId": "Q760357",
        "type": "CITY",
        "city": "Begowal",
        "name": "Begowal",
        "latitude": 31.6125,
        "longitude": 75.519444444
    },
    {
        "id": 57037,
        "wikiDataId": "Q757840",
        "type": "CITY",
        "city": "Bhadaur",
        "name": "Bhadaur",
        "latitude": 30.476388888,
        "longitude": 75.330555555
    },
    {
        "id": 147684,
        "wikiDataId": "Q33424787",
        "type": "CITY",
        "city": "Bhatinda",
        "name": "Bhatinda",
        "latitude": 30.20747,
        "longitude": 74.93893
    },
    {
        "id": 57487,
        "wikiDataId": "Q760176",
        "type": "CITY",
        "city": "Bhawanigarh",
        "name": "Bhawanigarh",
        "latitude": 30.27,
        "longitude": 76.04
    },
    {
        "id": 57771,
        "wikiDataId": "Q2546717",
        "type": "CITY",
        "city": "Bhikhi",
        "name": "Bhikhi",
        "latitude": 30.07,
        "longitude": 75.53
    },
    {
        "id": 57608,
        "wikiDataId": "Q796770",
        "type": "CITY",
        "city": "Bhogpur",
        "name": "Bhogpur",
        "latitude": 31.55,
        "longitude": 75.63
    },
    {
        "id": 57713,
        "wikiDataId": "Q26791353",
        "type": "CITY",
        "city": "Bholath",
        "name": "Bholath",
        "latitude": 31.542777777,
        "longitude": 75.5075
    },
    {
        "id": 56607,
        "wikiDataId": "Q783187",
        "type": "CITY",
        "city": "Budhlada",
        "name": "Budhlada",
        "latitude": 29.93,
        "longitude": 75.57
    },
    {
        "id": 57209,
        "type": "CITY",
        "city": "Bālāchor",
        "name": "Bālāchor",
        "latitude": 31.06062,
        "longitude": 76.30166
    },
    {
        "id": 57407,
        "type": "CITY",
        "city": "Chīma",
        "name": "Chīma",
        "latitude": 30.6854,
        "longitude": 76.08643
    },
    {
        "id": 56198,
        "wikiDataId": "Q1190082",
        "type": "CITY",
        "city": "Dasuya",
        "name": "Dasuya",
        "latitude": 31.82,
        "longitude": 75.66
    },
    {
        "id": 56397,
        "wikiDataId": "Q1190222",
        "type": "CITY",
        "city": "Dera Baba Nanak",
        "name": "Dera Baba Nanak",
        "latitude": 32.0333,
        "longitude": 75.0167
    },
    {
        "id": 57295,
        "wikiDataId": "Q1191548",
        "type": "CITY",
        "city": "Dera Bassi",
        "name": "Dera Bassi",
        "latitude": 30.5872,
        "longitude": 76.8428
    },
    {
        "id": 56018,
        "wikiDataId": "Q1265949",
        "type": "CITY",
        "city": "Dhanaula",
        "name": "Dhanaula",
        "latitude": 30.28,
        "longitude": 75.58
    },
    {
        "id": 56145,
        "wikiDataId": "Q1258759",
        "type": "CITY",
        "city": "Dhilwan",
        "name": "Dhilwan",
        "latitude": 31.52,
        "longitude": 75.35
    },
    {
        "id": 56751,
        "wikiDataId": "Q1259563",
        "type": "CITY",
        "city": "Dhuri",
        "name": "Dhuri",
        "latitude": 30.37,
        "longitude": 75.87
    },
    {
        "id": 56475,
        "type": "CITY",
        "city": "Dhāriwāl",
        "name": "Dhāriwāl",
        "latitude": 31.95616,
        "longitude": 75.32386
    },
    {
        "id": 3042433,
        "wikiDataId": "Q31788667",
        "type": "CITY",
        "city": "Dhūdi",
        "name": "Dhūdi",
        "latitude": 30.69636,
        "longitude": 74.85246
    },
    {
        "id": 56548,
        "wikiDataId": "Q1258159",
        "type": "CITY",
        "city": "Dina Nagar",
        "name": "Dina Nagar",
        "latitude": 32.15,
        "longitude": 75.4667
    },
    {
        "id": 56526,
        "wikiDataId": "Q1257699",
        "type": "CITY",
        "city": "Dirba",
        "name": "Dirba",
        "latitude": 30.07,
        "longitude": 75.98
    },
    {
        "id": 56604,
        "wikiDataId": "Q1193432",
        "type": "CITY",
        "city": "Doraha",
        "name": "Doraha",
        "latitude": 30.816666666,
        "longitude": 76.016666666
    },
    {
        "id": 55996,
        "wikiDataId": "Q1780350",
        "type": "CITY",
        "city": "Faridkot",
        "name": "Faridkot",
        "latitude": 30.67,
        "longitude": 74.76
    },
    {
        "id": 56755,
        "wikiDataId": "Q1524046",
        "type": "CITY",
        "city": "Fatehgarh Churian",
        "name": "Fatehgarh Churian",
        "latitude": 31.8644,
        "longitude": 74.9511
    },
    {
        "id": 147836,
        "wikiDataId": "Q172485",
        "type": "ADM2",
        "city": "Fatehgarh Sahib District",
        "name": "Fatehgarh Sahib District",
        "latitude": 30.38,
        "longitude": 76.23
    },
    {
        "id": 56720,
        "wikiDataId": "Q1525269",
        "type": "CITY",
        "city": "Fazilka",
        "name": "Fazilka",
        "latitude": 30.403,
        "longitude": 74.025
    },
    {
        "id": 56175,
        "wikiDataId": "Q652098",
        "type": "CITY",
        "city": "Firozpur",
        "name": "Firozpur",
        "latitude": 30.9166,
        "longitude": 74.6
    },
    {
        "id": 3100393,
        "wikiDataId": "Q172385",
        "type": "ADM2",
        "city": "Firozpur District",
        "name": "Firozpur District",
        "latitude": 30.94,
        "longitude": 74.62
    },
    {
        "id": 56442,
        "wikiDataId": "Q1657028",
        "type": "CITY",
        "city": "Gardhiwala",
        "name": "Gardhiwala",
        "latitude": 31.7325,
        "longitude": 75.7506
    },
    {
        "id": 56144,
        "wikiDataId": "Q1655903",
        "type": "CITY",
        "city": "Garhshanker",
        "name": "Garhshanker",
        "latitude": 31.2167,
        "longitude": 76.1333
    },
    {
        "id": 55923,
        "wikiDataId": "Q1656935",
        "type": "CITY",
        "city": "Ghanaur",
        "name": "Ghanaur",
        "latitude": 30.33,
        "longitude": 76.61
    },
    {
        "id": 56292,
        "wikiDataId": "Q1708540",
        "type": "CITY",
        "city": "Giddarbaha",
        "name": "Giddarbaha",
        "latitude": 30.2,
        "longitude": 74.67
    },
    {
        "id": 3066666,
        "wikiDataId": "Q146708",
        "type": "ADM2",
        "city": "Gurdaspur district",
        "name": "Gurdaspur district",
        "latitude": 31.916666666,
        "longitude": 75.25
    },
    {
        "id": 55781,
        "wikiDataId": "Q1706501",
        "type": "CITY",
        "city": "Guru Har Sahai",
        "name": "Guru Har Sahai",
        "latitude": 30.717047222,
        "longitude": 74.416383333
    },
    {
        "id": 56509,
        "wikiDataId": "Q1706366",
        "type": "CITY",
        "city": "Hariana",
        "name": "Hariana",
        "latitude": 31.64,
        "longitude": 75.84
    },
    {
        "id": 56132,
        "wikiDataId": "Q928349",
        "type": "CITY",
        "city": "Hoshiarpur",
        "name": "Hoshiarpur",
        "latitude": 31.532222222,
        "longitude": 75.917222222
    },
    {
        "id": 56692,
        "type": "CITY",
        "city": "Hājipur",
        "name": "Hājipur",
        "latitude": 31.97714,
        "longitude": 75.75438
    },
    {
        "id": 2988887,
        "wikiDataId": "Q25623605",
        "type": "CITY",
        "city": "Ishanpur",
        "name": "Ishanpur",
        "latitude": 30.63929,
        "longitude": 76.11761
    },
    {
        "id": 56241,
        "wikiDataId": "Q2016667",
        "type": "CITY",
        "city": "Jagraon",
        "name": "Jagraon",
        "latitude": 30.78,
        "longitude": 75.48
    },
    {
        "id": 55912,
        "wikiDataId": "Q26788839",
        "type": "CITY",
        "city": "Jaito",
        "name": "Jaito",
        "latitude": 30.451388888,
        "longitude": 74.891944444
    },
    {
        "id": 56694,
        "wikiDataId": "Q2016781",
        "type": "ADM2",
        "city": "Jalalabad",
        "name": "Jalalabad",
        "latitude": 30.62,
        "longitude": 74.25
    },
    {
        "id": 147579,
        "wikiDataId": "Q33377",
        "type": "CITY",
        "city": "Jalandhar",
        "name": "Jalandhar",
        "latitude": 31.325555555,
        "longitude": 75.579166666
    },
    {
        "id": 56538,
        "wikiDataId": "Q532365",
        "type": "CITY",
        "city": "Jandiala",
        "name": "Jandiala",
        "latitude": 31.17,
        "longitude": 75.62
    },
    {
        "id": 56285,
        "wikiDataId": "Q3806985",
        "type": "CITY",
        "city": "Jandiala Guru",
        "name": "Jandiala Guru",
        "latitude": 31.561388888,
        "longitude": 75.026666666
    },
    {
        "id": 56346,
        "wikiDataId": "Q2625405",
        "type": "CITY",
        "city": "Kalanaur, Punjab",
        "name": "Kalanaur, Punjab",
        "latitude": 32.02,
        "longitude": 75.15
    },
    {
        "id": 56620,
        "wikiDataId": "Q781354",
        "type": "CITY",
        "city": "Kapurthala",
        "name": "Kapurthala",
        "latitude": 31.38,
        "longitude": 75.38
    },
    {
        "id": 55888,
        "wikiDataId": "Q3813164",
        "type": "CITY",
        "city": "Kartarpur",
        "name": "Kartarpur",
        "latitude": 31.44,
        "longitude": 75.5
    },
    {
        "id": 55637,
        "wikiDataId": "Q542614",
        "type": "CITY",
        "city": "Khamanon",
        "name": "Khamanon",
        "latitude": 30.82,
        "longitude": 76.35
    },
    {
        "id": 55372,
        "wikiDataId": "Q1101873",
        "type": "CITY",
        "city": "Khanna",
        "name": "Khanna",
        "latitude": 30.7,
        "longitude": 76.22
    },
    {
        "id": 55461,
        "type": "CITY",
        "city": "Kharar",
        "name": "Kharar",
        "latitude": 30.74632,
        "longitude": 76.64689
    },
    {
        "id": 55174,
        "wikiDataId": "Q581774",
        "type": "CITY",
        "city": "Khemkaran",
        "name": "Khemkaran",
        "latitude": 31.16,
        "longitude": 74.66
    },
    {
        "id": 55381,
        "type": "CITY",
        "city": "Kot Īsa Khān",
        "name": "Kot Īsa Khān",
        "latitude": 30.94659,
        "longitude": 75.1378
    },
    {
        "id": 57358,
        "wikiDataId": "Q2235570",
        "type": "CITY",
        "city": "Kotkapura",
        "name": "Kotkapura",
        "latitude": 30.5833,
        "longitude": 74.9
    },
    {
        "id": 55578,
        "type": "CITY",
        "city": "Laungowāl",
        "name": "Laungowāl",
        "latitude": 30.19393,
        "longitude": 75.68089
    },
    {
        "id": 54887,
        "wikiDataId": "Q200123",
        "type": "CITY",
        "city": "Ludhiana",
        "name": "Ludhiana",
        "latitude": 30.908333333,
        "longitude": 75.848611111
    },
    {
        "id": 55540,
        "wikiDataId": "Q2241537",
        "type": "CITY",
        "city": "Machhiwara",
        "name": "Machhiwara",
        "latitude": 30.91,
        "longitude": 76.2
    },
    {
        "id": 54976,
        "wikiDataId": "Q584810",
        "type": "CITY",
        "city": "Majitha",
        "name": "Majitha",
        "latitude": 31.76,
        "longitude": 74.95
    },
    {
        "id": 55636,
        "wikiDataId": "Q2444472",
        "type": "CITY",
        "city": "Makhu",
        "name": "Makhu",
        "latitude": 31.1,
        "longitude": 75
    },
    {
        "id": 55125,
        "wikiDataId": "Q26783794",
        "type": "CITY",
        "city": "Malaut",
        "name": "Malaut",
        "latitude": 30.211111111,
        "longitude": 74.481666666
    },
    {
        "id": 55454,
        "wikiDataId": "Q1470987",
        "type": "CITY",
        "city": "Malerkotla",
        "name": "Malerkotla",
        "latitude": 30.5167,
        "longitude": 75.8833
    },
    {
        "id": 55506,
        "wikiDataId": "Q2573916",
        "type": "CITY",
        "city": "Mansa",
        "name": "Mansa",
        "latitude": 29.98,
        "longitude": 75.38
    },
    {
        "id": 55207,
        "wikiDataId": "Q3852404",
        "type": "CITY",
        "city": "Maur Mandi",
        "name": "Maur Mandi",
        "latitude": 30.08,
        "longitude": 75.25
    },
    {
        "id": 147874,
        "wikiDataId": "Q259030",
        "type": "CITY",
        "city": "Moga, Punjab",
        "name": "Moga, Punjab",
        "latitude": 30.8,
        "longitude": 75.17
    },
    {
        "id": 147863,
        "wikiDataId": "Q2037672",
        "type": "ADM2",
        "city": "Mohali district",
        "name": "Mohali district",
        "latitude": 30.69,
        "longitude": 76.72
    },
    {
        "id": 54897,
        "wikiDataId": "Q1748062",
        "type": "CITY",
        "city": "Morinda",
        "name": "Morinda",
        "latitude": 30.79,
        "longitude": 76.5
    },
    {
        "id": 55263,
        "wikiDataId": "Q2442516",
        "type": "CITY",
        "city": "Mukerian",
        "name": "Mukerian",
        "latitude": 31.95,
        "longitude": 75.62
    },
    {
        "id": 54950,
        "wikiDataId": "Q1023691",
        "type": "CITY",
        "city": "Nabha",
        "name": "Nabha",
        "latitude": 30.37,
        "longitude": 76.15
    },
    {
        "id": 55552,
        "wikiDataId": "Q2546657",
        "type": "CITY",
        "city": "Nakodar",
        "name": "Nakodar",
        "latitude": 31.13,
        "longitude": 75.47
    },
    {
        "id": 55146,
        "wikiDataId": "Q2311518",
        "type": "CITY",
        "city": "Nangal",
        "name": "Nangal",
        "latitude": 31.37,
        "longitude": 76.38
    },
    {
        "id": 55301,
        "wikiDataId": "Q10938567",
        "type": "CITY",
        "city": "Nurmahal",
        "name": "Nurmahal",
        "latitude": 31.0964,
        "longitude": 75.5967
    },
    {
        "id": 55626,
        "type": "CITY",
        "city": "Nūrpur Kalān",
        "name": "Nūrpur Kalān",
        "latitude": 31.16667,
        "longitude": 76.48333
    },
    {
        "id": 55734,
        "wikiDataId": "Q1647167",
        "type": "CITY",
        "city": "Pathankot",
        "name": "Pathankot",
        "latitude": 32.268888888,
        "longitude": 75.649722222
    },
    {
        "id": 55465,
        "wikiDataId": "Q208162",
        "type": "CITY",
        "city": "Patiala",
        "name": "Patiala",
        "latitude": 30.566666666,
        "longitude": 76.633333333
    },
    {
        "id": 55272,
        "wikiDataId": "Q942642",
        "type": "CITY",
        "city": "Patti, Punjab",
        "name": "Patti, Punjab",
        "latitude": 31.28,
        "longitude": 74.86
    },
    {
        "id": 55476,
        "wikiDataId": "Q338696",
        "type": "CITY",
        "city": "Phagwara",
        "name": "Phagwara",
        "latitude": 31.13,
        "longitude": 75.47
    },
    {
        "id": 55560,
        "wikiDataId": "Q2719352",
        "type": "CITY",
        "city": "Phillaur",
        "name": "Phillaur",
        "latitude": 31.03,
        "longitude": 75.78
    },
    {
        "id": 54479,
        "wikiDataId": "Q1026436",
        "type": "CITY",
        "city": "Qadian",
        "name": "Qadian",
        "latitude": 31.82222222,
        "longitude": 75.37638889
    },
    {
        "id": 54673,
        "wikiDataId": "Q2545885",
        "type": "CITY",
        "city": "Rahon",
        "name": "Rahon",
        "latitude": 31.05,
        "longitude": 76.12
    },
    {
        "id": 54205,
        "wikiDataId": "Q2442782",
        "type": "CITY",
        "city": "Raikot",
        "name": "Raikot",
        "latitude": 30.65,
        "longitude": 75.6
    },
    {
        "id": 53833,
        "wikiDataId": "Q387676",
        "type": "CITY",
        "city": "Rajasansi",
        "name": "Rajasansi",
        "latitude": 31.7245,
        "longitude": 74.786
    },
    {
        "id": 54349,
        "wikiDataId": "Q2546585",
        "type": "CITY",
        "city": "Rajpura",
        "name": "Rajpura",
        "latitude": 30.48,
        "longitude": 76.6
    },
    {
        "id": 54671,
        "wikiDataId": "Q2341875",
        "type": "CITY",
        "city": "Rupnagar",
        "name": "Rupnagar",
        "latitude": 30.966388888,
        "longitude": 76.533055555
    },
    {
        "id": 54095,
        "type": "CITY",
        "city": "Rām Dās",
        "name": "Rām Dās",
        "latitude": 31.96739,
        "longitude": 74.9087
    },
    {
        "id": 54594,
        "type": "CITY",
        "city": "Rāmpura",
        "name": "Rāmpura",
        "latitude": 30.256,
        "longitude": 75.24116
    },
    {
        "id": 54054,
        "wikiDataId": "Q2545261",
        "type": "CITY",
        "city": "Samrala",
        "name": "Samrala",
        "latitude": 30.84,
        "longitude": 76.19
    },
    {
        "id": 54308,
        "wikiDataId": "Q2545523",
        "type": "CITY",
        "city": "Sanaur",
        "name": "Sanaur",
        "latitude": 30.3,
        "longitude": 76.46
    },
    {
        "id": 54211,
        "wikiDataId": "Q2441398",
        "type": "CITY",
        "city": "Sangrur",
        "name": "Sangrur",
        "latitude": 30.233333333,
        "longitude": 75.833333333
    },
    {
        "id": 54418,
        "wikiDataId": "Q2546476",
        "type": "CITY",
        "city": "Sardulgarh",
        "name": "Sardulgarh",
        "latitude": 29.697,
        "longitude": 75.238752777
    },
    {
        "id": 55222,
        "wikiDataId": "Q202710",
        "type": "ADM2",
        "city": "Shahid Bhagat Singh Nagar District",
        "name": "Shahid Bhagat Singh Nagar District",
        "latitude": 31.8,
        "longitude": 76.7
    },
    {
        "id": 54749,
        "wikiDataId": "Q2545272",
        "type": "CITY",
        "city": "Shahkot",
        "name": "Shahkot",
        "latitude": 31.08,
        "longitude": 75.34
    },
    {
        "id": 54266,
        "type": "CITY",
        "city": "Shām Churāsi",
        "name": "Shām Churāsi",
        "latitude": 31.50028,
        "longitude": 75.74917
    },
    {
        "id": 54433,
        "wikiDataId": "Q2672955",
        "type": "CITY",
        "city": "Sirhind-Fategarh",
        "name": "Sirhind-Fategarh",
        "latitude": 30.366666666,
        "longitude": 76.233333333
    },
    {
        "id": 55574,
        "wikiDataId": "Q2087676",
        "type": "CITY",
        "city": "Sri Muktsar Sahib",
        "name": "Sri Muktsar Sahib",
        "latitude": 30.475,
        "longitude": 74.515
    },
    {
        "id": 53910,
        "wikiDataId": "Q2545249",
        "type": "CITY",
        "city": "Sultanpur Lodhi",
        "name": "Sultanpur Lodhi",
        "latitude": 31.213177777,
        "longitude": 75.198497222
    },
    {
        "id": 54515,
        "wikiDataId": "Q512825",
        "type": "CITY",
        "city": "Sunam",
        "name": "Sunam",
        "latitude": 30.13,
        "longitude": 75.8
    },
    {
        "id": 54010,
        "wikiDataId": "Q2545086",
        "type": "ADM2",
        "city": "Talwandi Bhai",
        "name": "Talwandi Bhai",
        "latitude": 30.85584,
        "longitude": 74.92979
    },
    {
        "id": 54328,
        "wikiDataId": "Q2465707",
        "type": "CITY",
        "city": "Talwara",
        "name": "Talwara",
        "latitude": 31.95,
        "longitude": 75.87
    },
    {
        "id": 53856,
        "wikiDataId": "Q2341728",
        "type": "CITY",
        "city": "Tarn Taran Sahib",
        "name": "Tarn Taran Sahib",
        "latitude": 31.4491,
        "longitude": 74.9205
    },
    {
        "id": 57767,
        "wikiDataId": "Q2201222",
        "type": "CITY",
        "city": "Zira",
        "name": "Zira",
        "latitude": 30.97,
        "longitude": 74.99
    }
]
