[
    {
        "id": 155060,
        "wikiDataId": "Q1658581",
        "type": "CITY",
        "city": "Acatlán de Juárez Municipality",
        "name": "Acatlán de Juárez Municipality",
        "latitude": 20.424166666,
        "longitude": -103.601388888
    },
    {
        "id": 2993889,
        "wikiDataId": "Q20241138",
        "type": "CITY",
        "city": "Acueducto Fraccionamiento",
        "name": "Acueducto Fraccionamiento",
        "latitude": 19.47917,
        "longitude": -103.31806
    },
    {
        "id": 3034815,
        "wikiDataId": "Q20241145",
        "type": "CITY",
        "city": "Agua Bermeja",
        "name": "Agua Bermeja",
        "latitude": 20.6675,
        "longitude": -102.97056
    },
    {
        "id": 3076520,
        "wikiDataId": "Q20250814",
        "type": "CITY",
        "city": "Agua Caliente",
        "name": "Agua Caliente",
        "latitude": 21.7725,
        "longitude": -103.78806
    },
    {
        "id": 3075471,
        "wikiDataId": "Q20217847",
        "type": "CITY",
        "city": "Agua Colorada",
        "name": "Agua Colorada",
        "latitude": 20.94694,
        "longitude": -103.20611
    },
    {
        "id": 2981825,
        "wikiDataId": "Q20131482",
        "type": "CITY",
        "city": "Agua Delgada",
        "name": "Agua Delgada",
        "latitude": 20.16222,
        "longitude": -103.8275
    },
    {
        "id": 2984802,
        "wikiDataId": "Q20131762",
        "type": "CITY",
        "city": "Agua Escondida",
        "name": "Agua Escondida",
        "latitude": 20.86083,
        "longitude": -102.725
    },
    {
        "id": 3089024,
        "wikiDataId": "Q20131849",
        "type": "CITY",
        "city": "Agua Fría",
        "name": "Agua Fría",
        "latitude": 20.58778,
        "longitude": -102.55833
    },
    {
        "id": 3026450,
        "wikiDataId": "Q20132183",
        "type": "CITY",
        "city": "Agua Nueva",
        "name": "Agua Nueva",
        "latitude": 20.67889,
        "longitude": -102.45111
    },
    {
        "id": 3026450,
        "wikiDataId": "Q20132183",
        "type": "CITY",
        "city": "Agua Nueva",
        "name": "Agua Nueva",
        "latitude": 20.67889,
        "longitude": -102.45111
    },
    {
        "id": 78108,
        "type": "CITY",
        "city": "Agua Paloma",
        "name": "Agua Paloma",
        "latitude": 19.67799,
        "longitude": -105.18473
    },
    {
        "id": 3011258,
        "wikiDataId": "Q20132269",
        "type": "CITY",
        "city": "Agua Prieta",
        "name": "Agua Prieta",
        "latitude": 20.79361,
        "longitude": -102.89194
    },
    {
        "id": 3002254,
        "wikiDataId": "Q20241177",
        "type": "CITY",
        "city": "Agua Rica",
        "name": "Agua Rica",
        "latitude": 20.83639,
        "longitude": -103.18778
    },
    {
        "id": 3006137,
        "wikiDataId": "Q20132348",
        "type": "CITY",
        "city": "Agua Salada",
        "name": "Agua Salada",
        "latitude": 19.73111,
        "longitude": -103.19639
    },
    {
        "id": 3031221,
        "wikiDataId": "Q20251092",
        "type": "CITY",
        "city": "Agua Zarca",
        "name": "Agua Zarca",
        "latitude": 21.85035,
        "longitude": -103.49102
    },
    {
        "id": 78999,
        "wikiDataId": "Q1658614",
        "type": "CITY",
        "city": "Ahualulco de Mercado Municipality",
        "name": "Ahualulco de Mercado Municipality",
        "latitude": 20.616666666,
        "longitude": -103.866666666
    },
    {
        "id": 79594,
        "type": "CITY",
        "city": "Ahuatlán",
        "name": "Ahuatlán",
        "latitude": 20.41836,
        "longitude": -102.88759
    },
    {
        "id": 3054661,
        "wikiDataId": "Q20133589",
        "type": "CITY",
        "city": "Ahuetita de Abajo",
        "name": "Ahuetita de Abajo",
        "latitude": 21.41972,
        "longitude": -102.65278
    },
    {
        "id": 79105,
        "type": "CITY",
        "city": "Ahuisculco",
        "name": "Ahuisculco",
        "latitude": 20.56875,
        "longitude": -103.70313
    },
    {
        "id": 79726,
        "wikiDataId": "Q2775275",
        "type": "CITY",
        "city": "Ajijic",
        "name": "Ajijic",
        "latitude": 20.299444444,
        "longitude": -103.258055555
    },
    {
        "id": 3060709,
        "wikiDataId": "Q20134381",
        "type": "CITY",
        "city": "Alfredo V. Bonfil",
        "name": "Alfredo V. Bonfil",
        "latitude": 20.66278,
        "longitude": -103.72278
    },
    {
        "id": 79499,
        "wikiDataId": "Q20241197",
        "type": "CITY",
        "city": "Alista",
        "name": "Alista",
        "latitude": 19.63401,
        "longitude": -103.7889
    },
    {
        "id": 78557,
        "type": "CITY",
        "city": "Allende",
        "name": "Allende",
        "latitude": 20.72054,
        "longitude": -102.08557
    },
    {
        "id": 2990631,
        "wikiDataId": "Q4736200",
        "type": "CITY",
        "city": "Altavista de Ramos",
        "name": "Altavista de Ramos",
        "latitude": 20.43333333,
        "longitude": -104.01666667
    },
    {
        "id": 79856,
        "wikiDataId": "Q20135196",
        "type": "CITY",
        "city": "Altus Bosques",
        "name": "Altus Bosques",
        "latitude": 20.56806,
        "longitude": -103.3725
    },
    {
        "id": 3059420,
        "wikiDataId": "Q20135328",
        "type": "CITY",
        "city": "Amacuautitlán",
        "name": "Amacuautitlán",
        "latitude": 19.81619,
        "longitude": -104.02078
    },
    {
        "id": 155333,
        "wikiDataId": "Q1656282",
        "type": "CITY",
        "city": "Amacueca Municipality",
        "name": "Amacueca Municipality",
        "latitude": 19.933333333,
        "longitude": -103.066666666
    },
    {
        "id": 3060836,
        "wikiDataId": "Q20217896",
        "type": "CITY",
        "city": "Amajaquillo",
        "name": "Amajaquillo",
        "latitude": 20.9275,
        "longitude": -104.60028
    },
    {
        "id": 3025188,
        "wikiDataId": "Q20135448",
        "type": "CITY",
        "city": "Amatanejo",
        "name": "Amatanejo",
        "latitude": 20.95241,
        "longitude": -104.73775
    },
    {
        "id": 79359,
        "wikiDataId": "Q2841366",
        "type": "CITY",
        "city": "Amatitán",
        "name": "Amatitán",
        "latitude": 20.833333333,
        "longitude": -103.716666666
    },
    {
        "id": 2980220,
        "wikiDataId": "Q20217900",
        "type": "CITY",
        "city": "Ambrosio",
        "name": "Ambrosio",
        "latitude": 20.27605,
        "longitude": -103.97092
    },
    {
        "id": 77389,
        "wikiDataId": "Q3175338",
        "type": "CITY",
        "city": "Ameca",
        "name": "Ameca",
        "latitude": 20.67,
        "longitude": -103.7
    },
    {
        "id": 79683,
        "wikiDataId": "Q2842525",
        "type": "CITY",
        "city": "Ameca Municipality",
        "name": "Ameca Municipality",
        "latitude": 20.5483137,
        "longitude": -104.0475023
    },
    {
        "id": 3012043,
        "wikiDataId": "Q20241208",
        "type": "CITY",
        "city": "Analco",
        "name": "Analco",
        "latitude": 21.385,
        "longitude": -102.63417
    },
    {
        "id": 3081964,
        "wikiDataId": "Q20241213",
        "type": "CITY",
        "city": "Anoca",
        "name": "Anoca",
        "latitude": 20.09222,
        "longitude": -103.54556
    },
    {
        "id": 79393,
        "wikiDataId": "Q20217922",
        "type": "CITY",
        "city": "Antonio Escobedo",
        "name": "Antonio Escobedo",
        "latitude": 20.8,
        "longitude": -104.01667
    },
    {
        "id": 2989273,
        "wikiDataId": "Q20241217",
        "type": "CITY",
        "city": "Apazulco",
        "name": "Apazulco",
        "latitude": 19.36972,
        "longitude": -104.87889
    },
    {
        "id": 3053669,
        "wikiDataId": "Q20241219",
        "type": "CITY",
        "city": "Apozol de Gutiérrez",
        "name": "Apozol de Gutiérrez",
        "latitude": 21.01778,
        "longitude": -102.82556
    },
    {
        "id": 2970023,
        "wikiDataId": "Q20136995",
        "type": "CITY",
        "city": "Aquiles Serdán",
        "name": "Aquiles Serdán",
        "latitude": 20.30019,
        "longitude": -105.6223
    },
    {
        "id": 79137,
        "wikiDataId": "Q20217932",
        "type": "CITY",
        "city": "Arandas",
        "name": "Arandas",
        "latitude": 20.70519,
        "longitude": -102.34635
    },
    {
        "id": 3083145,
        "wikiDataId": "Q20241247",
        "type": "CITY",
        "city": "Arroyo Hondo",
        "name": "Arroyo Hondo",
        "latitude": 19.68222,
        "longitude": -103.3
    },
    {
        "id": 78780,
        "type": "CITY",
        "city": "Atacco",
        "name": "Atacco",
        "latitude": 19.92662,
        "longitude": -103.74249
    },
    {
        "id": 3067244,
        "wikiDataId": "Q20241258",
        "type": "CITY",
        "city": "Atarjeas de Covarrubias",
        "name": "Atarjeas de Covarrubias",
        "latitude": 19.91944,
        "longitude": -103.94333
    },
    {
        "id": 2974232,
        "wikiDataId": "Q20217982",
        "type": "CITY",
        "city": "Atemanica",
        "name": "Atemanica",
        "latitude": 21.07528,
        "longitude": -103.75028
    },
    {
        "id": 155694,
        "wikiDataId": "Q3316715",
        "type": "CITY",
        "city": "Atengo",
        "name": "Atengo",
        "latitude": 20.216666666,
        "longitude": -104.083333333
    },
    {
        "id": 155274,
        "wikiDataId": "Q2868961",
        "type": "CITY",
        "city": "Atenguillo",
        "name": "Atenguillo",
        "latitude": 20.41553,
        "longitude": -104.49387
    },
    {
        "id": 78757,
        "wikiDataId": "Q4072053",
        "type": "CITY",
        "city": "Atequiza",
        "name": "Atequiza",
        "latitude": 20.39006,
        "longitude": -103.14065
    },
    {
        "id": 79595,
        "wikiDataId": "Q2702220",
        "type": "CITY",
        "city": "Atotonilco el Alto Municipality",
        "name": "Atotonilco el Alto Municipality",
        "latitude": 20.533333333,
        "longitude": -102.5
    },
    {
        "id": 78865,
        "wikiDataId": "Q4817449",
        "type": "CITY",
        "city": "Atotonilco el Bajo",
        "name": "Atotonilco el Bajo",
        "latitude": 20.348333333,
        "longitude": -103.670833333
    },
    {
        "id": 79273,
        "wikiDataId": "Q20139430",
        "type": "CITY",
        "city": "Atotonilquillo",
        "name": "Atotonilquillo",
        "latitude": 20.39287,
        "longitude": -103.12356
    },
    {
        "id": 3024813,
        "wikiDataId": "Q20139437",
        "type": "CITY",
        "city": "Atotonilquillo",
        "name": "Atotonilquillo",
        "latitude": 20.74222,
        "longitude": -102.69528
    },
    {
        "id": 3015251,
        "wikiDataId": "Q3311329",
        "type": "CITY",
        "city": "Atoyac",
        "name": "Atoyac",
        "latitude": 20.017,
        "longitude": -103.533
    },
    {
        "id": 2971692,
        "wikiDataId": "Q20217991",
        "type": "CITY",
        "city": "Atzcatlán",
        "name": "Atzcatlán",
        "latitude": 20.40306,
        "longitude": -102.97111
    },
    {
        "id": 79585,
        "wikiDataId": "Q2589446",
        "type": "CITY",
        "city": "Autlán de Navarro",
        "name": "Autlán de Navarro",
        "latitude": 19.766666666,
        "longitude": -104.366666666
    },
    {
        "id": 78778,
        "type": "CITY",
        "city": "Ayotitlán",
        "name": "Ayotitlán",
        "latitude": 20.22048,
        "longitude": -103.94397
    },
    {
        "id": 155738,
        "wikiDataId": "Q3310832",
        "type": "CITY",
        "city": "Ayotlán Municipality",
        "name": "Ayotlán Municipality",
        "latitude": 20.493888888,
        "longitude": -102.350833333
    },
    {
        "id": 3003949,
        "wikiDataId": "Q20139866",
        "type": "CITY",
        "city": "Ayuquila",
        "name": "Ayuquila",
        "latitude": 19.84001,
        "longitude": -104.27156
    },
    {
        "id": 78755,
        "wikiDataId": "Q2875055",
        "type": "CITY",
        "city": "Ayutla, Jalisco",
        "name": "Ayutla, Jalisco",
        "latitude": 20.816666666,
        "longitude": -104.2
    },
    {
        "id": 3087357,
        "wikiDataId": "Q20140591",
        "type": "CITY",
        "city": "Bajío Seco",
        "name": "Bajío Seco",
        "latitude": 20.70889,
        "longitude": -102.39028
    },
    {
        "id": 2972069,
        "wikiDataId": "Q20140477",
        "type": "CITY",
        "city": "Bajío de Ratones",
        "name": "Bajío de Ratones",
        "latitude": 20.71306,
        "longitude": -102.42861
    },
    {
        "id": 77195,
        "type": "CITY",
        "city": "Bajío de San José",
        "name": "Bajío de San José",
        "latitude": 21.67525,
        "longitude": -102.11606
    },
    {
        "id": 78202,
        "wikiDataId": "Q20241282",
        "type": "CITY",
        "city": "Balcones de la Calera",
        "name": "Balcones de la Calera",
        "latitude": 20.4425,
        "longitude": -103.26722
    },
    {
        "id": 80610,
        "wikiDataId": "Q20140857",
        "type": "CITY",
        "city": "Banus Vallarta",
        "name": "Banus Vallarta",
        "latitude": 20.71611,
        "longitude": -105.22306
    },
    {
        "id": 78043,
        "wikiDataId": "Q1156217",
        "type": "CITY",
        "city": "Barra de Navidad",
        "name": "Barra de Navidad",
        "latitude": 19.208055555,
        "longitude": -104.680555555
    },
    {
        "id": 81674,
        "wikiDataId": "Q27825767",
        "type": "CITY",
        "city": "Barranca de Otates",
        "name": "Barranca de Otates",
        "latitude": 20.26806,
        "longitude": -103.66472
    },
    {
        "id": 3020979,
        "wikiDataId": "Q16301791",
        "type": "CITY",
        "city": "Barranca de Santa Clara",
        "name": "Barranca de Santa Clara",
        "latitude": 20.25566,
        "longitude": -103.6556
    },
    {
        "id": 2985847,
        "wikiDataId": "Q4863229",
        "type": "CITY",
        "city": "Barranca de los Laureles",
        "name": "Barranca de los Laureles",
        "latitude": 20.23333333,
        "longitude": -103.63333333
    },
    {
        "id": 2988919,
        "wikiDataId": "Q20241296",
        "type": "CITY",
        "city": "Barranca del Tule",
        "name": "Barranca del Tule",
        "latitude": 21.98028,
        "longitude": -103.90694
    },
    {
        "id": 3062024,
        "wikiDataId": "Q20141942",
        "type": "CITY",
        "city": "Barrio de Reyes",
        "name": "Barrio de Reyes",
        "latitude": 21.29194,
        "longitude": -102.50556
    },
    {
        "id": 3046743,
        "wikiDataId": "Q20241304",
        "type": "CITY",
        "city": "Barrio de Tapias",
        "name": "Barrio de Tapias",
        "latitude": 22.18361,
        "longitude": -103.22667
    },
    {
        "id": 79511,
        "type": "CITY",
        "city": "Belem del Refugio",
        "name": "Belem del Refugio",
        "latitude": 21.53023,
        "longitude": -102.43515
    },
    {
        "id": 79673,
        "wikiDataId": "Q20143718",
        "type": "CITY",
        "city": "Bellavista",
        "name": "Bellavista",
        "latitude": 20.43408,
        "longitude": -103.63742
    },
    {
        "id": 2991619,
        "wikiDataId": "Q20143674",
        "type": "CITY",
        "city": "Bellavista",
        "name": "Bellavista",
        "latitude": 19.70806,
        "longitude": -104.27972
    },
    {
        "id": 2982440,
        "wikiDataId": "Q20218079",
        "type": "CITY",
        "city": "Benito Juárez",
        "name": "Benito Juárez",
        "latitude": 20.03639,
        "longitude": -105.26806
    },
    {
        "id": 3050918,
        "wikiDataId": "Q20144047",
        "type": "CITY",
        "city": "Benito Juárez",
        "name": "Benito Juárez",
        "latitude": 19.92833,
        "longitude": -102.82528
    },
    {
        "id": 79050,
        "type": "CITY",
        "city": "Betania",
        "name": "Betania",
        "latitude": 20.58199,
        "longitude": -102.37914
    },
    {
        "id": 77541,
        "type": "CITY",
        "city": "Betulia",
        "name": "Betulia",
        "latitude": 21.75935,
        "longitude": -102.0194
    },
    {
        "id": 3058459,
        "wikiDataId": "Q20218084",
        "type": "CITY",
        "city": "Bicercio",
        "name": "Bicercio",
        "latitude": 20.65944,
        "longitude": -102.98389
    },
    {
        "id": 3030005,
        "wikiDataId": "Q20218088",
        "type": "CITY",
        "city": "Boca de Tomatlán",
        "name": "Boca de Tomatlán",
        "latitude": 20.51211,
        "longitude": -105.31442
    },
    {
        "id": 154475,
        "wikiDataId": "Q2656955",
        "type": "CITY",
        "city": "Bolaños Municipality",
        "name": "Bolaños Municipality",
        "latitude": 21.830555555,
        "longitude": -103.780555555
    },
    {
        "id": 3031543,
        "wikiDataId": "Q20254339",
        "type": "CITY",
        "city": "Bosque Real Fraccionamiento",
        "name": "Bosque Real Fraccionamiento",
        "latitude": 20.56833,
        "longitude": -103.49389
    },
    {
        "id": 3071770,
        "wikiDataId": "Q20145437",
        "type": "CITY",
        "city": "Brisas de la Navidad",
        "name": "Brisas de la Navidad",
        "latitude": 19.22444,
        "longitude": -104.65639
    },
    {
        "id": 79669,
        "wikiDataId": "Q3310818",
        "type": "CITY",
        "city": "Brizuela",
        "name": "Brizuela",
        "latitude": 20.18333333,
        "longitude": -103.7
    },
    {
        "id": 2980692,
        "wikiDataId": "Q20241344",
        "type": "CITY",
        "city": "Buena Vista",
        "name": "Buena Vista",
        "latitude": 20.77722,
        "longitude": -102.75778
    },
    {
        "id": 78977,
        "wikiDataId": "Q20146425",
        "type": "CITY",
        "city": "Buenavista",
        "name": "Buenavista",
        "latitude": 21.55889,
        "longitude": -102.55639
    },
    {
        "id": 3040315,
        "wikiDataId": "Q20146214",
        "type": "CITY",
        "city": "Buenavista",
        "name": "Buenavista",
        "latitude": 21.39083,
        "longitude": -101.96417
    },
    {
        "id": 3053597,
        "wikiDataId": "Q20146783",
        "type": "CITY",
        "city": "Buenos Aires",
        "name": "Buenos Aires",
        "latitude": 20.54056,
        "longitude": -102.93444
    },
    {
        "id": 155397,
        "wikiDataId": "Q20290438",
        "type": "CITY",
        "city": "Cabo Corrientes",
        "name": "Cabo Corrientes",
        "latitude": 20.34394,
        "longitude": -105.39322
    },
    {
        "id": 79081,
        "wikiDataId": "Q20241361",
        "type": "CITY",
        "city": "Cajititlán",
        "name": "Cajititlán",
        "latitude": 20.43174,
        "longitude": -103.3094
    },
    {
        "id": 3025582,
        "wikiDataId": "Q20241365",
        "type": "CITY",
        "city": "Calerita",
        "name": "Calerita",
        "latitude": 21.46,
        "longitude": -102.58806
    },
    {
        "id": 2974358,
        "wikiDataId": "Q20241367",
        "type": "CITY",
        "city": "Callejones",
        "name": "Callejones",
        "latitude": 19.66833,
        "longitude": -103.26278
    },
    {
        "id": 2992507,
        "wikiDataId": "Q5024906",
        "type": "CITY",
        "city": "Camajapita",
        "name": "Camajapita",
        "latitude": 20.35,
        "longitude": -103.91666667
    },
    {
        "id": 79493,
        "wikiDataId": "Q20275048",
        "type": "CITY",
        "city": "Campestre las Palomas Fraccionamiento",
        "name": "Campestre las Palomas Fraccionamiento",
        "latitude": 20.81778,
        "longitude": -103.45167
    },
    {
        "id": 79399,
        "type": "CITY",
        "city": "Campo Acosta",
        "name": "Campo Acosta",
        "latitude": 19.77061,
        "longitude": -105.24917
    },
    {
        "id": 79975,
        "wikiDataId": "Q20149487",
        "type": "CITY",
        "city": "Campo Real",
        "name": "Campo Real",
        "latitude": 20.78722,
        "longitude": -103.44306
    },
    {
        "id": 3075008,
        "wikiDataId": "Q20241424",
        "type": "CITY",
        "city": "Canchol",
        "name": "Canchol",
        "latitude": 19.30028,
        "longitude": -102.94889
    },
    {
        "id": 2994606,
        "wikiDataId": "Q20218209",
        "type": "CITY",
        "city": "Canoas",
        "name": "Canoas",
        "latitude": 21.27222,
        "longitude": -101.80694
    },
    {
        "id": 3071547,
        "wikiDataId": "Q20241429",
        "type": "CITY",
        "city": "Canoas de Arriba",
        "name": "Canoas de Arriba",
        "latitude": 22.12333,
        "longitude": -103.24556
    },
    {
        "id": 79732,
        "wikiDataId": "Q5035372",
        "type": "CITY",
        "city": "Capilla de Guadalupe",
        "name": "Capilla de Guadalupe",
        "latitude": 20.826944444,
        "longitude": -102.592222222
    },
    {
        "id": 78178,
        "type": "CITY",
        "city": "Capilla de Milpillas",
        "name": "Capilla de Milpillas",
        "latitude": 20.66331,
        "longitude": -102.84295
    },
    {
        "id": 79037,
        "type": "CITY",
        "city": "Capulín",
        "name": "Capulín",
        "latitude": 20.47802,
        "longitude": -103.26947
    },
    {
        "id": 2972915,
        "wikiDataId": "Q20218234",
        "type": "CITY",
        "city": "Caquixtle de Arriba",
        "name": "Caquixtle de Arriba",
        "latitude": 21.5125,
        "longitude": -102.07472
    },
    {
        "id": 3088847,
        "wikiDataId": "Q20241462",
        "type": "CITY",
        "city": "Carrasqueño",
        "name": "Carrasqueño",
        "latitude": 20.37917,
        "longitude": -102.61889
    },
    {
        "id": 3028219,
        "wikiDataId": "Q20241464",
        "type": "CITY",
        "city": "Carretas",
        "name": "Carretas",
        "latitude": 20.44222,
        "longitude": -102.42417
    },
    {
        "id": 3084225,
        "wikiDataId": "Q20241470",
        "type": "CITY",
        "city": "Carrizal",
        "name": "Carrizal",
        "latitude": 22.21306,
        "longitude": -104.30389
    },
    {
        "id": 2978447,
        "wikiDataId": "Q20256942",
        "type": "CITY",
        "city": "Casa de Teja",
        "name": "Casa de Teja",
        "latitude": 20.45639,
        "longitude": -103.13583
    },
    {
        "id": 3026930,
        "wikiDataId": "Q20241505",
        "type": "CITY",
        "city": "Casas Viejas",
        "name": "Casas Viejas",
        "latitude": 21.18972,
        "longitude": -102.25389
    },
    {
        "id": 79514,
        "wikiDataId": "Q20218323",
        "type": "CITY",
        "city": "Casimiro Castillo",
        "name": "Casimiro Castillo",
        "latitude": 19.60429,
        "longitude": -104.43572
    },
    {
        "id": 155597,
        "wikiDataId": "Q3310777",
        "type": "CITY",
        "city": "Casimiro Castillo",
        "name": "Casimiro Castillo",
        "latitude": 19.603055555,
        "longitude": -104.436222222
    },
    {
        "id": 79622,
        "type": "CITY",
        "city": "Castro Urdiales",
        "name": "Castro Urdiales",
        "latitude": 20.59754,
        "longitude": -103.82046
    },
    {
        "id": 3037060,
        "wikiDataId": "Q20241419",
        "type": "CITY",
        "city": "Cañada Grande",
        "name": "Cañada Grande",
        "latitude": 21.03889,
        "longitude": -102.59278
    },
    {
        "id": 3039049,
        "wikiDataId": "Q20241400",
        "type": "CITY",
        "city": "Cañada de Islas",
        "name": "Cañada de Islas",
        "latitude": 21.24139,
        "longitude": -102.83722
    },
    {
        "id": 3026524,
        "wikiDataId": "Q20241410",
        "type": "CITY",
        "city": "Cañada de Ricos",
        "name": "Cañada de Ricos",
        "latitude": 21.3714,
        "longitude": -101.87653
    },
    {
        "id": 3017378,
        "wikiDataId": "Q20241412",
        "type": "CITY",
        "city": "Cañada de San Ignacio",
        "name": "Cañada de San Ignacio",
        "latitude": 20.55222,
        "longitude": -102.35333
    },
    {
        "id": 155499,
        "wikiDataId": "Q2943527",
        "type": "CITY",
        "city": "Cañadas de Obregón",
        "name": "Cañadas de Obregón",
        "latitude": 21.14685,
        "longitude": -102.686161111
    },
    {
        "id": 3032485,
        "wikiDataId": "Q20241516",
        "type": "CITY",
        "city": "Ceja de Bolitas",
        "name": "Ceja de Bolitas",
        "latitude": 21.31083,
        "longitude": -102.02861
    },
    {
        "id": 78960,
        "wikiDataId": "Q20241522",
        "type": "CITY",
        "city": "Centro de Readaptación Social",
        "name": "Centro de Readaptación Social",
        "latitude": 20.55444,
        "longitude": -103.19361
    },
    {
        "id": 3099076,
        "wikiDataId": "Q20275370",
        "type": "CITY",
        "city": "Cerrito de Buenos Aires",
        "name": "Cerrito de Buenos Aires",
        "latitude": 20.52778,
        "longitude": -102.93889
    },
    {
        "id": 2980874,
        "wikiDataId": "Q20241536",
        "type": "CITY",
        "city": "Cerrito de Tierra",
        "name": "Cerrito de Tierra",
        "latitude": 20.88861,
        "longitude": -103.10389
    },
    {
        "id": 78976,
        "type": "CITY",
        "city": "Cerro Santa Fe",
        "name": "Cerro Santa Fe",
        "latitude": 20.52599,
        "longitude": -103.08448
    },
    {
        "id": 79224,
        "wikiDataId": "Q20275468",
        "type": "CITY",
        "city": "Chacala",
        "name": "Chacala",
        "latitude": 20.42833,
        "longitude": -105.46778
    },
    {
        "id": 3025160,
        "wikiDataId": "Q20241573",
        "type": "CITY",
        "city": "Chachahuatlán",
        "name": "Chachahuatlán",
        "latitude": 19.63361,
        "longitude": -103.9875
    },
    {
        "id": 2973027,
        "wikiDataId": "Q20275490",
        "type": "CITY",
        "city": "Chalpicote",
        "name": "Chalpicote",
        "latitude": 20.30972,
        "longitude": -102.91615
    },
    {
        "id": 3056961,
        "wikiDataId": "Q20241582",
        "type": "CITY",
        "city": "Chamacuero",
        "name": "Chamacuero",
        "latitude": 20.10793,
        "longitude": -103.29326
    },
    {
        "id": 3096676,
        "wikiDataId": "Q2948497",
        "type": "CITY",
        "city": "Chamela, Jalisco",
        "name": "Chamela, Jalisco",
        "latitude": 19.52722222,
        "longitude": -105.07333333
    },
    {
        "id": 3040780,
        "wikiDataId": "Q20241588",
        "type": "CITY",
        "city": "Chancol",
        "name": "Chancol",
        "latitude": 19.48056,
        "longitude": -104.17194
    },
    {
        "id": 3058782,
        "wikiDataId": "Q20241590",
        "type": "CITY",
        "city": "Chancuellar",
        "name": "Chancuellar",
        "latitude": 19.50972,
        "longitude": -103.83111
    },
    {
        "id": 2978468,
        "wikiDataId": "Q1062635",
        "type": "CITY",
        "city": "Chapala",
        "name": "Chapala",
        "latitude": 20.293333333,
        "longitude": -103.189722222
    },
    {
        "id": 3034332,
        "wikiDataId": "Q20241606",
        "type": "CITY",
        "city": "Chayotillo",
        "name": "Chayotillo",
        "latitude": 21.74972,
        "longitude": -101.93861
    },
    {
        "id": 3084911,
        "wikiDataId": "Q20241608",
        "type": "CITY",
        "city": "Chilacayote",
        "name": "Chilacayote",
        "latitude": 20.13861,
        "longitude": -104.64861
    },
    {
        "id": 155703,
        "wikiDataId": "Q2963652",
        "type": "CITY",
        "city": "Chimaltitán",
        "name": "Chimaltitán",
        "latitude": 21.748055555,
        "longitude": -103.694722222
    },
    {
        "id": 79173,
        "type": "CITY",
        "city": "Chinampas",
        "name": "Chinampas",
        "latitude": 21.83686,
        "longitude": -101.81564
    },
    {
        "id": 2981764,
        "wikiDataId": "Q20241616",
        "type": "CITY",
        "city": "Chipinque de Arriba",
        "name": "Chipinque de Arriba",
        "latitude": 21.43194,
        "longitude": -101.90667
    },
    {
        "id": 3051123,
        "wikiDataId": "Q20241622",
        "type": "CITY",
        "city": "Chiquihuitillo",
        "name": "Chiquihuitillo",
        "latitude": 20.74556,
        "longitude": -102.98722
    },
    {
        "id": 3027229,
        "wikiDataId": "Q20241625",
        "type": "CITY",
        "city": "Chiquilistlán",
        "name": "Chiquilistlán",
        "latitude": 20.2,
        "longitude": -103.81667
    },
    {
        "id": 155178,
        "wikiDataId": "Q2963900",
        "type": "CITY",
        "city": "Chiquilistlán, Jalisco",
        "name": "Chiquilistlán, Jalisco",
        "latitude": 20.085555555,
        "longitude": -103.893888888
    },
    {
        "id": 3053476,
        "wikiDataId": "Q20241626",
        "type": "CITY",
        "city": "Chome",
        "name": "Chome",
        "latitude": 20.89528,
        "longitude": -103.73528
    },
    {
        "id": 2971370,
        "wikiDataId": "Q20241635",
        "type": "CITY",
        "city": "Churintzio",
        "name": "Churintzio",
        "latitude": 21.26167,
        "longitude": -102.01444
    },
    {
        "id": 77151,
        "wikiDataId": "Q2972384",
        "type": "CITY",
        "city": "Cihuatlán, Jalisco",
        "name": "Cihuatlán, Jalisco",
        "latitude": 19.25,
        "longitude": -104.56666667
    },
    {
        "id": 79939,
        "wikiDataId": "Q20241651",
        "type": "CITY",
        "city": "Cima del Sol",
        "name": "Cima del Sol",
        "latitude": 20.46889,
        "longitude": -103.41722
    },
    {
        "id": 78654,
        "type": "CITY",
        "city": "Citala",
        "name": "Citala",
        "latitude": 20.10454,
        "longitude": -103.26194
    },
    {
        "id": 78358,
        "wikiDataId": "Q1094355",
        "type": "CITY",
        "city": "Ciudad Guzmán",
        "name": "Ciudad Guzmán",
        "latitude": 19.708611111,
        "longitude": -103.464166666
    },
    {
        "id": 80768,
        "wikiDataId": "Q20241662",
        "type": "CITY",
        "city": "Ciudad Guzmán CERESO",
        "name": "Ciudad Guzmán CERESO",
        "latitude": 19.65194,
        "longitude": -103.5
    },
    {
        "id": 3010862,
        "wikiDataId": "Q20241636",
        "type": "CITY",
        "city": "Ciénega de Galvanes",
        "name": "Ciénega de Galvanes",
        "latitude": 20.575,
        "longitude": -101.97
    },
    {
        "id": 2972498,
        "wikiDataId": "Q20275769",
        "type": "CITY",
        "city": "Ciénega del Pastor",
        "name": "Ciénega del Pastor",
        "latitude": 20.5206,
        "longitude": -102.6571
    },
    {
        "id": 2969663,
        "wikiDataId": "Q20241666",
        "type": "CITY",
        "city": "Coamostita",
        "name": "Coamostita",
        "latitude": 21.92833,
        "longitude": -103.99083
    },
    {
        "id": 2977276,
        "wikiDataId": "Q20241669",
        "type": "CITY",
        "city": "Coatlancillo",
        "name": "Coatlancillo",
        "latitude": 19.89314,
        "longitude": -103.96414
    },
    {
        "id": 3039985,
        "wikiDataId": "Q20241675",
        "type": "CITY",
        "city": "Cocuasco",
        "name": "Cocuasco",
        "latitude": 21.83444,
        "longitude": -103.64389
    },
    {
        "id": 77944,
        "wikiDataId": "Q924387",
        "type": "CITY",
        "city": "Cocula, Jalisco",
        "name": "Cocula, Jalisco",
        "latitude": 20.365166666,
        "longitude": -103.822141666
    },
    {
        "id": 2966988,
        "wikiDataId": "Q20241678",
        "type": "CITY",
        "city": "Codorniz",
        "name": "Codorniz",
        "latitude": 22.14528,
        "longitude": -104.31694
    },
    {
        "id": 2996662,
        "wikiDataId": "Q20241683",
        "type": "CITY",
        "city": "Cofradía",
        "name": "Cofradía",
        "latitude": 19.51667,
        "longitude": -104.71667
    },
    {
        "id": 78454,
        "wikiDataId": "Q20241682",
        "type": "CITY",
        "city": "Cofradía Santa Cruz de Camotlán",
        "name": "Cofradía Santa Cruz de Camotlán",
        "latitude": 20.93086,
        "longitude": -104.64303
    },
    {
        "id": 79535,
        "wikiDataId": "Q20218631",
        "type": "CITY",
        "city": "Colinas del Roble",
        "name": "Colinas del Roble",
        "latitude": 20.50417,
        "longitude": -103.39833
    },
    {
        "id": 3064539,
        "wikiDataId": "Q20241698",
        "type": "CITY",
        "city": "Colinas del Valle",
        "name": "Colinas del Valle",
        "latitude": 20.75694,
        "longitude": -105.15917
    },
    {
        "id": 3054950,
        "wikiDataId": "Q20218637",
        "type": "CITY",
        "city": "Colonia Agua Caliente",
        "name": "Colonia Agua Caliente",
        "latitude": 21.37778,
        "longitude": -101.91611
    },
    {
        "id": 3048116,
        "wikiDataId": "Q20241703",
        "type": "CITY",
        "city": "Colonia Bosques del Sol",
        "name": "Colonia Bosques del Sol",
        "latitude": 20.59944,
        "longitude": -103.21778
    },
    {
        "id": 3038897,
        "wikiDataId": "Q20218641",
        "type": "CITY",
        "city": "Colonia Capilla de Rayo",
        "name": "Colonia Capilla de Rayo",
        "latitude": 20.14806,
        "longitude": -104.34639
    },
    {
        "id": 3053111,
        "wikiDataId": "Q20218647",
        "type": "CITY",
        "city": "Colonia Cuisillos",
        "name": "Colonia Cuisillos",
        "latitude": 20.72417,
        "longitude": -103.65528
    },
    {
        "id": 3040151,
        "wikiDataId": "Q20241710",
        "type": "CITY",
        "city": "Colonia Ganadera",
        "name": "Colonia Ganadera",
        "latitude": 21.15611,
        "longitude": -102.89944
    },
    {
        "id": 81498,
        "wikiDataId": "Q20129282",
        "type": "CITY",
        "city": "Colonia Guadalupana",
        "name": "Colonia Guadalupana",
        "latitude": 20.56667,
        "longitude": -103.21889
    },
    {
        "id": 3004339,
        "wikiDataId": "Q20241714",
        "type": "CITY",
        "city": "Colonia Hatmasie",
        "name": "Colonia Hatmasie",
        "latitude": 22.39278,
        "longitude": -103.99111
    },
    {
        "id": 2995844,
        "wikiDataId": "Q20276410",
        "type": "CITY",
        "city": "Colonia Loma Alta",
        "name": "Colonia Loma Alta",
        "latitude": 19.44583,
        "longitude": -104.36556
    },
    {
        "id": 3044256,
        "wikiDataId": "Q20276404",
        "type": "CITY",
        "city": "Colonia Lázaro Cárdenas",
        "name": "Colonia Lázaro Cárdenas",
        "latitude": 20.42778,
        "longitude": -103.68083
    },
    {
        "id": 3054624,
        "wikiDataId": "Q20241718",
        "type": "CITY",
        "city": "Colonia Lázaro Cárdenas del Río",
        "name": "Colonia Lázaro Cárdenas del Río",
        "latitude": 19.98917,
        "longitude": -103.25583
    },
    {
        "id": 3005390,
        "wikiDataId": "Q20130664",
        "type": "CITY",
        "city": "Colonia Madero",
        "name": "Colonia Madero",
        "latitude": 20.07056,
        "longitude": -103.08917
    },
    {
        "id": 3096148,
        "wikiDataId": "Q20131031",
        "type": "CITY",
        "city": "Colonia Niños Héroes",
        "name": "Colonia Niños Héroes",
        "latitude": 20.55917,
        "longitude": -103.43083
    },
    {
        "id": 3080776,
        "wikiDataId": "Q20131365",
        "type": "CITY",
        "city": "Colonia Paso del Molino",
        "name": "Colonia Paso del Molino",
        "latitude": 20.59278,
        "longitude": -105.21833
    },
    {
        "id": 3041938,
        "wikiDataId": "Q20131410",
        "type": "CITY",
        "city": "Colonia Pinal Villa",
        "name": "Colonia Pinal Villa",
        "latitude": 19.23806,
        "longitude": -104.69389
    },
    {
        "id": 79935,
        "wikiDataId": "Q20241727",
        "type": "CITY",
        "city": "Colonia Santa Cecilia",
        "name": "Colonia Santa Cecilia",
        "latitude": 21.2525,
        "longitude": -102.35139
    },
    {
        "id": 3055879,
        "wikiDataId": "Q20132405",
        "type": "CITY",
        "city": "Colonia Trigomil",
        "name": "Colonia Trigomil",
        "latitude": 19.94222,
        "longitude": -104.24917
    },
    {
        "id": 80689,
        "wikiDataId": "Q20132562",
        "type": "CITY",
        "city": "Colonia Veintitrés de Mayo",
        "name": "Colonia Veintitrés de Mayo",
        "latitude": 21.01,
        "longitude": -102.19778
    },
    {
        "id": 3002749,
        "wikiDataId": "Q20218677",
        "type": "CITY",
        "city": "Colonia Veintiuno de Marzo",
        "name": "Colonia Veintiuno de Marzo",
        "latitude": 22.2371,
        "longitude": -103.0839
    },
    {
        "id": 3060190,
        "wikiDataId": "Q20129863",
        "type": "CITY",
        "city": "Colonia la Granjena",
        "name": "Colonia la Granjena",
        "latitude": 20.35167,
        "longitude": -102.79639
    },
    {
        "id": 3062287,
        "wikiDataId": "Q20130146",
        "type": "CITY",
        "city": "Colonia las Granjas",
        "name": "Colonia las Granjas",
        "latitude": 22.61583,
        "longitude": -103.89639
    },
    {
        "id": 3011538,
        "wikiDataId": "Q20241716",
        "type": "CITY",
        "city": "Colonia las Palmas Campamento SAGAR",
        "name": "Colonia las Palmas Campamento SAGAR",
        "latitude": 19.97139,
        "longitude": -105.32389
    },
    {
        "id": 3022285,
        "wikiDataId": "Q20241724",
        "type": "CITY",
        "city": "Colonia los Robles",
        "name": "Colonia los Robles",
        "latitude": 20.59194,
        "longitude": -105.215
    },
    {
        "id": 3098038,
        "wikiDataId": "Q20130629",
        "type": "CITY",
        "city": "Colonia los Sauces",
        "name": "Colonia los Sauces",
        "latitude": 20.55028,
        "longitude": -103.35167
    },
    {
        "id": 2988202,
        "wikiDataId": "Q20132902",
        "type": "CITY",
        "city": "Colotlán",
        "name": "Colotlán",
        "latitude": 22.11343,
        "longitude": -103.26664
    },
    {
        "id": 155940,
        "wikiDataId": "Q20478792",
        "type": "CITY",
        "city": "Colotlán Municipality",
        "name": "Colotlán Municipality",
        "latitude": 22.2,
        "longitude": -103.3
    },
    {
        "id": 2972579,
        "wikiDataId": "Q18073579",
        "type": "CITY",
        "city": "Comanja de Corona",
        "name": "Comanja de Corona",
        "latitude": 21.3252,
        "longitude": -101.71379
    },
    {
        "id": 77874,
        "wikiDataId": "Q3311159",
        "type": "CITY",
        "city": "Concepción de Buenos Aires",
        "name": "Concepción de Buenos Aires",
        "latitude": 19.866666666,
        "longitude": -103.15
    },
    {
        "id": 3184828,
        "wikiDataId": "Q20133261",
        "type": "CITY",
        "city": "Concepción de Buenos Aires",
        "name": "Concepción de Buenos Aires",
        "latitude": 19.97942,
        "longitude": -103.25941
    },
    {
        "id": 3060713,
        "wikiDataId": "Q20133273",
        "type": "CITY",
        "city": "Concepción del Bramador",
        "name": "Concepción del Bramador",
        "latitude": 20.2446,
        "longitude": -105.07807
    },
    {
        "id": 3080779,
        "wikiDataId": "Q20133911",
        "type": "CITY",
        "city": "Copales",
        "name": "Copales",
        "latitude": 20.85278,
        "longitude": -104.74778
    },
    {
        "id": 3014581,
        "wikiDataId": "Q20276580",
        "type": "CITY",
        "city": "Corral Blanco",
        "name": "Corral Blanco",
        "latitude": 21.56778,
        "longitude": -102.37139
    },
    {
        "id": 3096150,
        "wikiDataId": "Q20218698",
        "type": "CITY",
        "city": "Corral de Piedra",
        "name": "Corral de Piedra",
        "latitude": 21.48333,
        "longitude": -102.11806
    },
    {
        "id": 3008135,
        "wikiDataId": "Q20241746",
        "type": "CITY",
        "city": "Corralillos",
        "name": "Corralillos",
        "latitude": 20.64944,
        "longitude": -102.91056
    },
    {
        "id": 3059887,
        "wikiDataId": "Q20135333",
        "type": "CITY",
        "city": "Coyamel",
        "name": "Coyamel",
        "latitude": 19.49806,
        "longitude": -104.52306
    },
    {
        "id": 78237,
        "type": "CITY",
        "city": "Coyula",
        "name": "Coyula",
        "latitude": 20.65881,
        "longitude": -103.22654
    },
    {
        "id": 80000,
        "wikiDataId": "Q20135714",
        "type": "CITY",
        "city": "Cristeros Fraccionamiento",
        "name": "Cristeros Fraccionamiento",
        "latitude": 21.32111,
        "longitude": -101.97333
    },
    {
        "id": 3058193,
        "wikiDataId": "Q20241806",
        "type": "CITY",
        "city": "Cuauhtémoc",
        "name": "Cuauhtémoc",
        "latitude": 19.63306,
        "longitude": -103.92722
    },
    {
        "id": 77837,
        "wikiDataId": "Q20276786",
        "type": "CITY",
        "city": "Cuautitlán",
        "name": "Cuautitlán",
        "latitude": 21.73639,
        "longitude": -101.96917
    },
    {
        "id": 155742,
        "wikiDataId": "Q3311299",
        "type": "CITY",
        "city": "Cuautitlán de García Barragán",
        "name": "Cuautitlán de García Barragán",
        "latitude": 19.433333333,
        "longitude": -104.3
    },
    {
        "id": 78029,
        "wikiDataId": "Q20241809",
        "type": "CITY",
        "city": "Cuautla",
        "name": "Cuautla",
        "latitude": 20.20139,
        "longitude": -104.4075
    },
    {
        "id": 3070154,
        "wikiDataId": "Q20218799",
        "type": "CITY",
        "city": "Cuesta Chica",
        "name": "Cuesta Chica",
        "latitude": 20.56444,
        "longitude": -102.67167
    },
    {
        "id": 2987442,
        "wikiDataId": "Q20137979",
        "type": "CITY",
        "city": "Cuesta de Ovejas",
        "name": "Cuesta de Ovejas",
        "latitude": 20.55222,
        "longitude": -102.6675
    },
    {
        "id": 78508,
        "wikiDataId": "Q20138135",
        "type": "CITY",
        "city": "Cuexcomatitlán",
        "name": "Cuexcomatitlán",
        "latitude": 20.4281,
        "longitude": -103.36189
    },
    {
        "id": 78542,
        "type": "CITY",
        "city": "Cuisillos",
        "name": "Cuisillos",
        "latitude": 20.60948,
        "longitude": -103.77441
    },
    {
        "id": 78495,
        "wikiDataId": "Q20241820",
        "type": "CITY",
        "city": "Cuitzeo",
        "name": "Cuitzeo",
        "latitude": 20.34278,
        "longitude": -102.78389
    },
    {
        "id": 155535,
        "wikiDataId": "Q3007619",
        "type": "CITY",
        "city": "Cuquío",
        "name": "Cuquío",
        "latitude": 20.9275,
        "longitude": -103.023888888
    },
    {
        "id": 3049454,
        "wikiDataId": "Q20241822",
        "type": "CITY",
        "city": "Custique",
        "name": "Custique",
        "latitude": 21.62,
        "longitude": -102.49111
    },
    {
        "id": 78210,
        "type": "CITY",
        "city": "Cuxpala",
        "name": "Cuxpala",
        "latitude": 20.55935,
        "longitude": -103.6451
    },
    {
        "id": 78104,
        "wikiDataId": "Q20218692",
        "type": "CITY",
        "city": "Cópala",
        "name": "Cópala",
        "latitude": 19.92333,
        "longitude": -103.74806
    },
    {
        "id": 78057,
        "wikiDataId": "Q20138719",
        "type": "CITY",
        "city": "Degollado",
        "name": "Degollado",
        "latitude": 20.46702,
        "longitude": -102.14976
    },
    {
        "id": 76959,
        "type": "CITY",
        "city": "Dieciocho de Marzo",
        "name": "Dieciocho de Marzo",
        "latitude": 21.48238,
        "longitude": -101.7988
    },
    {
        "id": 3085328,
        "wikiDataId": "Q20140823",
        "type": "CITY",
        "city": "Ejido Agua Zarca",
        "name": "Ejido Agua Zarca",
        "latitude": 19.83611,
        "longitude": -103.26917
    },
    {
        "id": 3027039,
        "wikiDataId": "Q20140920",
        "type": "CITY",
        "city": "Ejido Ciénega de Mora",
        "name": "Ejido Ciénega de Mora",
        "latitude": 21.50389,
        "longitude": -102.35
    },
    {
        "id": 3091959,
        "wikiDataId": "Q20218826",
        "type": "CITY",
        "city": "Ejido Modelo",
        "name": "Ejido Modelo",
        "latitude": 19.5375,
        "longitude": -104.51361
    },
    {
        "id": 3082068,
        "wikiDataId": "Q20141693",
        "type": "CITY",
        "city": "Ejido Poblado Atenquique",
        "name": "Ejido Poblado Atenquique",
        "latitude": 19.56639,
        "longitude": -103.51722
    },
    {
        "id": 2995492,
        "wikiDataId": "Q20277108",
        "type": "CITY",
        "city": "Ejido Uno de Febrero",
        "name": "Ejido Uno de Febrero",
        "latitude": 19.81417,
        "longitude": -103.49139
    },
    {
        "id": 155563,
        "wikiDataId": "Q3845719",
        "type": "CITY",
        "city": "Ejutla",
        "name": "Ejutla",
        "latitude": 19.9,
        "longitude": -104.15
    },
    {
        "id": 3071483,
        "wikiDataId": "Q20241841",
        "type": "CITY",
        "city": "El Agostadero",
        "name": "El Agostadero",
        "latitude": 19.14493,
        "longitude": -103.38721
    },
    {
        "id": 3048036,
        "wikiDataId": "Q20218856",
        "type": "CITY",
        "city": "El Aguacate",
        "name": "El Aguacate",
        "latitude": 20.70172,
        "longitude": -103.20799
    },
    {
        "id": 2968694,
        "wikiDataId": "Q20277256",
        "type": "CITY",
        "city": "El Alto",
        "name": "El Alto",
        "latitude": 20.77472,
        "longitude": -102.49583
    },
    {
        "id": 3008605,
        "wikiDataId": "Q20143670",
        "type": "CITY",
        "city": "El Amarillo",
        "name": "El Amarillo",
        "latitude": 20.91333,
        "longitude": -103.725
    },
    {
        "id": 3011177,
        "wikiDataId": "Q20143676",
        "type": "CITY",
        "city": "El Amarradero",
        "name": "El Amarradero",
        "latitude": 20.65306,
        "longitude": -102.01278
    },
    {
        "id": 3053786,
        "wikiDataId": "Q20218901",
        "type": "CITY",
        "city": "El Arca",
        "name": "El Arca",
        "latitude": 20.37167,
        "longitude": -102.17611
    },
    {
        "id": 3097491,
        "wikiDataId": "Q20144242",
        "type": "CITY",
        "city": "El Arco, Ameca",
        "name": "El Arco, Ameca",
        "latitude": 20.60944,
        "longitude": -104.07333
    },
    {
        "id": 78448,
        "wikiDataId": "Q3049727",
        "type": "CITY",
        "city": "El Arenal",
        "name": "El Arenal",
        "latitude": 20.77538,
        "longitude": -103.69353
    },
    {
        "id": 3076034,
        "wikiDataId": "Q20241880",
        "type": "CITY",
        "city": "El Arenal",
        "name": "El Arenal",
        "latitude": 21.335,
        "longitude": -101.93167
    },
    {
        "id": 3087929,
        "wikiDataId": "Q20144803",
        "type": "CITY",
        "city": "El Asoleadero",
        "name": "El Asoleadero",
        "latitude": 21.36389,
        "longitude": -102.38222
    },
    {
        "id": 81619,
        "wikiDataId": "Q20145195",
        "type": "CITY",
        "city": "El Bajío",
        "name": "El Bajío",
        "latitude": 21.37944,
        "longitude": -101.95028
    },
    {
        "id": 3015338,
        "wikiDataId": "Q20145237",
        "type": "CITY",
        "city": "El Bajío",
        "name": "El Bajío",
        "latitude": 21.01472,
        "longitude": -102.38278
    },
    {
        "id": 3066570,
        "wikiDataId": "Q20277363",
        "type": "CITY",
        "city": "El Bajío",
        "name": "El Bajío",
        "latitude": 20.65694,
        "longitude": -103.06444
    },
    {
        "id": 2996556,
        "wikiDataId": "Q20145201",
        "type": "CITY",
        "city": "El Bajío Lomas del Club",
        "name": "El Bajío Lomas del Club",
        "latitude": 20.58361,
        "longitude": -103.29583
    },
    {
        "id": 3096981,
        "wikiDataId": "Q20218929",
        "type": "CITY",
        "city": "El Bajío de Plascencia",
        "name": "El Bajío de Plascencia",
        "latitude": 20.71583,
        "longitude": -102.79278
    },
    {
        "id": 3023690,
        "wikiDataId": "Q20218952",
        "type": "CITY",
        "city": "El Banco del Venado",
        "name": "El Banco del Venado",
        "latitude": 21.85083,
        "longitude": -103.98722
    },
    {
        "id": 3055355,
        "wikiDataId": "Q20277398",
        "type": "CITY",
        "city": "El Barrio",
        "name": "El Barrio",
        "latitude": 21.40056,
        "longitude": -102.55444
    },
    {
        "id": 3083374,
        "wikiDataId": "Q20146526",
        "type": "CITY",
        "city": "El Brillante Fraccionamiento",
        "name": "El Brillante Fraccionamiento",
        "latitude": 20.5575,
        "longitude": -104.03194
    },
    {
        "id": 3029038,
        "wikiDataId": "Q20241941",
        "type": "CITY",
        "city": "El Briseño",
        "name": "El Briseño",
        "latitude": 20.23889,
        "longitude": -103.595
    },
    {
        "id": 78526,
        "type": "CITY",
        "city": "El Cabezón",
        "name": "El Cabezón",
        "latitude": 20.49569,
        "longitude": -103.95144
    },
    {
        "id": 3059654,
        "wikiDataId": "Q20146763",
        "type": "CITY",
        "city": "El Cacalote",
        "name": "El Cacalote",
        "latitude": 19.84417,
        "longitude": -104.28083
    },
    {
        "id": 3077967,
        "wikiDataId": "Q20277539",
        "type": "CITY",
        "city": "El Camichín",
        "name": "El Camichín",
        "latitude": 19.64194,
        "longitude": -104.04452
    },
    {
        "id": 3082768,
        "wikiDataId": "Q20147844",
        "type": "CITY",
        "city": "El Cantón",
        "name": "El Cantón",
        "latitude": 20.74268,
        "longitude": -105.18052
    },
    {
        "id": 3038138,
        "wikiDataId": "Q20277596",
        "type": "CITY",
        "city": "El Capulín de Chávez",
        "name": "El Capulín de Chávez",
        "latitude": 20.65806,
        "longitude": -102.20583
    },
    {
        "id": 77923,
        "wikiDataId": "Q20277659",
        "type": "CITY",
        "city": "El Carmen",
        "name": "El Carmen",
        "latitude": 21.70111,
        "longitude": -101.9925
    },
    {
        "id": 3025886,
        "wikiDataId": "Q20149122",
        "type": "CITY",
        "city": "El Carricillo",
        "name": "El Carricillo",
        "latitude": 20.73,
        "longitude": -103.03056
    },
    {
        "id": 2988865,
        "wikiDataId": "Q20149193",
        "type": "CITY",
        "city": "El Carrizal",
        "name": "El Carrizal",
        "latitude": 19.9975,
        "longitude": -103.3875
    },
    {
        "id": 3053513,
        "wikiDataId": "Q20242021",
        "type": "CITY",
        "city": "El Cedazo",
        "name": "El Cedazo",
        "latitude": 20.70583,
        "longitude": -102.69222
    },
    {
        "id": 2977223,
        "wikiDataId": "Q20277825",
        "type": "CITY",
        "city": "El Cerrito",
        "name": "El Cerrito",
        "latitude": 19.85394,
        "longitude": -103.93187
    },
    {
        "id": 3030001,
        "wikiDataId": "Q20242042",
        "type": "CITY",
        "city": "El Cerrito",
        "name": "El Cerrito",
        "latitude": 20.90167,
        "longitude": -103.74889
    },
    {
        "id": 3087950,
        "wikiDataId": "Q20219147",
        "type": "CITY",
        "city": "El Cerrito",
        "name": "El Cerrito",
        "latitude": 21.46722,
        "longitude": -101.90444
    },
    {
        "id": 3034418,
        "wikiDataId": "Q20277838",
        "type": "CITY",
        "city": "El Cerro, Jalisco",
        "name": "El Cerro, Jalisco",
        "latitude": 22.18639,
        "longitude": -103.39944
    },
    {
        "id": 3086174,
        "wikiDataId": "Q20219174",
        "type": "CITY",
        "city": "El Chalate",
        "name": "El Chalate",
        "latitude": 22.13556,
        "longitude": -104.27944
    },
    {
        "id": 78123,
        "type": "CITY",
        "city": "El Chante",
        "name": "El Chante",
        "latitude": 19.718,
        "longitude": -104.20025
    },
    {
        "id": 3000980,
        "wikiDataId": "Q20277916",
        "type": "CITY",
        "city": "El Chaveño",
        "name": "El Chaveño",
        "latitude": 20.44056,
        "longitude": -102.31333
    },
    {
        "id": 3055226,
        "wikiDataId": "Q20219199",
        "type": "CITY",
        "city": "El Chilar",
        "name": "El Chilar",
        "latitude": 20.83667,
        "longitude": -103.29528
    },
    {
        "id": 2987108,
        "wikiDataId": "Q20277972",
        "type": "CITY",
        "city": "El Chispeadero",
        "name": "El Chispeadero",
        "latitude": 20.77083,
        "longitude": -102.8
    },
    {
        "id": 3092284,
        "wikiDataId": "Q20277974",
        "type": "CITY",
        "city": "El Chivatillo",
        "name": "El Chivatillo",
        "latitude": 20.29733,
        "longitude": -103.78934
    },
    {
        "id": 3052810,
        "wikiDataId": "Q20278086",
        "type": "CITY",
        "city": "El Coahuayote",
        "name": "El Coahuayote",
        "latitude": 19.61028,
        "longitude": -103.35611
    },
    {
        "id": 79507,
        "type": "CITY",
        "city": "El Colomo",
        "name": "El Colomo",
        "latitude": 20.86962,
        "longitude": -105.15597
    },
    {
        "id": 78455,
        "type": "CITY",
        "city": "El Colorado",
        "name": "El Colorado",
        "latitude": 20.77029,
        "longitude": -105.15651
    },
    {
        "id": 3096864,
        "wikiDataId": "Q20242144",
        "type": "CITY",
        "city": "El Columpio",
        "name": "El Columpio",
        "latitude": 20.39861,
        "longitude": -105.31056
    },
    {
        "id": 3030528,
        "wikiDataId": "Q20278157",
        "type": "CITY",
        "city": "El Conde",
        "name": "El Conde",
        "latitude": 20.3825,
        "longitude": -103.85389
    },
    {
        "id": 3061295,
        "wikiDataId": "Q20242153",
        "type": "CITY",
        "city": "El Conejo",
        "name": "El Conejo",
        "latitude": 21.46528,
        "longitude": -101.86944
    },
    {
        "id": 77980,
        "type": "CITY",
        "city": "El Corcovado",
        "name": "El Corcovado",
        "latitude": 19.84525,
        "longitude": -104.28566
    },
    {
        "id": 81062,
        "wikiDataId": "Q20242170",
        "type": "CITY",
        "city": "El Cortijo",
        "name": "El Cortijo",
        "latitude": 20.46917,
        "longitude": -103.42194
    },
    {
        "id": 3049860,
        "wikiDataId": "Q20242179",
        "type": "CITY",
        "city": "El Coyotillo",
        "name": "El Coyotillo",
        "latitude": 20.94611,
        "longitude": -103.1125
    },
    {
        "id": 2998014,
        "wikiDataId": "Q20242190",
        "type": "CITY",
        "city": "El Crucero",
        "name": "El Crucero",
        "latitude": 20.73306,
        "longitude": -103.60333
    },
    {
        "id": 3008369,
        "wikiDataId": "Q20242183",
        "type": "CITY",
        "city": "El Crucero de Arandas",
        "name": "El Crucero de Arandas",
        "latitude": 20.88861,
        "longitude": -102.70972
    },
    {
        "id": 78071,
        "wikiDataId": "Q5351082",
        "type": "CITY",
        "city": "El Crucero de Santa María",
        "name": "El Crucero de Santa María",
        "latitude": 20.38398611,
        "longitude": -103.86053333
    },
    {
        "id": 3071676,
        "wikiDataId": "Q20242204",
        "type": "CITY",
        "city": "El Cuatro",
        "name": "El Cuatro",
        "latitude": 20.85611,
        "longitude": -103.02583
    },
    {
        "id": 2997719,
        "wikiDataId": "Q20242213",
        "type": "CITY",
        "city": "El Derramadero",
        "name": "El Derramadero",
        "latitude": 21.00417,
        "longitude": -102.97472
    },
    {
        "id": 3011563,
        "wikiDataId": "Q20242233",
        "type": "CITY",
        "city": "El Dique",
        "name": "El Dique",
        "latitude": 20.45694,
        "longitude": -102.73861
    },
    {
        "id": 3056600,
        "wikiDataId": "Q20242314",
        "type": "CITY",
        "city": "El Fraile",
        "name": "El Fraile",
        "latitude": 22.26646,
        "longitude": -103.23881
    },
    {
        "id": 3088646,
        "wikiDataId": "Q20242311",
        "type": "CITY",
        "city": "El Fraile",
        "name": "El Fraile",
        "latitude": 20.46556,
        "longitude": -102.3875
    },
    {
        "id": 3030891,
        "wikiDataId": "Q20279216",
        "type": "CITY",
        "city": "El Gato",
        "name": "El Gato",
        "latitude": 20.60444,
        "longitude": -102.89722
    },
    {
        "id": 155540,
        "wikiDataId": "Q512102",
        "type": "CITY",
        "city": "El Grullo Municipality",
        "name": "El Grullo Municipality",
        "latitude": 19.793888888,
        "longitude": -104.201666666
    },
    {
        "id": 3021271,
        "wikiDataId": "Q20242429",
        "type": "CITY",
        "city": "El Hollejo",
        "name": "El Hollejo",
        "latitude": 20.6375,
        "longitude": -104.50389
    },
    {
        "id": 3002020,
        "wikiDataId": "Q20242443",
        "type": "CITY",
        "city": "El Huiroche",
        "name": "El Huiroche",
        "latitude": 21.77722,
        "longitude": -102.00583
    },
    {
        "id": 3032908,
        "wikiDataId": "Q20242472",
        "type": "CITY",
        "city": "El Jabalí",
        "name": "El Jabalí",
        "latitude": 20.46583,
        "longitude": -102.97528
    },
    {
        "id": 3050338,
        "wikiDataId": "Q20279485",
        "type": "CITY",
        "city": "El Jagüey",
        "name": "El Jagüey",
        "latitude": 20.92889,
        "longitude": -103.19611
    },
    {
        "id": 3068811,
        "wikiDataId": "Q20279486",
        "type": "CITY",
        "city": "El Jagüey",
        "name": "El Jagüey",
        "latitude": 21.34833,
        "longitude": -102.00944
    },
    {
        "id": 3099374,
        "wikiDataId": "Q20279498",
        "type": "CITY",
        "city": "El Jaral",
        "name": "El Jaral",
        "latitude": 21.17444,
        "longitude": -101.97139
    },
    {
        "id": 3010527,
        "wikiDataId": "Q20242490",
        "type": "CITY",
        "city": "El Jaralillo",
        "name": "El Jaralillo",
        "latitude": 21.64056,
        "longitude": -102.27278
    },
    {
        "id": 3095721,
        "wikiDataId": "Q20242492",
        "type": "CITY",
        "city": "El Jaralito",
        "name": "El Jaralito",
        "latitude": 21.44389,
        "longitude": -101.80556
    },
    {
        "id": 3019307,
        "wikiDataId": "Q20242494",
        "type": "CITY",
        "city": "El Jardín",
        "name": "El Jardín",
        "latitude": 19.77528,
        "longitude": -103.89667
    },
    {
        "id": 77963,
        "type": "CITY",
        "city": "El Jazmín",
        "name": "El Jazmín",
        "latitude": 19.65344,
        "longitude": -103.71006
    },
    {
        "id": 3009689,
        "wikiDataId": "Q20219749",
        "type": "CITY",
        "city": "El Jomate",
        "name": "El Jomate",
        "latitude": 21.81278,
        "longitude": -104.16111
    },
    {
        "id": 3006674,
        "wikiDataId": "Q20219753",
        "type": "CITY",
        "city": "El Laurel",
        "name": "El Laurel",
        "latitude": 20.63194,
        "longitude": -102.38889
    },
    {
        "id": 3036240,
        "wikiDataId": "Q20242507",
        "type": "CITY",
        "city": "El Lazo",
        "name": "El Lazo",
        "latitude": 20.79639,
        "longitude": -103.32806
    },
    {
        "id": 77969,
        "wikiDataId": "Q3846815",
        "type": "CITY",
        "city": "El Limón",
        "name": "El Limón",
        "latitude": 19.75,
        "longitude": -104.016666666
    },
    {
        "id": 2980206,
        "wikiDataId": "Q20242527",
        "type": "CITY",
        "city": "El Limón",
        "name": "El Limón",
        "latitude": 20.36556,
        "longitude": -102.65806
    },
    {
        "id": 2969201,
        "wikiDataId": "Q20219828",
        "type": "CITY",
        "city": "El Llano de Barajas",
        "name": "El Llano de Barajas",
        "latitude": 20.87583,
        "longitude": -103.03722
    },
    {
        "id": 2967230,
        "wikiDataId": "Q20219841",
        "type": "CITY",
        "city": "El Llano de Plascencia",
        "name": "El Llano de Plascencia",
        "latitude": 20.92889,
        "longitude": -103.09917
    },
    {
        "id": 3086717,
        "wikiDataId": "Q20219837",
        "type": "CITY",
        "city": "El Llano de los Toros",
        "name": "El Llano de los Toros",
        "latitude": 19.935,
        "longitude": -103.00944
    },
    {
        "id": 2979681,
        "wikiDataId": "Q20219864",
        "type": "CITY",
        "city": "El Lobo",
        "name": "El Lobo",
        "latitude": 21.17361,
        "longitude": -101.79361
    },
    {
        "id": 3011970,
        "wikiDataId": "Q20219866",
        "type": "CITY",
        "city": "El Lopeño",
        "name": "El Lopeño",
        "latitude": 20.39639,
        "longitude": -102.56139
    },
    {
        "id": 78664,
        "type": "CITY",
        "city": "El Loreto Occidental",
        "name": "El Loreto Occidental",
        "latitude": 20.34222,
        "longitude": -102.47093
    },
    {
        "id": 3048394,
        "wikiDataId": "Q20219868",
        "type": "CITY",
        "city": "El Macuchi",
        "name": "El Macuchi",
        "latitude": 20.37882,
        "longitude": -104.26388
    },
    {
        "id": 3085588,
        "wikiDataId": "Q20279741",
        "type": "CITY",
        "city": "El Maestranzo",
        "name": "El Maestranzo",
        "latitude": 20.72444,
        "longitude": -103.14528
    },
    {
        "id": 2973776,
        "wikiDataId": "Q20219886",
        "type": "CITY",
        "city": "El Manantial",
        "name": "El Manantial",
        "latitude": 20.52694,
        "longitude": -103.3575
    },
    {
        "id": 2968212,
        "wikiDataId": "Q20279813",
        "type": "CITY",
        "city": "El Mastranzo",
        "name": "El Mastranzo",
        "latitude": 20.88917,
        "longitude": -102.39528
    },
    {
        "id": 3016957,
        "wikiDataId": "Q20279818",
        "type": "CITY",
        "city": "El Mayoral de Abajo",
        "name": "El Mayoral de Abajo",
        "latitude": 21.21056,
        "longitude": -102.45222
    },
    {
        "id": 2987321,
        "wikiDataId": "Q20250765",
        "type": "CITY",
        "city": "El Medineño",
        "name": "El Medineño",
        "latitude": 20.86722,
        "longitude": -103.77917
    },
    {
        "id": 78386,
        "type": "CITY",
        "city": "El Mentidero",
        "name": "El Mentidero",
        "latitude": 19.7707,
        "longitude": -104.29313
    },
    {
        "id": 2984361,
        "wikiDataId": "Q20250821",
        "type": "CITY",
        "city": "El Mesoncito",
        "name": "El Mesoncito",
        "latitude": 21.41583,
        "longitude": -101.8525
    },
    {
        "id": 3076740,
        "wikiDataId": "Q20219934",
        "type": "CITY",
        "city": "El Mezquite Grande",
        "name": "El Mezquite Grande",
        "latitude": 20.68611,
        "longitude": -103.12583
    },
    {
        "id": 3017133,
        "wikiDataId": "Q20242648",
        "type": "CITY",
        "city": "El Mirador",
        "name": "El Mirador",
        "latitude": 21.16722,
        "longitude": -102.87111
    },
    {
        "id": 3018956,
        "wikiDataId": "Q20242641",
        "type": "CITY",
        "city": "El Mirador",
        "name": "El Mirador",
        "latitude": 20.57583,
        "longitude": -103.27306
    },
    {
        "id": 3068711,
        "wikiDataId": "Q20242644",
        "type": "CITY",
        "city": "El Mirador",
        "name": "El Mirador",
        "latitude": 21.33889,
        "longitude": -102.52639
    },
    {
        "id": 78044,
        "wikiDataId": "Q20242683",
        "type": "CITY",
        "city": "El Molino",
        "name": "El Molino",
        "latitude": 22.0175,
        "longitude": -101.85389
    },
    {
        "id": 3007473,
        "wikiDataId": "Q20279928",
        "type": "CITY",
        "city": "El Moral",
        "name": "El Moral",
        "latitude": 19.92667,
        "longitude": -102.9375
    },
    {
        "id": 3048612,
        "wikiDataId": "Q20279927",
        "type": "CITY",
        "city": "El Moral",
        "name": "El Moral",
        "latitude": 20.62556,
        "longitude": -103.21417
    },
    {
        "id": 80130,
        "wikiDataId": "Q20279941",
        "type": "CITY",
        "city": "El Muey",
        "name": "El Muey",
        "latitude": 20.50278,
        "longitude": -103.22083
    },
    {
        "id": 77834,
        "type": "CITY",
        "city": "El Nacimiento",
        "name": "El Nacimiento",
        "latitude": 20.53828,
        "longitude": -102.55107
    },
    {
        "id": 3017818,
        "wikiDataId": "Q20279945",
        "type": "CITY",
        "city": "El Nacimiento de Abajo",
        "name": "El Nacimiento de Abajo",
        "latitude": 20.65361,
        "longitude": -102.28444
    },
    {
        "id": 3005890,
        "wikiDataId": "Q20279976",
        "type": "CITY",
        "city": "El Naranjo",
        "name": "El Naranjo",
        "latitude": 20.53417,
        "longitude": -104.06028
    },
    {
        "id": 3008333,
        "wikiDataId": "Q20251788",
        "type": "CITY",
        "city": "El Nuevo Poblado",
        "name": "El Nuevo Poblado",
        "latitude": 19.52778,
        "longitude": -103.40111
    },
    {
        "id": 3042813,
        "wikiDataId": "Q20242946",
        "type": "CITY",
        "city": "El Ocote",
        "name": "El Ocote",
        "latitude": 20.74028,
        "longitude": -102.51556
    },
    {
        "id": 3050829,
        "wikiDataId": "Q20251890",
        "type": "CITY",
        "city": "El Ocote",
        "name": "El Ocote",
        "latitude": 20.69333,
        "longitude": -102.12333
    },
    {
        "id": 3050366,
        "wikiDataId": "Q20242963",
        "type": "CITY",
        "city": "El Ocotillo",
        "name": "El Ocotillo",
        "latitude": 20.60306,
        "longitude": -103.20722
    },
    {
        "id": 3020782,
        "wikiDataId": "Q20242974",
        "type": "CITY",
        "city": "El Ojo de Agua",
        "name": "El Ojo de Agua",
        "latitude": 20.66361,
        "longitude": -102.355
    },
    {
        "id": 80738,
        "wikiDataId": "Q20242995",
        "type": "CITY",
        "city": "El Ojuelo",
        "name": "El Ojuelo",
        "latitude": 21.40167,
        "longitude": -101.8375
    },
    {
        "id": 3028902,
        "wikiDataId": "Q20243001",
        "type": "CITY",
        "city": "El Olvido",
        "name": "El Olvido",
        "latitude": 20.96583,
        "longitude": -103.65556
    },
    {
        "id": 3061066,
        "wikiDataId": "Q20243017",
        "type": "CITY",
        "city": "El Padre Juan",
        "name": "El Padre Juan",
        "latitude": 21.36,
        "longitude": -102.36583
    },
    {
        "id": 3070037,
        "wikiDataId": "Q20252268",
        "type": "CITY",
        "city": "El Palmar de San Antonio",
        "name": "El Palmar de San Antonio",
        "latitude": 19.89083,
        "longitude": -104.03972
    },
    {
        "id": 3084607,
        "wikiDataId": "Q20243060",
        "type": "CITY",
        "city": "El Pantano",
        "name": "El Pantano",
        "latitude": 20.58,
        "longitude": -104.75472
    },
    {
        "id": 3075296,
        "wikiDataId": "Q20243095",
        "type": "CITY",
        "city": "El Paso Real",
        "name": "El Paso Real",
        "latitude": 19.60457,
        "longitude": -103.95977
    },
    {
        "id": 3020805,
        "wikiDataId": "Q20243464",
        "type": "CITY",
        "city": "El Pino",
        "name": "El Pino",
        "latitude": 20.57667,
        "longitude": -103.39389
    },
    {
        "id": 78246,
        "type": "CITY",
        "city": "El Plan",
        "name": "El Plan",
        "latitude": 20.41836,
        "longitude": -103.60667
    },
    {
        "id": 3047508,
        "wikiDataId": "Q20280347",
        "type": "CITY",
        "city": "El Platanar",
        "name": "El Platanar",
        "latitude": 20.44387,
        "longitude": -103.05006
    },
    {
        "id": 2977655,
        "wikiDataId": "Q20280365",
        "type": "CITY",
        "city": "El Pochote",
        "name": "El Pochote",
        "latitude": 20.81778,
        "longitude": -102.80639
    },
    {
        "id": 3032016,
        "wikiDataId": "Q20243519",
        "type": "CITY",
        "city": "El Popote",
        "name": "El Popote",
        "latitude": 21.91639,
        "longitude": -104.16972
    },
    {
        "id": 77927,
        "wikiDataId": "Q20280380",
        "type": "CITY",
        "city": "El Portezuelo",
        "name": "El Portezuelo",
        "latitude": 20.60004,
        "longitude": -104.04624
    },
    {
        "id": 3063444,
        "wikiDataId": "Q20280382",
        "type": "CITY",
        "city": "El Portezuelo",
        "name": "El Portezuelo",
        "latitude": 20.02889,
        "longitude": -105.47556
    },
    {
        "id": 79209,
        "type": "CITY",
        "city": "El Porvenir",
        "name": "El Porvenir",
        "latitude": 20.75379,
        "longitude": -105.24196
    },
    {
        "id": 2987087,
        "wikiDataId": "Q20243547",
        "type": "CITY",
        "city": "El Pozo Santo",
        "name": "El Pozo Santo",
        "latitude": 19.32611,
        "longitude": -103.38611
    },
    {
        "id": 2969345,
        "wikiDataId": "Q20280500",
        "type": "CITY",
        "city": "El Pueblito",
        "name": "El Pueblito",
        "latitude": 21.4625,
        "longitude": -102.46056
    },
    {
        "id": 3060695,
        "wikiDataId": "Q20243565",
        "type": "CITY",
        "city": "El Puente",
        "name": "El Puente",
        "latitude": 21.76389,
        "longitude": -102.02306
    },
    {
        "id": 3084027,
        "wikiDataId": "Q20280532",
        "type": "CITY",
        "city": "El Puerto",
        "name": "El Puerto",
        "latitude": 20.49222,
        "longitude": -103.45944
    },
    {
        "id": 2982833,
        "wikiDataId": "Q20254545",
        "type": "CITY",
        "city": "El Puerto de Amolero",
        "name": "El Puerto de Amolero",
        "latitude": 20.96639,
        "longitude": -102.12889
    },
    {
        "id": 77751,
        "type": "CITY",
        "city": "El Puesto",
        "name": "El Puesto",
        "latitude": 21.62448,
        "longitude": -101.9654
    },
    {
        "id": 3004975,
        "wikiDataId": "Q20254643",
        "type": "CITY",
        "city": "El Quemado",
        "name": "El Quemado",
        "latitude": 20.79639,
        "longitude": -103.42722
    },
    {
        "id": 3081917,
        "wikiDataId": "Q20243598",
        "type": "CITY",
        "city": "El Quemado",
        "name": "El Quemado",
        "latitude": 19.00111,
        "longitude": -103.30722
    },
    {
        "id": 77868,
        "wikiDataId": "Q20254659",
        "type": "CITY",
        "city": "El Quince",
        "name": "El Quince",
        "latitude": 20.54388,
        "longitude": -103.28467
    },
    {
        "id": 78543,
        "wikiDataId": "Q20243633",
        "type": "CITY",
        "city": "El Ranchito",
        "name": "El Ranchito",
        "latitude": 20.07806,
        "longitude": -103.86861
    },
    {
        "id": 2973617,
        "wikiDataId": "Q20254798",
        "type": "CITY",
        "city": "El Ranchito",
        "name": "El Ranchito",
        "latitude": 20.60139,
        "longitude": -103.78389
    },
    {
        "id": 3097256,
        "wikiDataId": "Q20243658",
        "type": "CITY",
        "city": "El Ranchito",
        "name": "El Ranchito",
        "latitude": 20.5775,
        "longitude": -102.71972
    },
    {
        "id": 2993493,
        "wikiDataId": "Q20243679",
        "type": "CITY",
        "city": "El Rayo",
        "name": "El Rayo",
        "latitude": 19.38083,
        "longitude": -103.16028
    },
    {
        "id": 3069645,
        "wikiDataId": "Q20255008",
        "type": "CITY",
        "city": "El Rebalse",
        "name": "El Rebalse",
        "latitude": 19.1875,
        "longitude": -104.59352
    },
    {
        "id": 3025573,
        "wikiDataId": "Q20243689",
        "type": "CITY",
        "city": "El Rebalsito de Apazulco",
        "name": "El Rebalsito de Apazulco",
        "latitude": 19.30556,
        "longitude": -104.88667
    },
    {
        "id": 3008479,
        "wikiDataId": "Q20243719",
        "type": "CITY",
        "city": "El Refugio",
        "name": "El Refugio",
        "latitude": 20.12231,
        "longitude": -103.14516
    },
    {
        "id": 3020246,
        "wikiDataId": "Q20280645",
        "type": "CITY",
        "city": "El Refugio",
        "name": "El Refugio",
        "latitude": 21.42806,
        "longitude": -101.79528
    },
    {
        "id": 3052594,
        "wikiDataId": "Q20243721",
        "type": "CITY",
        "city": "El Refugio",
        "name": "El Refugio",
        "latitude": 20.52694,
        "longitude": -103.28861
    },
    {
        "id": 3074049,
        "wikiDataId": "Q20280636",
        "type": "CITY",
        "city": "El Refugio Suchitlán",
        "name": "El Refugio Suchitlán",
        "latitude": 20.44333,
        "longitude": -105.54583
    },
    {
        "id": 2983199,
        "wikiDataId": "Q20243698",
        "type": "CITY",
        "city": "El Refugio de Vázquez",
        "name": "El Refugio de Vázquez",
        "latitude": 20.39806,
        "longitude": -102.19306
    },
    {
        "id": 3034184,
        "wikiDataId": "Q20280632",
        "type": "CITY",
        "city": "El Refugio de los Altos",
        "name": "El Refugio de los Altos",
        "latitude": 20.63083,
        "longitude": -102.57944
    },
    {
        "id": 78327,
        "wikiDataId": "Q20004026",
        "type": "CITY",
        "city": "El Refugio, Jalisco",
        "name": "El Refugio, Jalisco",
        "latitude": 20.1167,
        "longitude": -103.133
    },
    {
        "id": 2975562,
        "wikiDataId": "Q20243737",
        "type": "CITY",
        "city": "El Reparo",
        "name": "El Reparo",
        "latitude": 21.79028,
        "longitude": -102.04944
    },
    {
        "id": 3091946,
        "wikiDataId": "Q20243738",
        "type": "CITY",
        "city": "El Reparo",
        "name": "El Reparo",
        "latitude": 19.89825,
        "longitude": -103.51798
    },
    {
        "id": 78033,
        "wikiDataId": "Q20243775",
        "type": "CITY",
        "city": "El Rincón",
        "name": "El Rincón",
        "latitude": 19.34083,
        "longitude": -103.08972
    },
    {
        "id": 78428,
        "wikiDataId": "Q20280787",
        "type": "CITY",
        "city": "El Rodeo",
        "name": "El Rodeo",
        "latitude": 19.58194,
        "longitude": -103.18611
    },
    {
        "id": 3091612,
        "wikiDataId": "Q20243811",
        "type": "CITY",
        "city": "El Rodeo",
        "name": "El Rodeo",
        "latitude": 21.0325,
        "longitude": -103.24083
    },
    {
        "id": 3019317,
        "wikiDataId": "Q20243807",
        "type": "CITY",
        "city": "El Rodeo Viejo",
        "name": "El Rodeo Viejo",
        "latitude": 20.20417,
        "longitude": -103.865
    },
    {
        "id": 80008,
        "wikiDataId": "Q20280793",
        "type": "CITY",
        "city": "El Romereño",
        "name": "El Romereño",
        "latitude": 20.38083,
        "longitude": -102.94944
    },
    {
        "id": 2987273,
        "wikiDataId": "Q20280810",
        "type": "CITY",
        "city": "El Rosario",
        "name": "El Rosario",
        "latitude": 21.04528,
        "longitude": -102.58944
    },
    {
        "id": 3003176,
        "wikiDataId": "Q20243825",
        "type": "CITY",
        "city": "El Rosario",
        "name": "El Rosario",
        "latitude": 20.4775,
        "longitude": -102.27139
    },
    {
        "id": 2986788,
        "wikiDataId": "Q20243835",
        "type": "CITY",
        "city": "El Sabino",
        "name": "El Sabino",
        "latitude": 22.61528,
        "longitude": -103.90389
    },
    {
        "id": 3060698,
        "wikiDataId": "Q20243842",
        "type": "CITY",
        "city": "El Sacrificio",
        "name": "El Sacrificio",
        "latitude": 20.40806,
        "longitude": -103.19667
    },
    {
        "id": 3071949,
        "wikiDataId": "Q20243850",
        "type": "CITY",
        "city": "El Salero",
        "name": "El Salero",
        "latitude": 20.7625,
        "longitude": -102.50917
    },
    {
        "id": 78357,
        "wikiDataId": "Q5352069",
        "type": "CITY",
        "city": "El Salitre",
        "name": "El Salitre",
        "latitude": 20.51,
        "longitude": -103.858
    },
    {
        "id": 3000283,
        "wikiDataId": "Q20280856",
        "type": "CITY",
        "city": "El Salitre",
        "name": "El Salitre",
        "latitude": 20.355,
        "longitude": -102.29167
    },
    {
        "id": 3048428,
        "wikiDataId": "Q20256746",
        "type": "CITY",
        "city": "El Salto",
        "name": "El Salto",
        "latitude": 20.33333,
        "longitude": -104.5
    },
    {
        "id": 155509,
        "wikiDataId": "Q1962071",
        "type": "CITY",
        "city": "El Salto Municipality",
        "name": "El Salto Municipality",
        "latitude": 20.516666666,
        "longitude": -103.183333333
    },
    {
        "id": 3062204,
        "wikiDataId": "Q20280883",
        "type": "CITY",
        "city": "El Salto de San Antonio",
        "name": "El Salto de San Antonio",
        "latitude": 21.17833,
        "longitude": -101.82389
    },
    {
        "id": 3031574,
        "wikiDataId": "Q20280881",
        "type": "CITY",
        "city": "El Salto de las Peñas",
        "name": "El Salto de las Peñas",
        "latitude": 20.6525,
        "longitude": -103.04222
    },
    {
        "id": 78109,
        "type": "CITY",
        "city": "El Salvador",
        "name": "El Salvador",
        "latitude": 21.01659,
        "longitude": -103.71568
    },
    {
        "id": 3017497,
        "wikiDataId": "Q20256841",
        "type": "CITY",
        "city": "El Salvial",
        "name": "El Salvial",
        "latitude": 20.83917,
        "longitude": -103.26306
    },
    {
        "id": 3036327,
        "wikiDataId": "Q20243916",
        "type": "CITY",
        "city": "El Saucillo",
        "name": "El Saucillo",
        "latitude": 20.31389,
        "longitude": -103.91333
    },
    {
        "id": 3094122,
        "wikiDataId": "Q20243917",
        "type": "CITY",
        "city": "El Saucillo",
        "name": "El Saucillo",
        "latitude": 21.02778,
        "longitude": -104.16667
    },
    {
        "id": 2998650,
        "wikiDataId": "Q20280933",
        "type": "CITY",
        "city": "El Saucillo de los Pérez",
        "name": "El Saucillo de los Pérez",
        "latitude": 22.02861,
        "longitude": -103.23444
    },
    {
        "id": 2968413,
        "wikiDataId": "Q20243935",
        "type": "CITY",
        "city": "El Saucito",
        "name": "El Saucito",
        "latitude": 20.73194,
        "longitude": -102.50889
    },
    {
        "id": 3000513,
        "wikiDataId": "Q5823279",
        "type": "CITY",
        "city": "El Saucito",
        "name": "El Saucito",
        "latitude": 21.568518333,
        "longitude": -102.659990555
    },
    {
        "id": 3077480,
        "wikiDataId": "Q20257139",
        "type": "CITY",
        "city": "El Sauz de Ibarra",
        "name": "El Sauz de Ibarra",
        "latitude": 21.33083,
        "longitude": -102.23222
    },
    {
        "id": 3003442,
        "wikiDataId": "Q20280984",
        "type": "CITY",
        "city": "El Seminario",
        "name": "El Seminario",
        "latitude": 21.27333,
        "longitude": -102.30806
    },
    {
        "id": 3045513,
        "wikiDataId": "Q20243959",
        "type": "CITY",
        "city": "El Sitio",
        "name": "El Sitio",
        "latitude": 21.33306,
        "longitude": -102.04056
    },
    {
        "id": 3058480,
        "wikiDataId": "Q20257521",
        "type": "CITY",
        "city": "El Sopial",
        "name": "El Sopial",
        "latitude": 20.58278,
        "longitude": -102.62806
    },
    {
        "id": 2968531,
        "wikiDataId": "Q20257555",
        "type": "CITY",
        "city": "El Soyate",
        "name": "El Soyate",
        "latitude": 21.50667,
        "longitude": -101.8925
    },
    {
        "id": 3051168,
        "wikiDataId": "Q20243976",
        "type": "CITY",
        "city": "El Tablero",
        "name": "El Tablero",
        "latitude": 21.47472,
        "longitude": -102.41639
    },
    {
        "id": 3043645,
        "wikiDataId": "Q20281081",
        "type": "CITY",
        "city": "El Taray",
        "name": "El Taray",
        "latitude": 19.62361,
        "longitude": -103.26806
    },
    {
        "id": 77038,
        "type": "CITY",
        "city": "El Tarengo Nuevo",
        "name": "El Tarengo Nuevo",
        "latitude": 20.43121,
        "longitude": -102.49508
    },
    {
        "id": 2994907,
        "wikiDataId": "Q20257917",
        "type": "CITY",
        "city": "El Tecolote",
        "name": "El Tecolote",
        "latitude": 21.20056,
        "longitude": -102.24583
    },
    {
        "id": 3089291,
        "wikiDataId": "Q20257923",
        "type": "CITY",
        "city": "El Tecolote",
        "name": "El Tecolote",
        "latitude": 20.42972,
        "longitude": -103.48694
    },
    {
        "id": 76910,
        "wikiDataId": "Q20257943",
        "type": "CITY",
        "city": "El Tecuán",
        "name": "El Tecuán",
        "latitude": 20.31389,
        "longitude": -103.73083
    },
    {
        "id": 3058146,
        "wikiDataId": "Q20244029",
        "type": "CITY",
        "city": "El Tempisque",
        "name": "El Tempisque",
        "latitude": 20.77861,
        "longitude": -103.32667
    },
    {
        "id": 2996356,
        "wikiDataId": "Q20244037",
        "type": "CITY",
        "city": "El Tepame",
        "name": "El Tepame",
        "latitude": 20.56972,
        "longitude": -103.19444
    },
    {
        "id": 2986052,
        "wikiDataId": "Q20281119",
        "type": "CITY",
        "city": "El Tepec",
        "name": "El Tepec",
        "latitude": 21.84111,
        "longitude": -103.77389
    },
    {
        "id": 3007901,
        "wikiDataId": "Q20244049",
        "type": "CITY",
        "city": "El Tepetate",
        "name": "El Tepetate",
        "latitude": 21.06472,
        "longitude": -103.77333
    },
    {
        "id": 3036679,
        "wikiDataId": "Q20244048",
        "type": "CITY",
        "city": "El Tepetate",
        "name": "El Tepetate",
        "latitude": 20.78639,
        "longitude": -102.69861
    },
    {
        "id": 2969220,
        "wikiDataId": "Q20281154",
        "type": "CITY",
        "city": "El Tepozán",
        "name": "El Tepozán",
        "latitude": 20.79194,
        "longitude": -102.52917
    },
    {
        "id": 78216,
        "type": "CITY",
        "city": "El Tequesquite",
        "name": "El Tequesquite",
        "latitude": 20.06613,
        "longitude": -105.30064
    },
    {
        "id": 2974170,
        "wikiDataId": "Q20281161",
        "type": "CITY",
        "city": "El Terrerito de Sevilla",
        "name": "El Terrerito de Sevilla",
        "latitude": 20.45417,
        "longitude": -102.08
    },
    {
        "id": 3036300,
        "wikiDataId": "Q20128952",
        "type": "CITY",
        "city": "El Terrero",
        "name": "El Terrero",
        "latitude": 19.29917,
        "longitude": -102.87806
    },
    {
        "id": 3086020,
        "wikiDataId": "Q20281178",
        "type": "CITY",
        "city": "El Terrero",
        "name": "El Terrero",
        "latitude": 20.95778,
        "longitude": -102.96611
    },
    {
        "id": 2996671,
        "wikiDataId": "Q20281234",
        "type": "CITY",
        "city": "El Torque",
        "name": "El Torque",
        "latitude": 21.37056,
        "longitude": -102.36667
    },
    {
        "id": 2981596,
        "wikiDataId": "Q20129927",
        "type": "CITY",
        "city": "El Torreón",
        "name": "El Torreón",
        "latitude": 21.78583,
        "longitude": -102.00139
    },
    {
        "id": 78066,
        "type": "CITY",
        "city": "El Tuito",
        "name": "El Tuito",
        "latitude": 20.32042,
        "longitude": -105.32469
    },
    {
        "id": 78055,
        "wikiDataId": "Q20281294",
        "type": "CITY",
        "city": "El Tule",
        "name": "El Tule",
        "latitude": 20.71667,
        "longitude": -102.44083
    },
    {
        "id": 3055391,
        "wikiDataId": "Q20130754",
        "type": "CITY",
        "city": "El Tulillo",
        "name": "El Tulillo",
        "latitude": 21.20472,
        "longitude": -102.90222
    },
    {
        "id": 3057572,
        "wikiDataId": "Q20281311",
        "type": "CITY",
        "city": "El Uvalano",
        "name": "El Uvalano",
        "latitude": 20.43861,
        "longitude": -102.79028
    },
    {
        "id": 77859,
        "wikiDataId": "Q20244136",
        "type": "CITY",
        "city": "El Verde",
        "name": "El Verde",
        "latitude": 20.55567,
        "longitude": -103.27901
    },
    {
        "id": 3005329,
        "wikiDataId": "Q20131902",
        "type": "CITY",
        "city": "El Vergel",
        "name": "El Vergel",
        "latitude": 21.62139,
        "longitude": -102.30639
    },
    {
        "id": 3044911,
        "wikiDataId": "Q20244143",
        "type": "CITY",
        "city": "El Vigía",
        "name": "El Vigía",
        "latitude": 19.50417,
        "longitude": -104.29639
    },
    {
        "id": 3035356,
        "wikiDataId": "Q20132757",
        "type": "CITY",
        "city": "El Zancudo",
        "name": "El Zancudo",
        "latitude": 20.77972,
        "longitude": -105.15333
    },
    {
        "id": 3020605,
        "wikiDataId": "Q20132796",
        "type": "CITY",
        "city": "El Zapatero",
        "name": "El Zapatero",
        "latitude": 19.86778,
        "longitude": -103.07556
    },
    {
        "id": 76831,
        "wikiDataId": "Q20133209",
        "type": "CITY",
        "city": "El Zapote",
        "name": "El Zapote",
        "latitude": 21.11257,
        "longitude": -102.80555
    },
    {
        "id": 2970953,
        "wikiDataId": "Q20133275",
        "type": "CITY",
        "city": "El Zapote",
        "name": "El Zapote",
        "latitude": 22.255,
        "longitude": -104.21139
    },
    {
        "id": 2980637,
        "wikiDataId": "Q20244156",
        "type": "CITY",
        "city": "El Zapote",
        "name": "El Zapote",
        "latitude": 20.87167,
        "longitude": -102.2375
    },
    {
        "id": 3090252,
        "wikiDataId": "Q20281405",
        "type": "CITY",
        "city": "El Zapote",
        "name": "El Zapote",
        "latitude": 21.19806,
        "longitude": -103.80167
    },
    {
        "id": 2992719,
        "wikiDataId": "Q20244154",
        "type": "CITY",
        "city": "El Zapote de Chávez",
        "name": "El Zapote de Chávez",
        "latitude": 20.21972,
        "longitude": -104.32639
    },
    {
        "id": 3016481,
        "wikiDataId": "Q20133523",
        "type": "CITY",
        "city": "El Zapotillo",
        "name": "El Zapotillo",
        "latitude": 19.96611,
        "longitude": -104.39889
    },
    {
        "id": 79959,
        "wikiDataId": "Q20244176",
        "type": "CITY",
        "city": "Emiliano Zapata",
        "name": "Emiliano Zapata",
        "latitude": 19.24278,
        "longitude": -104.71778
    },
    {
        "id": 3041726,
        "wikiDataId": "Q20134369",
        "type": "CITY",
        "city": "Emiliano Zapata",
        "name": "Emiliano Zapata",
        "latitude": 20.665,
        "longitude": -104.5325
    },
    {
        "id": 3081451,
        "wikiDataId": "Q20244177",
        "type": "CITY",
        "city": "Emiliano Zapata",
        "name": "Emiliano Zapata",
        "latitude": 20.71778,
        "longitude": -103.62639
    },
    {
        "id": 78571,
        "wikiDataId": "Q5371731",
        "type": "CITY",
        "city": "Emiliano Zapata, Jalisco",
        "name": "Emiliano Zapata, Jalisco",
        "latitude": 19.383055555,
        "longitude": -104.965833333
    },
    {
        "id": 78345,
        "wikiDataId": "Q3311368",
        "type": "CITY",
        "city": "Encarnación de Díaz",
        "name": "Encarnación de Díaz",
        "latitude": 21.51666667,
        "longitude": -102.23333333
    },
    {
        "id": 2979340,
        "wikiDataId": "Q20281569",
        "type": "CITY",
        "city": "Epeche Chico",
        "name": "Epeche Chico",
        "latitude": 19.93917,
        "longitude": -103.01972
    },
    {
        "id": 3012526,
        "wikiDataId": "Q20244184",
        "type": "CITY",
        "city": "Epeche Grande",
        "name": "Epeche Grande",
        "latitude": 19.92333,
        "longitude": -103.10667
    },
    {
        "id": 2970329,
        "wikiDataId": "Q20136088",
        "type": "CITY",
        "city": "Estancia Vieja de Arriba",
        "name": "Estancia Vieja de Arriba",
        "latitude": 21.16722,
        "longitude": -102.32389
    },
    {
        "id": 3041010,
        "wikiDataId": "Q20281669",
        "type": "CITY",
        "city": "Estancia de San Nicolás",
        "name": "Estancia de San Nicolás",
        "latitude": 20.38417,
        "longitude": -102.8375
    },
    {
        "id": 3013050,
        "wikiDataId": "Q20244191",
        "type": "CITY",
        "city": "Estanzuela",
        "name": "Estanzuela",
        "latitude": 20.52306,
        "longitude": -104.34
    },
    {
        "id": 3047775,
        "wikiDataId": "Q20136120",
        "type": "CITY",
        "city": "Estanzuela",
        "name": "Estanzuela",
        "latitude": 21.60889,
        "longitude": -102.25861
    },
    {
        "id": 78344,
        "type": "CITY",
        "city": "Estipa",
        "name": "Estipa",
        "latitude": 20.36199,
        "longitude": -103.72345
    },
    {
        "id": 77853,
        "wikiDataId": "Q2060173",
        "type": "CITY",
        "city": "Etzatlán Municipality",
        "name": "Etzatlán Municipality",
        "latitude": 20.766666666,
        "longitude": -104.083333333
    },
    {
        "id": 3031154,
        "wikiDataId": "Q20137989",
        "type": "CITY",
        "city": "Ferrería de Tula",
        "name": "Ferrería de Tula",
        "latitude": 20.06529,
        "longitude": -103.7298
    },
    {
        "id": 2987081,
        "wikiDataId": "Q20244207",
        "type": "CITY",
        "city": "Francisco I. Madero",
        "name": "Francisco I. Madero",
        "latitude": 19.56,
        "longitude": -104.55917
    },
    {
        "id": 80800,
        "wikiDataId": "Q20244208",
        "type": "CITY",
        "city": "Francisco Primo de Verdad",
        "name": "Francisco Primo de Verdad",
        "latitude": 21.74472,
        "longitude": -101.82611
    },
    {
        "id": 79479,
        "wikiDataId": "Q20282302",
        "type": "CITY",
        "city": "Galaxia Bonito Jalisco",
        "name": "Galaxia Bonito Jalisco",
        "latitude": 20.505,
        "longitude": -103.20472
    },
    {
        "id": 79491,
        "wikiDataId": "Q20244216",
        "type": "CITY",
        "city": "Galaxia la Noria",
        "name": "Galaxia la Noria",
        "latitude": 20.45722,
        "longitude": -103.41889
    },
    {
        "id": 78701,
        "type": "CITY",
        "city": "Gargantillo",
        "name": "Gargantillo",
        "latitude": 20.01747,
        "longitude": -105.34619
    },
    {
        "id": 77750,
        "type": "CITY",
        "city": "General Andrés Figueroa",
        "name": "General Andrés Figueroa",
        "latitude": 20.30396,
        "longitude": -103.60923
    },
    {
        "id": 3095195,
        "wikiDataId": "Q20244226",
        "type": "CITY",
        "city": "General Gabriel Leyva",
        "name": "General Gabriel Leyva",
        "latitude": 20.42889,
        "longitude": -102.47111
    },
    {
        "id": 80623,
        "wikiDataId": "Q20244228",
        "type": "CITY",
        "city": "Geovillas Laureles del Campanario",
        "name": "Geovillas Laureles del Campanario",
        "latitude": 21.33056,
        "longitude": -101.92361
    },
    {
        "id": 3018122,
        "wikiDataId": "Q20244229",
        "type": "CITY",
        "city": "Getsemaní",
        "name": "Getsemaní",
        "latitude": 20.72778,
        "longitude": -105.20639
    },
    {
        "id": 81635,
        "wikiDataId": "Q20282471",
        "type": "CITY",
        "city": "Granadillas",
        "name": "Granadillas",
        "latitude": 21.37972,
        "longitude": -101.90139
    },
    {
        "id": 78106,
        "wikiDataId": "Q3098815",
        "type": "CITY",
        "city": "Guachinango",
        "name": "Guachinango",
        "latitude": 20.567,
        "longitude": -104.367
    },
    {
        "id": 78657,
        "wikiDataId": "Q9022",
        "type": "CITY",
        "city": "Guadalajara",
        "name": "Guadalajara",
        "latitude": 20.676666666,
        "longitude": -103.3475
    },
    {
        "id": 77081,
        "type": "CITY",
        "city": "Guadalupe Victoria",
        "name": "Guadalupe Victoria",
        "latitude": 21.70106,
        "longitude": -101.61778
    },
    {
        "id": 77856,
        "type": "CITY",
        "city": "Guadalupe de Lerma",
        "name": "Guadalupe de Lerma",
        "latitude": 20.34077,
        "longitude": -102.3609
    },
    {
        "id": 3034146,
        "wikiDataId": "Q20143387",
        "type": "CITY",
        "city": "Guamuchilillo",
        "name": "Guamuchilillo",
        "latitude": 22.05028,
        "longitude": -104.31583
    },
    {
        "id": 3083992,
        "wikiDataId": "Q20244265",
        "type": "CITY",
        "city": "Guayabitos",
        "name": "Guayabitos",
        "latitude": 20.42611,
        "longitude": -104.73111
    },
    {
        "id": 77818,
        "wikiDataId": "Q3846810",
        "type": "CITY",
        "city": "Gómez Farías Municipality",
        "name": "Gómez Farías Municipality",
        "latitude": 19.8,
        "longitude": -103.48333333
    },
    {
        "id": 79109,
        "wikiDataId": "Q20244286",
        "type": "CITY",
        "city": "Hacienda Santa Fe",
        "name": "Hacienda Santa Fe",
        "latitude": 20.51806,
        "longitude": -103.38056
    },
    {
        "id": 3074847,
        "wikiDataId": "Q20283143",
        "type": "CITY",
        "city": "Hacienda Vieja",
        "name": "Hacienda Vieja",
        "latitude": 19.60083,
        "longitude": -103.21444
    },
    {
        "id": 80563,
        "wikiDataId": "Q20283134",
        "type": "CITY",
        "city": "Hacienda Vieja del Castillo",
        "name": "Hacienda Vieja del Castillo",
        "latitude": 20.54,
        "longitude": -103.24417
    },
    {
        "id": 3087145,
        "wikiDataId": "Q20283093",
        "type": "CITY",
        "city": "Hacienda de la Labor",
        "name": "Hacienda de la Labor",
        "latitude": 20.31639,
        "longitude": -103.17333
    },
    {
        "id": 78954,
        "wikiDataId": "Q20144293",
        "type": "CITY",
        "city": "Hacienda los Fresnos",
        "name": "Hacienda los Fresnos",
        "latitude": 20.51944,
        "longitude": -103.39306
    },
    {
        "id": 3074452,
        "wikiDataId": "Q20244293",
        "type": "CITY",
        "city": "Haciendas la Herradura",
        "name": "Haciendas la Herradura",
        "latitude": 20.7725,
        "longitude": -103.60861
    },
    {
        "id": 3040590,
        "wikiDataId": "Q20283261",
        "type": "CITY",
        "city": "Hierba de Matancillas",
        "name": "Hierba de Matancillas",
        "latitude": 21.86528,
        "longitude": -101.67333
    },
    {
        "id": 3015236,
        "wikiDataId": "Q20283283",
        "type": "CITY",
        "city": "Higueras San Miguel",
        "name": "Higueras San Miguel",
        "latitude": 19.59472,
        "longitude": -103.17944
    },
    {
        "id": 3010977,
        "wikiDataId": "Q20145030",
        "type": "CITY",
        "city": "Higuerillas",
        "name": "Higuerillas",
        "latitude": 20.76083,
        "longitude": -102.47417
    },
    {
        "id": 155233,
        "wikiDataId": "Q3141042",
        "type": "CITY",
        "city": "Hostotipaquillo",
        "name": "Hostotipaquillo",
        "latitude": 21.06035,
        "longitude": -104.05091
    },
    {
        "id": 3074840,
        "wikiDataId": "Q20283375",
        "type": "CITY",
        "city": "Huajacatlán",
        "name": "Huajacatlán",
        "latitude": 21.04444,
        "longitude": -103.95222
    },
    {
        "id": 77948,
        "type": "CITY",
        "city": "Huascato",
        "name": "Huascato",
        "latitude": 20.47951,
        "longitude": -102.24806
    },
    {
        "id": 77959,
        "type": "CITY",
        "city": "Huaxtla",
        "name": "Huaxtla",
        "latitude": 20.73179,
        "longitude": -103.66291
    },
    {
        "id": 3046175,
        "wikiDataId": "Q20244313",
        "type": "CITY",
        "city": "Huejotitlán",
        "name": "Huejotitlán",
        "latitude": 20.65694,
        "longitude": -103.04222
    },
    {
        "id": 3049817,
        "wikiDataId": "Q20283464",
        "type": "CITY",
        "city": "Huejotitlán",
        "name": "Huejotitlán",
        "latitude": 21.3911,
        "longitude": -102.63686
    },
    {
        "id": 77912,
        "type": "CITY",
        "city": "Huejotitán",
        "name": "Huejotitán",
        "latitude": 20.35524,
        "longitude": -103.48742
    },
    {
        "id": 78070,
        "wikiDataId": "Q2179164",
        "type": "CITY",
        "city": "Huejuquilla El Alto Municipality",
        "name": "Huejuquilla El Alto Municipality",
        "latitude": 22.616666666,
        "longitude": -103.883333333
    },
    {
        "id": 155347,
        "wikiDataId": "Q3142198",
        "type": "CITY",
        "city": "Huejúcar",
        "name": "Huejúcar",
        "latitude": 22.33409,
        "longitude": -103.25253
    },
    {
        "id": 3074902,
        "wikiDataId": "Q20146157",
        "type": "CITY",
        "city": "Huertas Familiares San Pedro",
        "name": "Huertas Familiares San Pedro",
        "latitude": 21.3275,
        "longitude": -101.97444
    },
    {
        "id": 3030017,
        "wikiDataId": "Q20146552",
        "type": "CITY",
        "city": "Huisichi",
        "name": "Huisichi",
        "latitude": 19.56611,
        "longitude": -103.86556
    },
    {
        "id": 3049112,
        "wikiDataId": "Q20283667",
        "type": "CITY",
        "city": "Huitzometl",
        "name": "Huitzometl",
        "latitude": 19.51,
        "longitude": -103.7525
    },
    {
        "id": 3093175,
        "wikiDataId": "Q20146762",
        "type": "CITY",
        "city": "Huizaches",
        "name": "Huizaches",
        "latitude": 19.17167,
        "longitude": -103.49
    },
    {
        "id": 2976123,
        "wikiDataId": "Q20147484",
        "type": "CITY",
        "city": "IPROVIPE I",
        "name": "IPROVIPE I",
        "latitude": 20.88639,
        "longitude": -103.82444
    },
    {
        "id": 3033876,
        "wikiDataId": "Q16892699",
        "type": "CITY",
        "city": "Ipazoltic",
        "name": "Ipazoltic",
        "latitude": 20.4333,
        "longitude": -103.983
    },
    {
        "id": 78241,
        "wikiDataId": "Q20148028",
        "type": "CITY",
        "city": "Ixtapa",
        "name": "Ixtapa",
        "latitude": 20.71623,
        "longitude": -105.20408
    },
    {
        "id": 78580,
        "wikiDataId": "Q27784496",
        "type": "CITY",
        "city": "Ixtlahuacán de los Membrillos",
        "name": "Ixtlahuacán de los Membrillos",
        "latitude": 20.346666666,
        "longitude": -103.191388888
    },
    {
        "id": 78262,
        "wikiDataId": "Q2884370",
        "type": "CITY",
        "city": "Ixtlahuacán del Río",
        "name": "Ixtlahuacán del Río",
        "latitude": 20.86666667,
        "longitude": -103.25
    },
    {
        "id": 2994258,
        "wikiDataId": "Q20284026",
        "type": "CITY",
        "city": "Izolta",
        "name": "Izolta",
        "latitude": 22.01,
        "longitude": -103.74639
    },
    {
        "id": 2975025,
        "wikiDataId": "Q20148202",
        "type": "CITY",
        "city": "J. Isabel Flores",
        "name": "J. Isabel Flores",
        "latitude": 20.6375,
        "longitude": -103.07806
    },
    {
        "id": 77783,
        "wikiDataId": "Q20284119",
        "type": "CITY",
        "city": "Jalostotitlan",
        "name": "Jalostotitlan",
        "latitude": 21.16741,
        "longitude": -102.46386
    },
    {
        "id": 78533,
        "wikiDataId": "Q20148566",
        "type": "CITY",
        "city": "Jaluco",
        "name": "Jaluco",
        "latitude": 19.23089,
        "longitude": -104.68527
    },
    {
        "id": 78242,
        "wikiDataId": "Q3160815",
        "type": "CITY",
        "city": "Jamay",
        "name": "Jamay",
        "latitude": 20.294444444,
        "longitude": -102.709722222
    },
    {
        "id": 80094,
        "wikiDataId": "Q20244350",
        "type": "CITY",
        "city": "Jardines de San Sebastián",
        "name": "Jardines de San Sebastián",
        "latitude": 20.51889,
        "longitude": -103.42222
    },
    {
        "id": 79999,
        "wikiDataId": "Q20148700",
        "type": "CITY",
        "city": "Jardines del Edén",
        "name": "Jardines del Edén",
        "latitude": 20.5325,
        "longitude": -103.36278
    },
    {
        "id": 3028704,
        "wikiDataId": "Q20284163",
        "type": "CITY",
        "city": "Jaritas",
        "name": "Jaritas",
        "latitude": 21.31167,
        "longitude": -101.9975
    },
    {
        "id": 154869,
        "wikiDataId": "Q3505608",
        "type": "CITY",
        "city": "Jesús María",
        "name": "Jesús María",
        "latitude": 20.666666666,
        "longitude": -103.350277777
    },
    {
        "id": 2972213,
        "wikiDataId": "Q20244355",
        "type": "CITY",
        "city": "Jesús María",
        "name": "Jesús María",
        "latitude": 20.90167,
        "longitude": -102.34556
    },
    {
        "id": 3012069,
        "wikiDataId": "Q6188541",
        "type": "CITY",
        "city": "Jesús María, Nayarit",
        "name": "Jesús María, Nayarit",
        "latitude": 20.66667,
        "longitude": -104.2667
    },
    {
        "id": 77778,
        "wikiDataId": "Q938672",
        "type": "CITY",
        "city": "Jilotlán de los Dolores",
        "name": "Jilotlán de los Dolores",
        "latitude": 19.370833333,
        "longitude": -103.019722222
    },
    {
        "id": 78566,
        "type": "CITY",
        "city": "Jiquilpan",
        "name": "Jiquilpan",
        "latitude": 19.77889,
        "longitude": -103.77895
    },
    {
        "id": 81682,
        "wikiDataId": "Q20149445",
        "type": "CITY",
        "city": "Joconoxtle",
        "name": "Joconoxtle",
        "latitude": 20.45222,
        "longitude": -102.67639
    },
    {
        "id": 77781,
        "wikiDataId": "Q609546",
        "type": "CITY",
        "city": "Jocotepec",
        "name": "Jocotepec",
        "latitude": 20.166666666,
        "longitude": -103.283333333
    },
    {
        "id": 3086287,
        "wikiDataId": "Q20284635",
        "type": "CITY",
        "city": "Josefa Ortíz de Domínguez",
        "name": "Josefa Ortíz de Domínguez",
        "latitude": 20.9,
        "longitude": -103.83306
    },
    {
        "id": 80122,
        "wikiDataId": "Q20284602",
        "type": "CITY",
        "city": "José María Pino Suárez",
        "name": "José María Pino Suárez",
        "latitude": 19.94889,
        "longitude": -105.32778
    },
    {
        "id": 3013277,
        "wikiDataId": "Q20284471",
        "type": "CITY",
        "city": "José de Jesús Aguirre, Teocaltiche",
        "name": "José de Jesús Aguirre, Teocaltiche",
        "latitude": 21.52167,
        "longitude": -102.47139
    },
    {
        "id": 78690,
        "type": "CITY",
        "city": "Juan Gil Preciado",
        "name": "Juan Gil Preciado",
        "latitude": 20.37269,
        "longitude": -103.72752
    },
    {
        "id": 155551,
        "wikiDataId": "Q3175319",
        "type": "CITY",
        "city": "Juanacatlán",
        "name": "Juanacatlán",
        "latitude": 20.5,
        "longitude": -103.166666666
    },
    {
        "id": 79124,
        "wikiDataId": "Q20285556",
        "type": "CITY",
        "city": "La Alameda",
        "name": "La Alameda",
        "latitude": 20.49528,
        "longitude": -103.24833
    },
    {
        "id": 3031760,
        "wikiDataId": "Q20244428",
        "type": "CITY",
        "city": "La Aldaba",
        "name": "La Aldaba",
        "latitude": 19.74964,
        "longitude": -104.23306
    },
    {
        "id": 2981991,
        "wikiDataId": "Q20244434",
        "type": "CITY",
        "city": "La Angostura de los Altos",
        "name": "La Angostura de los Altos",
        "latitude": 20.56194,
        "longitude": -102.435
    },
    {
        "id": 3025790,
        "wikiDataId": "Q20244444",
        "type": "CITY",
        "city": "La Arbolada Plus",
        "name": "La Arbolada Plus",
        "latitude": 20.53694,
        "longitude": -103.36389
    },
    {
        "id": 78020,
        "wikiDataId": "Q568688",
        "type": "CITY",
        "city": "La Barca",
        "name": "La Barca",
        "latitude": 20.28333333,
        "longitude": -102.56666667
    },
    {
        "id": 3000604,
        "wikiDataId": "Q20286154",
        "type": "CITY",
        "city": "La Barranca",
        "name": "La Barranca",
        "latitude": 20.51639,
        "longitude": -103.07306
    },
    {
        "id": 2981880,
        "wikiDataId": "Q20244536",
        "type": "CITY",
        "city": "La Calera",
        "name": "La Calera",
        "latitude": 21.49694,
        "longitude": -102.58556
    },
    {
        "id": 3025455,
        "wikiDataId": "Q20244537",
        "type": "CITY",
        "city": "La Calera",
        "name": "La Calera",
        "latitude": 21.19389,
        "longitude": -102.88389
    },
    {
        "id": 3011442,
        "wikiDataId": "Q20244532",
        "type": "CITY",
        "city": "La Calera Fraccionamiento",
        "name": "La Calera Fraccionamiento",
        "latitude": 21.26889,
        "longitude": -102.33778
    },
    {
        "id": 2968843,
        "wikiDataId": "Q20244577",
        "type": "CITY",
        "city": "La Cantera",
        "name": "La Cantera",
        "latitude": 21.34333,
        "longitude": -102.01972
    },
    {
        "id": 3019816,
        "wikiDataId": "Q20244574",
        "type": "CITY",
        "city": "La Cantera",
        "name": "La Cantera",
        "latitude": 20.84778,
        "longitude": -103.7325
    },
    {
        "id": 2996014,
        "wikiDataId": "Q20244564",
        "type": "CITY",
        "city": "La Cañada",
        "name": "La Cañada",
        "latitude": 20.48222,
        "longitude": -102.94306
    },
    {
        "id": 3096168,
        "wikiDataId": "Q20244561",
        "type": "CITY",
        "city": "La Cañada",
        "name": "La Cañada",
        "latitude": 20.13083,
        "longitude": -103.05
    },
    {
        "id": 3065760,
        "wikiDataId": "Q20244553",
        "type": "CITY",
        "city": "La Cañada Tezcaltilti",
        "name": "La Cañada Tezcaltilti",
        "latitude": 20.01167,
        "longitude": -103.71278
    },
    {
        "id": 3045978,
        "wikiDataId": "Q20244599",
        "type": "CITY",
        "city": "La Cebadilla",
        "name": "La Cebadilla",
        "latitude": 20.89028,
        "longitude": -102.7425
    },
    {
        "id": 2998803,
        "wikiDataId": "Q20244603",
        "type": "CITY",
        "city": "La Ceja de la Capilla",
        "name": "La Ceja de la Capilla",
        "latitude": 20.73583,
        "longitude": -102.41833
    },
    {
        "id": 3002892,
        "wikiDataId": "Q20244606",
        "type": "CITY",
        "city": "La Cerca Blanca",
        "name": "La Cerca Blanca",
        "latitude": 21.15806,
        "longitude": -102.88361
    },
    {
        "id": 2994157,
        "wikiDataId": "Q20244634",
        "type": "CITY",
        "city": "La Cieneguita",
        "name": "La Cieneguita",
        "latitude": 20.75611,
        "longitude": -102.29944
    },
    {
        "id": 78288,
        "wikiDataId": "Q20244632",
        "type": "CITY",
        "city": "La Ciénega",
        "name": "La Ciénega",
        "latitude": 20.66056,
        "longitude": -102.71333
    },
    {
        "id": 2990573,
        "wikiDataId": "Q20244617",
        "type": "CITY",
        "city": "La Ciénega de Huaistita",
        "name": "La Ciénega de Huaistita",
        "latitude": 22.06306,
        "longitude": -104.32583
    },
    {
        "id": 3036406,
        "wikiDataId": "Q20244651",
        "type": "CITY",
        "city": "La Cofradía",
        "name": "La Cofradía",
        "latitude": 22.61361,
        "longitude": -103.92417
    },
    {
        "id": 3059933,
        "wikiDataId": "Q20244643",
        "type": "CITY",
        "city": "La Cofradía del Rosario",
        "name": "La Cofradía del Rosario",
        "latitude": 19.88861,
        "longitude": -103.72444
    },
    {
        "id": 3079563,
        "wikiDataId": "Q20244663",
        "type": "CITY",
        "city": "La Colonia San Juanito",
        "name": "La Colonia San Juanito",
        "latitude": 21.19361,
        "longitude": -102.90472
    },
    {
        "id": 78520,
        "type": "CITY",
        "city": "La Concepción",
        "name": "La Concepción",
        "latitude": 20.35171,
        "longitude": -102.32959
    },
    {
        "id": 2999049,
        "wikiDataId": "Q20244672",
        "type": "CITY",
        "city": "La Conchilla",
        "name": "La Conchilla",
        "latitude": 20.90528,
        "longitude": -103.73861
    },
    {
        "id": 2983381,
        "wikiDataId": "Q20244673",
        "type": "CITY",
        "city": "La Conchita",
        "name": "La Conchita",
        "latitude": 19.49972,
        "longitude": -104.56139
    },
    {
        "id": 3013834,
        "wikiDataId": "Q20288116",
        "type": "CITY",
        "city": "La Constancia",
        "name": "La Constancia",
        "latitude": 20.40333,
        "longitude": -102.98361
    },
    {
        "id": 2996942,
        "wikiDataId": "Q20288428",
        "type": "CITY",
        "city": "La Cruz",
        "name": "La Cruz",
        "latitude": 20.25083,
        "longitude": -103.59111
    },
    {
        "id": 3069894,
        "wikiDataId": "Q20288385",
        "type": "CITY",
        "city": "La Cruz",
        "name": "La Cruz",
        "latitude": 21.31778,
        "longitude": -101.71306
    },
    {
        "id": 78700,
        "type": "CITY",
        "city": "La Cruz de Loreto",
        "name": "La Cruz de Loreto",
        "latitude": 20.00755,
        "longitude": -105.45508
    },
    {
        "id": 80057,
        "wikiDataId": "Q20244719",
        "type": "CITY",
        "city": "La Cuchilla",
        "name": "La Cuchilla",
        "latitude": 20.78,
        "longitude": -103.46222
    },
    {
        "id": 3029317,
        "wikiDataId": "Q20288594",
        "type": "CITY",
        "city": "La Cuesta de Medina",
        "name": "La Cuesta de Medina",
        "latitude": 21.22583,
        "longitude": -102.33056
    },
    {
        "id": 3047584,
        "wikiDataId": "Q20288636",
        "type": "CITY",
        "city": "La Cueva",
        "name": "La Cueva",
        "latitude": 21.24056,
        "longitude": -102.59444
    },
    {
        "id": 3000471,
        "wikiDataId": "Q20289587",
        "type": "CITY",
        "city": "La Estacada",
        "name": "La Estacada",
        "latitude": 19.93528,
        "longitude": -103.03472
    },
    {
        "id": 3017847,
        "wikiDataId": "Q20244857",
        "type": "CITY",
        "city": "La Estancia",
        "name": "La Estancia",
        "latitude": 21.04694,
        "longitude": -102.84167
    },
    {
        "id": 3018715,
        "wikiDataId": "Q20244855",
        "type": "CITY",
        "city": "La Estancia",
        "name": "La Estancia",
        "latitude": 19.70889,
        "longitude": -103.21889
    },
    {
        "id": 3059441,
        "wikiDataId": "Q20244828",
        "type": "CITY",
        "city": "La Estancia de Arriba",
        "name": "La Estancia de Arriba",
        "latitude": 22.61972,
        "longitude": -103.90861
    },
    {
        "id": 3088906,
        "wikiDataId": "Q20244831",
        "type": "CITY",
        "city": "La Estancia de Ayones",
        "name": "La Estancia de Ayones",
        "latitude": 20.8822,
        "longitude": -104.08717
    },
    {
        "id": 3050365,
        "wikiDataId": "Q20289638",
        "type": "CITY",
        "city": "La Estancia de Navarro",
        "name": "La Estancia de Navarro",
        "latitude": 20.54917,
        "longitude": -102.60944
    },
    {
        "id": 2996416,
        "wikiDataId": "Q20244861",
        "type": "CITY",
        "city": "La Estancita",
        "name": "La Estancita",
        "latitude": 20.56722,
        "longitude": -104.01083
    },
    {
        "id": 3047491,
        "wikiDataId": "Q20289739",
        "type": "CITY",
        "city": "La Estancita",
        "name": "La Estancita",
        "latitude": 20.73694,
        "longitude": -103.99806
    },
    {
        "id": 78735,
        "wikiDataId": "Q20289767",
        "type": "CITY",
        "city": "La Estanzuela",
        "name": "La Estanzuela",
        "latitude": 20.66892,
        "longitude": -103.82609
    },
    {
        "id": 3004342,
        "wikiDataId": "Q20244892",
        "type": "CITY",
        "city": "La Floreña",
        "name": "La Floreña",
        "latitude": 20.4675,
        "longitude": -102.735
    },
    {
        "id": 3020928,
        "wikiDataId": "Q20290161",
        "type": "CITY",
        "city": "La Fortuna Fraccionamiento",
        "name": "La Fortuna Fraccionamiento",
        "latitude": 20.48472,
        "longitude": -103.39583
    },
    {
        "id": 2997755,
        "wikiDataId": "Q20290255",
        "type": "CITY",
        "city": "La Frontera",
        "name": "La Frontera",
        "latitude": 19.96083,
        "longitude": -103.71139
    },
    {
        "id": 78042,
        "wikiDataId": "Q6462721",
        "type": "CITY",
        "city": "La Garita, Jalisco",
        "name": "La Garita, Jalisco",
        "latitude": 19.76666667,
        "longitude": -103.11666667
    },
    {
        "id": 3094022,
        "wikiDataId": "Q20290359",
        "type": "CITY",
        "city": "La Garruña",
        "name": "La Garruña",
        "latitude": 20.95556,
        "longitude": -103.13944
    },
    {
        "id": 2997005,
        "wikiDataId": "Q20244939",
        "type": "CITY",
        "city": "La Gila",
        "name": "La Gila",
        "latitude": 20.61444,
        "longitude": -102.20472
    },
    {
        "id": 3057792,
        "wikiDataId": "Q20290399",
        "type": "CITY",
        "city": "La Gloria",
        "name": "La Gloria",
        "latitude": 20.61222,
        "longitude": -102.38389
    },
    {
        "id": 3055847,
        "wikiDataId": "Q20244957",
        "type": "CITY",
        "city": "La Granjena",
        "name": "La Granjena",
        "latitude": 20.70694,
        "longitude": -102.44361
    },
    {
        "id": 3037249,
        "wikiDataId": "Q20250605",
        "type": "CITY",
        "city": "La Guadalupe",
        "name": "La Guadalupe",
        "latitude": 19.73556,
        "longitude": -103.78083
    },
    {
        "id": 2988757,
        "wikiDataId": "Q20244981",
        "type": "CITY",
        "city": "La Guásima",
        "name": "La Guásima",
        "latitude": 22.11889,
        "longitude": -103.74111
    },
    {
        "id": 2991296,
        "wikiDataId": "Q20245021",
        "type": "CITY",
        "city": "La Hermosura",
        "name": "La Hermosura",
        "latitude": 20.11333,
        "longitude": -103.60139
    },
    {
        "id": 77762,
        "wikiDataId": "Q20250977",
        "type": "CITY",
        "city": "La Higuera",
        "name": "La Higuera",
        "latitude": 19.42358,
        "longitude": -103.40955
    },
    {
        "id": 3035416,
        "wikiDataId": "Q20245042",
        "type": "CITY",
        "city": "La Higuera",
        "name": "La Higuera",
        "latitude": 20.54528,
        "longitude": -104.07681
    },
    {
        "id": 3086998,
        "wikiDataId": "Q20245048",
        "type": "CITY",
        "city": "La Higuera",
        "name": "La Higuera",
        "latitude": 20.80028,
        "longitude": -103.23
    },
    {
        "id": 77897,
        "wikiDataId": "Q27784063",
        "type": "CITY",
        "city": "La Huerta",
        "name": "La Huerta",
        "latitude": 19.484444444,
        "longitude": -104.643888888
    },
    {
        "id": 3009879,
        "wikiDataId": "Q20245088",
        "type": "CITY",
        "city": "La Huevera",
        "name": "La Huevera",
        "latitude": 19.88917,
        "longitude": -103.12
    },
    {
        "id": 78281,
        "wikiDataId": "Q20251248",
        "type": "CITY",
        "city": "La Isla",
        "name": "La Isla",
        "latitude": 21.39472,
        "longitude": -101.92278
    },
    {
        "id": 3046311,
        "wikiDataId": "Q20251265",
        "type": "CITY",
        "city": "La Isla",
        "name": "La Isla",
        "latitude": 20.59611,
        "longitude": -102.74889
    },
    {
        "id": 2990971,
        "wikiDataId": "Q20291097",
        "type": "CITY",
        "city": "La Jarrilla",
        "name": "La Jarrilla",
        "latitude": 21.05444,
        "longitude": -102.95417
    },
    {
        "id": 3094642,
        "wikiDataId": "Q20291183",
        "type": "CITY",
        "city": "La Joya",
        "name": "La Joya",
        "latitude": 19.94472,
        "longitude": -102.86944
    },
    {
        "id": 3037890,
        "wikiDataId": "Q20245121",
        "type": "CITY",
        "city": "La Joya Chica",
        "name": "La Joya Chica",
        "latitude": 20.71021,
        "longitude": -103.0025
    },
    {
        "id": 3084747,
        "wikiDataId": "Q20245127",
        "type": "CITY",
        "city": "La Joya Grande",
        "name": "La Joya Grande",
        "latitude": 20.70861,
        "longitude": -103.04444
    },
    {
        "id": 3015353,
        "wikiDataId": "Q20291254",
        "type": "CITY",
        "city": "La Labor de la Concepción",
        "name": "La Labor de la Concepción",
        "latitude": 21.23306,
        "longitude": -102.78333
    },
    {
        "id": 3018567,
        "wikiDataId": "Q20245164",
        "type": "CITY",
        "city": "La Labor de los Alba",
        "name": "La Labor de los Alba",
        "latitude": 21.37722,
        "longitude": -102.31639
    },
    {
        "id": 2998939,
        "wikiDataId": "Q20245181",
        "type": "CITY",
        "city": "La Ladera",
        "name": "La Ladera",
        "latitude": 20.20722,
        "longitude": -104.15139
    },
    {
        "id": 3062415,
        "wikiDataId": "Q20291304",
        "type": "CITY",
        "city": "La Ladera",
        "name": "La Ladera",
        "latitude": 20.60167,
        "longitude": -102.74194
    },
    {
        "id": 3096127,
        "wikiDataId": "Q20245176",
        "type": "CITY",
        "city": "La Ladera Grande",
        "name": "La Ladera Grande",
        "latitude": 20.52417,
        "longitude": -102.35167
    },
    {
        "id": 2977743,
        "wikiDataId": "Q20291403",
        "type": "CITY",
        "city": "La Laguna",
        "name": "La Laguna",
        "latitude": 22.25417,
        "longitude": -104.20667
    },
    {
        "id": 3084099,
        "wikiDataId": "Q20245217",
        "type": "CITY",
        "city": "La Laguna",
        "name": "La Laguna",
        "latitude": 19.54278,
        "longitude": -103.97861
    },
    {
        "id": 3014366,
        "wikiDataId": "Q20245203",
        "type": "CITY",
        "city": "La Laguna Grande",
        "name": "La Laguna Grande",
        "latitude": 20.93611,
        "longitude": -103.06111
    },
    {
        "id": 77867,
        "wikiDataId": "Q20245239",
        "type": "CITY",
        "city": "La Laja",
        "name": "La Laja",
        "latitude": 19.85481,
        "longitude": -104.2852
    },
    {
        "id": 3078060,
        "wikiDataId": "Q20245269",
        "type": "CITY",
        "city": "La Lobera",
        "name": "La Lobera",
        "latitude": 21.08694,
        "longitude": -103.56583
    },
    {
        "id": 2972408,
        "wikiDataId": "Q20245314",
        "type": "CITY",
        "city": "La Loma",
        "name": "La Loma",
        "latitude": 20.44139,
        "longitude": -102.08833
    },
    {
        "id": 3036075,
        "wikiDataId": "Q20245320",
        "type": "CITY",
        "city": "La Loma",
        "name": "La Loma",
        "latitude": 20.85694,
        "longitude": -103.22278
    },
    {
        "id": 3051456,
        "wikiDataId": "Q20291841",
        "type": "CITY",
        "city": "La Loma",
        "name": "La Loma",
        "latitude": 21.13944,
        "longitude": -102.31222
    },
    {
        "id": 3094551,
        "wikiDataId": "Q20291850",
        "type": "CITY",
        "city": "La Loma",
        "name": "La Loma",
        "latitude": 20.79806,
        "longitude": -102.73917
    },
    {
        "id": 3096251,
        "wikiDataId": "Q20252415",
        "type": "CITY",
        "city": "La Loma de los Rizo",
        "name": "La Loma de los Rizo",
        "latitude": 20.72444,
        "longitude": -102.22222
    },
    {
        "id": 2997449,
        "wikiDataId": "Q20291751",
        "type": "CITY",
        "city": "La Loma del Nopal",
        "name": "La Loma del Nopal",
        "latitude": 20.73,
        "longitude": -102.40167
    },
    {
        "id": 3029091,
        "wikiDataId": "Q20245342",
        "type": "CITY",
        "city": "La Lomita",
        "name": "La Lomita",
        "latitude": 21.44056,
        "longitude": -102.31278
    },
    {
        "id": 3052801,
        "wikiDataId": "Q20252854",
        "type": "CITY",
        "city": "La Luz",
        "name": "La Luz",
        "latitude": 20.44917,
        "longitude": -102.7175
    },
    {
        "id": 77890,
        "wikiDataId": "Q6463699",
        "type": "CITY",
        "city": "La Manzanilla",
        "name": "La Manzanilla",
        "latitude": 19.281111111,
        "longitude": -104.7875
    },
    {
        "id": 155172,
        "wikiDataId": "Q3845830",
        "type": "CITY",
        "city": "La Manzanilla de La Paz",
        "name": "La Manzanilla de La Paz",
        "latitude": 19.916666666,
        "longitude": -102.016666666
    },
    {
        "id": 3023809,
        "wikiDataId": "Q20245399",
        "type": "CITY",
        "city": "La Mata",
        "name": "La Mata",
        "latitude": 20.89528,
        "longitude": -103.74889
    },
    {
        "id": 3053901,
        "wikiDataId": "Q20292193",
        "type": "CITY",
        "city": "La Merced",
        "name": "La Merced",
        "latitude": 21.4825,
        "longitude": -101.86722
    },
    {
        "id": 2976994,
        "wikiDataId": "Q27831805",
        "type": "CITY",
        "city": "La Mesa",
        "name": "La Mesa",
        "latitude": 20.54944,
        "longitude": -103.11918
    },
    {
        "id": 2981659,
        "wikiDataId": "Q20245466",
        "type": "CITY",
        "city": "La Mesa",
        "name": "La Mesa",
        "latitude": 19.6222,
        "longitude": -103.51658
    },
    {
        "id": 3000014,
        "wikiDataId": "Q20253471",
        "type": "CITY",
        "city": "La Mesa",
        "name": "La Mesa",
        "latitude": 20.63139,
        "longitude": -103.02139
    },
    {
        "id": 3000985,
        "wikiDataId": "Q20292330",
        "type": "CITY",
        "city": "La Mesa",
        "name": "La Mesa",
        "latitude": 19.61139,
        "longitude": -104.87694
    },
    {
        "id": 2967329,
        "wikiDataId": "Q20245436",
        "type": "CITY",
        "city": "La Mesa del Guitarrero",
        "name": "La Mesa del Guitarrero",
        "latitude": 20.66972,
        "longitude": -102.76667
    },
    {
        "id": 3038815,
        "wikiDataId": "Q20292392",
        "type": "CITY",
        "city": "La Mesita",
        "name": "La Mesita",
        "latitude": 20.83889,
        "longitude": -103.50667
    },
    {
        "id": 2970355,
        "wikiDataId": "Q20245481",
        "type": "CITY",
        "city": "La Mezcalilla",
        "name": "La Mezcalilla",
        "latitude": 20.4525,
        "longitude": -103.12306
    },
    {
        "id": 81604,
        "wikiDataId": "Q20292423",
        "type": "CITY",
        "city": "La Mezquitera",
        "name": "La Mezquitera",
        "latitude": 20.55833,
        "longitude": -103.1125
    },
    {
        "id": 3072973,
        "wikiDataId": "Q20292417",
        "type": "CITY",
        "city": "La Mezquitera",
        "name": "La Mezquitera",
        "latitude": 21.9225,
        "longitude": -103.43861
    },
    {
        "id": 3010871,
        "wikiDataId": "Q20292427",
        "type": "CITY",
        "city": "La Mial",
        "name": "La Mial",
        "latitude": 20.58639,
        "longitude": -103.275
    },
    {
        "id": 2972182,
        "wikiDataId": "Q20245496",
        "type": "CITY",
        "city": "La Mina",
        "name": "La Mina",
        "latitude": 20.9475,
        "longitude": -102.7225
    },
    {
        "id": 3004017,
        "wikiDataId": "Q20292512",
        "type": "CITY",
        "city": "La Mojarra",
        "name": "La Mojarra",
        "latitude": 20.84944,
        "longitude": -103.0425
    },
    {
        "id": 3068771,
        "wikiDataId": "Q20292550",
        "type": "CITY",
        "city": "La Mora",
        "name": "La Mora",
        "latitude": 20.70575,
        "longitude": -104.03409
    },
    {
        "id": 2984768,
        "wikiDataId": "Q20245537",
        "type": "CITY",
        "city": "La Mota",
        "name": "La Mota",
        "latitude": 20.70556,
        "longitude": -102.69028
    },
    {
        "id": 3027442,
        "wikiDataId": "Q20292648",
        "type": "CITY",
        "city": "La Nance",
        "name": "La Nance",
        "latitude": 19.48667,
        "longitude": -104.39639
    },
    {
        "id": 3014205,
        "wikiDataId": "Q20245560",
        "type": "CITY",
        "city": "La Nopalera",
        "name": "La Nopalera",
        "latitude": 20.4775,
        "longitude": -102.40056
    },
    {
        "id": 3019425,
        "wikiDataId": "Q20128616",
        "type": "CITY",
        "city": "La Noria",
        "name": "La Noria",
        "latitude": 21.10972,
        "longitude": -101.8375
    },
    {
        "id": 3078650,
        "wikiDataId": "Q20245574",
        "type": "CITY",
        "city": "La Orilla de la Cerca",
        "name": "La Orilla de la Cerca",
        "latitude": 20.36556,
        "longitude": -102.71667
    },
    {
        "id": 3092685,
        "wikiDataId": "Q20129248",
        "type": "CITY",
        "city": "La Orilla del Agua",
        "name": "La Orilla del Agua",
        "latitude": 21.38389,
        "longitude": -101.9525
    },
    {
        "id": 3017404,
        "wikiDataId": "Q20245585",
        "type": "CITY",
        "city": "La Palma",
        "name": "La Palma",
        "latitude": 21.38778,
        "longitude": -101.92167
    },
    {
        "id": 3020199,
        "wikiDataId": "Q20130040",
        "type": "CITY",
        "city": "La Palma",
        "name": "La Palma",
        "latitude": 20.61833,
        "longitude": -103.03889
    },
    {
        "id": 3036400,
        "wikiDataId": "Q20129564",
        "type": "CITY",
        "city": "La Palma",
        "name": "La Palma",
        "latitude": 20.57,
        "longitude": -102.42278
    },
    {
        "id": 3072206,
        "wikiDataId": "Q20129920",
        "type": "CITY",
        "city": "La Palma",
        "name": "La Palma",
        "latitude": 20.855,
        "longitude": -104.63694
    },
    {
        "id": 3097906,
        "wikiDataId": "Q20129689",
        "type": "CITY",
        "city": "La Palma",
        "name": "La Palma",
        "latitude": 21.56889,
        "longitude": -102.00194
    },
    {
        "id": 3050376,
        "wikiDataId": "Q20245606",
        "type": "CITY",
        "city": "La Palmita",
        "name": "La Palmita",
        "latitude": 21.76833,
        "longitude": -101.91778
    },
    {
        "id": 2992188,
        "wikiDataId": "Q20130501",
        "type": "CITY",
        "city": "La Parota",
        "name": "La Parota",
        "latitude": 19.55944,
        "longitude": -103.89028
    },
    {
        "id": 3050625,
        "wikiDataId": "Q20245624",
        "type": "CITY",
        "city": "La Parrita",
        "name": "La Parrita",
        "latitude": 21.54722,
        "longitude": -102.55056
    },
    {
        "id": 76858,
        "type": "CITY",
        "city": "La Paz",
        "name": "La Paz",
        "latitude": 21.81608,
        "longitude": -101.76793
    },
    {
        "id": 78517,
        "type": "CITY",
        "city": "La Paz de Ordaz",
        "name": "La Paz de Ordaz",
        "latitude": 20.34489,
        "longitude": -102.53059
    },
    {
        "id": 3085898,
        "wikiDataId": "Q20293131",
        "type": "CITY",
        "city": "La Peña, Jalisco",
        "name": "La Peña, Jalisco",
        "latitude": 20.32722,
        "longitude": -102.97556
    },
    {
        "id": 2971242,
        "wikiDataId": "Q20245664",
        "type": "CITY",
        "city": "La Playa",
        "name": "La Playa",
        "latitude": 21.82278,
        "longitude": -103.78861
    },
    {
        "id": 78316,
        "type": "CITY",
        "city": "La Presa",
        "name": "La Presa",
        "latitude": 21.77589,
        "longitude": -101.81477
    },
    {
        "id": 78084,
        "type": "CITY",
        "city": "La Primavera",
        "name": "La Primavera",
        "latitude": 20.72302,
        "longitude": -103.56543
    },
    {
        "id": 3069311,
        "wikiDataId": "Q20293512",
        "type": "CITY",
        "city": "La Providencia",
        "name": "La Providencia",
        "latitude": 21.02556,
        "longitude": -102.60444
    },
    {
        "id": 3027365,
        "wikiDataId": "Q20293539",
        "type": "CITY",
        "city": "La Puerta de San Pedro",
        "name": "La Puerta de San Pedro",
        "latitude": 20.92778,
        "longitude": -103.84389
    },
    {
        "id": 2968459,
        "wikiDataId": "Q20245733",
        "type": "CITY",
        "city": "La Puerta del Coche",
        "name": "La Puerta del Coche",
        "latitude": 20.804,
        "longitude": -104.22577
    },
    {
        "id": 77772,
        "type": "CITY",
        "city": "La Punta",
        "name": "La Punta",
        "latitude": 20.57156,
        "longitude": -103.21147
    },
    {
        "id": 77920,
        "wikiDataId": "Q20134378",
        "type": "CITY",
        "city": "La Purísima",
        "name": "La Purísima",
        "latitude": 19.49162,
        "longitude": -103.32896
    },
    {
        "id": 78649,
        "type": "CITY",
        "city": "La Quemada",
        "name": "La Quemada",
        "latitude": 20.97127,
        "longitude": -104.04914
    },
    {
        "id": 3054654,
        "wikiDataId": "Q20245753",
        "type": "CITY",
        "city": "La Rana",
        "name": "La Rana",
        "latitude": 20.81056,
        "longitude": -102.42444
    },
    {
        "id": 3026316,
        "wikiDataId": "Q20293649",
        "type": "CITY",
        "city": "La Raya",
        "name": "La Raya",
        "latitude": 20.53639,
        "longitude": -102.51944
    },
    {
        "id": 2998196,
        "wikiDataId": "Q20255056",
        "type": "CITY",
        "city": "La Red",
        "name": "La Red",
        "latitude": 20.71861,
        "longitude": -102.81333
    },
    {
        "id": 3010804,
        "wikiDataId": "Q20135163",
        "type": "CITY",
        "city": "La Resolana",
        "name": "La Resolana",
        "latitude": 20.74139,
        "longitude": -102.92528
    },
    {
        "id": 78295,
        "type": "CITY",
        "city": "La Ribera",
        "name": "La Ribera",
        "latitude": 20.34908,
        "longitude": -102.28273
    },
    {
        "id": 80456,
        "wikiDataId": "Q20245773",
        "type": "CITY",
        "city": "La Roca",
        "name": "La Roca",
        "latitude": 20.51278,
        "longitude": -103.42639
    },
    {
        "id": 3078596,
        "wikiDataId": "Q20135451",
        "type": "CITY",
        "city": "La Rosa",
        "name": "La Rosa",
        "latitude": 19.46278,
        "longitude": -104.31556
    },
    {
        "id": 3026480,
        "wikiDataId": "Q20135415",
        "type": "CITY",
        "city": "La Rosa Amarilla",
        "name": "La Rosa Amarilla",
        "latitude": 20.08404,
        "longitude": -103.10903
    },
    {
        "id": 3031583,
        "wikiDataId": "Q20245774",
        "type": "CITY",
        "city": "La Rosa de Castilla",
        "name": "La Rosa de Castilla",
        "latitude": 20.70806,
        "longitude": -102.25083
    },
    {
        "id": 3061016,
        "wikiDataId": "Q20293782",
        "type": "CITY",
        "city": "La Rueda",
        "name": "La Rueda",
        "latitude": 20.10167,
        "longitude": -103.2625
    },
    {
        "id": 3003147,
        "wikiDataId": "Q20293829",
        "type": "CITY",
        "city": "La Sanguijuela",
        "name": "La Sanguijuela",
        "latitude": 20.49222,
        "longitude": -102.04417
    },
    {
        "id": 78660,
        "type": "CITY",
        "city": "La Sauceda",
        "name": "La Sauceda",
        "latitude": 20.45251,
        "longitude": -103.80681
    },
    {
        "id": 3080065,
        "wikiDataId": "Q20245813",
        "type": "CITY",
        "city": "La Soledad",
        "name": "La Soledad",
        "latitude": 20.63528,
        "longitude": -102.55444
    },
    {
        "id": 2989905,
        "wikiDataId": "Q20294085",
        "type": "CITY",
        "city": "La Teja",
        "name": "La Teja",
        "latitude": 20.44611,
        "longitude": -103.48306
    },
    {
        "id": 79346,
        "wikiDataId": "Q20137211",
        "type": "CITY",
        "city": "La Tijera",
        "name": "La Tijera",
        "latitude": 20.58167,
        "longitude": -103.44056
    },
    {
        "id": 3090410,
        "wikiDataId": "Q20245853",
        "type": "CITY",
        "city": "La Tijera",
        "name": "La Tijera",
        "latitude": 19.9,
        "longitude": -104.4
    },
    {
        "id": 3015875,
        "wikiDataId": "Q20137384",
        "type": "CITY",
        "city": "La Tinajera",
        "name": "La Tinajera",
        "latitude": 20.46972,
        "longitude": -102.18778
    },
    {
        "id": 3057222,
        "wikiDataId": "Q20137429",
        "type": "CITY",
        "city": "La Tiricia",
        "name": "La Tiricia",
        "latitude": 20.47833,
        "longitude": -102.72306
    },
    {
        "id": 2992303,
        "wikiDataId": "Q20137615",
        "type": "CITY",
        "city": "La Tortuga",
        "name": "La Tortuga",
        "latitude": 20.90139,
        "longitude": -104.61583
    },
    {
        "id": 3047556,
        "wikiDataId": "Q20294279",
        "type": "CITY",
        "city": "La Trinidad",
        "name": "La Trinidad",
        "latitude": 21.27389,
        "longitude": -101.9925
    },
    {
        "id": 3066522,
        "wikiDataId": "Q20137816",
        "type": "CITY",
        "city": "La Trinidad",
        "name": "La Trinidad",
        "latitude": 21.65111,
        "longitude": -102.01833
    },
    {
        "id": 3097514,
        "wikiDataId": "Q20137890",
        "type": "CITY",
        "city": "La Trinidad",
        "name": "La Trinidad",
        "latitude": 20.67528,
        "longitude": -102.48139
    },
    {
        "id": 78404,
        "type": "CITY",
        "city": "La Unión del Cuatro",
        "name": "La Unión del Cuatro",
        "latitude": 20.53148,
        "longitude": -103.36812
    },
    {
        "id": 3006754,
        "wikiDataId": "Q20256017",
        "type": "CITY",
        "city": "La Vaquera",
        "name": "La Vaquera",
        "latitude": 20.85611,
        "longitude": -102.22056
    },
    {
        "id": 78385,
        "type": "CITY",
        "city": "La Vega",
        "name": "La Vega",
        "latitude": 20.58331,
        "longitude": -103.8583
    },
    {
        "id": 78307,
        "wikiDataId": "Q20294418",
        "type": "CITY",
        "city": "La Venta del Astillero",
        "name": "La Venta del Astillero",
        "latitude": 20.72795,
        "longitude": -103.54509
    },
    {
        "id": 2990197,
        "wikiDataId": "Q20294461",
        "type": "CITY",
        "city": "La Verdolaga",
        "name": "La Verdolaga",
        "latitude": 21.68917,
        "longitude": -102.03778
    },
    {
        "id": 3069596,
        "wikiDataId": "Q20245921",
        "type": "CITY",
        "city": "La Villa",
        "name": "La Villa",
        "latitude": 20.62806,
        "longitude": -102.94667
    },
    {
        "id": 2992260,
        "wikiDataId": "Q20245923",
        "type": "CITY",
        "city": "La Virgencita",
        "name": "La Virgencita",
        "latitude": 20.72889,
        "longitude": -102.53389
    },
    {
        "id": 3043677,
        "wikiDataId": "Q20256356",
        "type": "CITY",
        "city": "La Yerbabuena",
        "name": "La Yerbabuena",
        "latitude": 20.53722,
        "longitude": -103.09722
    },
    {
        "id": 3001354,
        "wikiDataId": "Q20139767",
        "type": "CITY",
        "city": "La Zapotera",
        "name": "La Zapotera",
        "latitude": 20.30611,
        "longitude": -102.89778
    },
    {
        "id": 3072438,
        "wikiDataId": "Q6467211",
        "type": "CITY",
        "city": "Labor de Medina",
        "name": "Labor de Medina",
        "latitude": 20.46666667,
        "longitude": -103.91666667
    },
    {
        "id": 2986578,
        "wikiDataId": "Q20139857",
        "type": "CITY",
        "city": "Labor de Montoya",
        "name": "Labor de Montoya",
        "latitude": 21.36722,
        "longitude": -102.21917
    },
    {
        "id": 3042088,
        "wikiDataId": "Q20139950",
        "type": "CITY",
        "city": "Ladera Chica",
        "name": "Ladera Chica",
        "latitude": 20.52167,
        "longitude": -102.34694
    },
    {
        "id": 78624,
        "wikiDataId": "Q1962295",
        "type": "CITY",
        "city": "Lagos de Moreno",
        "name": "Lagos de Moreno",
        "latitude": 21.356388888,
        "longitude": -101.929166666
    },
    {
        "id": 2968805,
        "wikiDataId": "Q20245945",
        "type": "CITY",
        "city": "Laguna Colorada",
        "name": "Laguna Colorada",
        "latitude": 20.75917,
        "longitude": -102.83111
    },
    {
        "id": 3055942,
        "wikiDataId": "Q20294717",
        "type": "CITY",
        "city": "Laguna de Piedra",
        "name": "Laguna de Piedra",
        "latitude": 20.82028,
        "longitude": -102.13778
    },
    {
        "id": 3097800,
        "wikiDataId": "Q6473056",
        "type": "CITY",
        "city": "Lagunillas, Jalisco",
        "name": "Lagunillas, Jalisco",
        "latitude": 20.33972222,
        "longitude": -103.99583333
    },
    {
        "id": 3080097,
        "wikiDataId": "Q20141023",
        "type": "CITY",
        "city": "Las Alfalfas",
        "name": "Las Alfalfas",
        "latitude": 21.32861,
        "longitude": -101.91056
    },
    {
        "id": 3087604,
        "wikiDataId": "Q20294877",
        "type": "CITY",
        "city": "Las Amarillas",
        "name": "Las Amarillas",
        "latitude": 21.58918,
        "longitude": -101.65548
    },
    {
        "id": 3070473,
        "wikiDataId": "Q20256836",
        "type": "CITY",
        "city": "Las Asturias Fraccionamiento",
        "name": "Las Asturias Fraccionamiento",
        "latitude": 20.52222,
        "longitude": -103.29083
    },
    {
        "id": 2976660,
        "wikiDataId": "Q20245998",
        "type": "CITY",
        "city": "Las Azules",
        "name": "Las Azules",
        "latitude": 20.89194,
        "longitude": -102.79167
    },
    {
        "id": 2969477,
        "wikiDataId": "Q20246010",
        "type": "CITY",
        "city": "Las Calaveras",
        "name": "Las Calaveras",
        "latitude": 20.19944,
        "longitude": -104.0225
    },
    {
        "id": 3099456,
        "wikiDataId": "Q20142206",
        "type": "CITY",
        "city": "Las Canoas",
        "name": "Las Canoas",
        "latitude": 19.61028,
        "longitude": -103.47389
    },
    {
        "id": 3070388,
        "wikiDataId": "Q20246028",
        "type": "CITY",
        "city": "Las Carretas",
        "name": "Las Carretas",
        "latitude": 20.44861,
        "longitude": -103.24639
    },
    {
        "id": 3030598,
        "wikiDataId": "Q20142049",
        "type": "CITY",
        "city": "Las Cañadas",
        "name": "Las Cañadas",
        "latitude": 21.14,
        "longitude": -102.46167
    },
    {
        "id": 3047293,
        "wikiDataId": "Q20142062",
        "type": "CITY",
        "city": "Las Cañadas",
        "name": "Las Cañadas",
        "latitude": 21.56833,
        "longitude": -102.61528
    },
    {
        "id": 80988,
        "wikiDataId": "Q20246069",
        "type": "CITY",
        "city": "Las Golondrinas [Fraccionamiento]",
        "name": "Las Golondrinas [Fraccionamiento]",
        "latitude": 22.10528,
        "longitude": -103.25417
    },
    {
        "id": 78510,
        "wikiDataId": "Q20145511",
        "type": "CITY",
        "city": "Las Juntas",
        "name": "Las Juntas",
        "latitude": 19.43061,
        "longitude": -104.70646
    },
    {
        "id": 78586,
        "wikiDataId": "Q20148875",
        "type": "CITY",
        "city": "Las Pintas de Arriba",
        "name": "Las Pintas de Arriba",
        "latitude": 20.57376,
        "longitude": -103.32345
    },
    {
        "id": 79431,
        "wikiDataId": "Q20246292",
        "type": "CITY",
        "city": "Las Pintitas",
        "name": "Las Pintitas",
        "latitude": 20.56444,
        "longitude": -103.30222
    },
    {
        "id": 80902,
        "wikiDataId": "Q20246303",
        "type": "CITY",
        "city": "Las Primaveras [Invernadero]",
        "name": "Las Primaveras [Invernadero]",
        "latitude": 19.69472,
        "longitude": -103.83333
    },
    {
        "id": 78474,
        "wikiDataId": "Q20246435",
        "type": "CITY",
        "city": "Lo Arado",
        "name": "Lo Arado",
        "latitude": 19.62139,
        "longitude": -104.53444
    },
    {
        "id": 79504,
        "wikiDataId": "Q20128947",
        "type": "CITY",
        "city": "Lomas de San Agustín",
        "name": "Lomas de San Agustín",
        "latitude": 20.5275,
        "longitude": -103.46778
    },
    {
        "id": 78627,
        "type": "CITY",
        "city": "Lomas de Tejeda",
        "name": "Lomas de Tejeda",
        "latitude": 20.46658,
        "longitude": -103.40202
    },
    {
        "id": 79201,
        "wikiDataId": "Q20283292",
        "type": "CITY",
        "city": "Lomas del Sur",
        "name": "Lomas del Sur",
        "latitude": 20.4925,
        "longitude": -103.4175
    },
    {
        "id": 77143,
        "type": "CITY",
        "city": "Los Azulitos",
        "name": "Los Azulitos",
        "latitude": 21.8461,
        "longitude": -101.96527
    },
    {
        "id": 79082,
        "wikiDataId": "Q20246636",
        "type": "CITY",
        "city": "Los Cedros",
        "name": "Los Cedros",
        "latitude": 20.3898,
        "longitude": -103.2325
    },
    {
        "id": 78726,
        "type": "CITY",
        "city": "Los Gavilanes",
        "name": "Los Gavilanes",
        "latitude": 20.57456,
        "longitude": -103.44881
    },
    {
        "id": 2988677,
        "wikiDataId": "Q15242905",
        "type": "CITY",
        "city": "Los Guerrero",
        "name": "Los Guerrero",
        "latitude": 20.43333333,
        "longitude": -103.88333333
    },
    {
        "id": 3038170,
        "wikiDataId": "Q13484225",
        "type": "CITY",
        "city": "Los Mazos",
        "name": "Los Mazos",
        "latitude": 19.57,
        "longitude": -103.5
    },
    {
        "id": 78974,
        "wikiDataId": "Q20139133",
        "type": "CITY",
        "city": "Los Olivos",
        "name": "Los Olivos",
        "latitude": 20.43917,
        "longitude": -103.23778
    },
    {
        "id": 77933,
        "wikiDataId": "Q20246901",
        "type": "CITY",
        "city": "Los Pocitos",
        "name": "Los Pocitos",
        "latitude": 20.53724,
        "longitude": -103.93721
    },
    {
        "id": 79455,
        "wikiDataId": "Q20286222",
        "type": "CITY",
        "city": "Los Ruiseñores",
        "name": "Los Ruiseñores",
        "latitude": 20.71083,
        "longitude": -103.69139
    },
    {
        "id": 77076,
        "type": "CITY",
        "city": "Los Sauces",
        "name": "Los Sauces",
        "latitude": 21.57425,
        "longitude": -102.13827
    },
    {
        "id": 3031979,
        "wikiDataId": "Q6683348",
        "type": "CITY",
        "city": "Los Vergara",
        "name": "Los Vergara",
        "latitude": 20.45,
        "longitude": -103.91666667
    },
    {
        "id": 79797,
        "wikiDataId": "Q6710802",
        "type": "CITY",
        "city": "Lázaro Cárdenas, Jalisco",
        "name": "Lázaro Cárdenas, Jalisco",
        "latitude": 20.44166667,
        "longitude": -103.96888889
    },
    {
        "id": 155170,
        "wikiDataId": "Q2652046",
        "type": "CITY",
        "city": "Magdalena",
        "name": "Magdalena",
        "latitude": 20.909166666,
        "longitude": -103.980277777
    },
    {
        "id": 77786,
        "type": "CITY",
        "city": "Manalisco",
        "name": "Manalisco",
        "latitude": 21.05928,
        "longitude": -102.92203
    },
    {
        "id": 78598,
        "wikiDataId": "Q20145240",
        "type": "CITY",
        "city": "Margaritas",
        "name": "Margaritas",
        "latitude": 20.45306,
        "longitude": -102.47417
    },
    {
        "id": 155958,
        "wikiDataId": "Q3056144",
        "type": "CITY",
        "city": "Mascota Municipality",
        "name": "Mascota Municipality",
        "latitude": 20.526111111,
        "longitude": -104.787777777
    },
    {
        "id": 78447,
        "wikiDataId": "Q20247053",
        "type": "CITY",
        "city": "Matancillas (San Isidro Matancillas)",
        "name": "Matancillas (San Isidro Matancillas)",
        "latitude": 21.89036,
        "longitude": -101.65059
    },
    {
        "id": 78453,
        "wikiDataId": "Q20251544",
        "type": "CITY",
        "city": "Matanzas",
        "name": "Matanzas",
        "latitude": 21.63333,
        "longitude": -101.65528
    },
    {
        "id": 78663,
        "type": "CITY",
        "city": "Matatlán",
        "name": "Matatlán",
        "latitude": 20.70978,
        "longitude": -103.15009
    },
    {
        "id": 77994,
        "wikiDataId": "Q1020745",
        "type": "CITY",
        "city": "Mazamitlongo",
        "name": "Mazamitlongo",
        "latitude": 19.915555555,
        "longitude": -103.019444444
    },
    {
        "id": 78147,
        "type": "CITY",
        "city": "Mechoacanejo",
        "name": "Mechoacanejo",
        "latitude": 21.54038,
        "longitude": -102.59587
    },
    {
        "id": 77938,
        "wikiDataId": "Q3505226",
        "type": "CITY",
        "city": "Mexticacán",
        "name": "Mexticacán",
        "latitude": 21.21666667,
        "longitude": -102.71666667
    },
    {
        "id": 78196,
        "wikiDataId": "Q20247120",
        "type": "CITY",
        "city": "Mezcala",
        "name": "Mezcala",
        "latitude": 20.95278,
        "longitude": -102.84611
    },
    {
        "id": 155723,
        "wikiDataId": "Q3174443",
        "type": "CITY",
        "city": "Mezquitic Municipality",
        "name": "Mezquitic Municipality",
        "latitude": 22.20609,
        "longitude": -104.04531
    },
    {
        "id": 80663,
        "wikiDataId": "Q20247124",
        "type": "CITY",
        "city": "Mezquitic de la Magdalena",
        "name": "Mezquitic de la Magdalena",
        "latitude": 21.22111,
        "longitude": -102.30444
    },
    {
        "id": 77808,
        "type": "CITY",
        "city": "Milpillas",
        "name": "Milpillas",
        "latitude": 20.50111,
        "longitude": -102.53418
    },
    {
        "id": 3058783,
        "wikiDataId": "Q20145356",
        "type": "CITY",
        "city": "Misión San Luis Gonzaga Chiriyaqui",
        "name": "Misión San Luis Gonzaga Chiriyaqui",
        "latitude": 21.78333,
        "longitude": -101.97278
    },
    {
        "id": 3014087,
        "wikiDataId": "Q15253636",
        "type": "CITY",
        "city": "Mismaloya",
        "name": "Mismaloya",
        "latitude": 20.531018,
        "longitude": -105.292625
    },
    {
        "id": 80596,
        "type": "CITY",
        "city": "Mismaloya (Fraccionamiento Pedregal de Santa Martha)",
        "name": "Mismaloya (Fraccionamiento Pedregal de Santa Martha)",
        "latitude": 20.60694,
        "longitude": -103.17139
    },
    {
        "id": 77813,
        "wikiDataId": "Q3175234",
        "type": "CITY",
        "city": "Mixtlán",
        "name": "Mixtlán",
        "latitude": 20.366666666,
        "longitude": -104.25
    },
    {
        "id": 77068,
        "type": "CITY",
        "city": "Moras",
        "name": "Moras",
        "latitude": 20.32622,
        "longitude": -102.59254
    },
    {
        "id": 78710,
        "type": "CITY",
        "city": "Navajas",
        "name": "Navajas",
        "latitude": 20.53318,
        "longitude": -103.67972
    },
    {
        "id": 77942,
        "type": "CITY",
        "city": "Nextipac",
        "name": "Nextipac",
        "latitude": 20.76725,
        "longitude": -103.52405
    },
    {
        "id": 77282,
        "wikiDataId": "Q20254647",
        "type": "CITY",
        "city": "Nicolás R Casillas",
        "name": "Nicolás R Casillas",
        "latitude": 20.54638,
        "longitude": -103.46622
    },
    {
        "id": 77985,
        "wikiDataId": "Q2022378",
        "type": "CITY",
        "city": "Nuevo México, Jalisco",
        "name": "Nuevo México, Jalisco",
        "latitude": 20.757777777,
        "longitude": -103.434166666
    },
    {
        "id": 81701,
        "wikiDataId": "Q20247299",
        "type": "CITY",
        "city": "Nuevo Refugio de Afuera (Nuevo Refugio)",
        "name": "Nuevo Refugio de Afuera (Nuevo Refugio)",
        "latitude": 20.54889,
        "longitude": -102.70722
    },
    {
        "id": 78565,
        "wikiDataId": "Q6048498",
        "type": "CITY",
        "city": "Oconahua, Jalisco",
        "name": "Oconahua, Jalisco",
        "latitude": 20.743736666,
        "longitude": -104.163842777
    },
    {
        "id": 155175,
        "wikiDataId": "Q629805",
        "type": "CITY",
        "city": "Ocotlán, Jalisco",
        "name": "Ocotlán, Jalisco",
        "latitude": 20.351388888,
        "longitude": -102.768055555
    },
    {
        "id": 80970,
        "wikiDataId": "Q7081650",
        "type": "CITY",
        "city": "Ojo de Agua de Morán, Jalisco",
        "name": "Ojo de Agua de Morán, Jalisco",
        "latitude": 20.53333333,
        "longitude": -102.5
    },
    {
        "id": 78157,
        "wikiDataId": "Q3310766",
        "type": "CITY",
        "city": "Ojuelos de Jalisco",
        "name": "Ojuelos de Jalisco",
        "latitude": 21.864166666,
        "longitude": -101.593333333
    },
    {
        "id": 78247,
        "type": "CITY",
        "city": "Otatlán",
        "name": "Otatlán",
        "latitude": 20.44084,
        "longitude": -102.80389
    },
    {
        "id": 79210,
        "wikiDataId": "Q20292273",
        "type": "CITY",
        "city": "Palomar",
        "name": "Palomar",
        "latitude": 20.5925,
        "longitude": -103.46056
    },
    {
        "id": 78370,
        "type": "CITY",
        "city": "Palos Altos",
        "name": "Palos Altos",
        "latitude": 20.87143,
        "longitude": -103.15296
    },
    {
        "id": 79992,
        "wikiDataId": "Q20247524",
        "type": "CITY",
        "city": "Paseo Puente Viejo",
        "name": "Paseo Puente Viejo",
        "latitude": 20.56917,
        "longitude": -103.19056
    },
    {
        "id": 80562,
        "wikiDataId": "Q20293102",
        "type": "CITY",
        "city": "Paseo de las Cañadas",
        "name": "Paseo de las Cañadas",
        "latitude": 20.62139,
        "longitude": -103.19778
    },
    {
        "id": 79579,
        "wikiDataId": "Q20247523",
        "type": "CITY",
        "city": "Paseo del Prado",
        "name": "Paseo del Prado",
        "latitude": 20.56444,
        "longitude": -103.38917
    },
    {
        "id": 81341,
        "wikiDataId": "Q20247525",
        "type": "CITY",
        "city": "Paseos del Valle [Fraccionamiento]",
        "name": "Paseos del Valle [Fraccionamiento]",
        "latitude": 20.52222,
        "longitude": -103.33333
    },
    {
        "id": 77103,
        "type": "CITY",
        "city": "Paso de Cuarenta",
        "name": "Paso de Cuarenta",
        "latitude": 21.50344,
        "longitude": -101.75236
    },
    {
        "id": 78363,
        "type": "CITY",
        "city": "Pegueros",
        "name": "Pegueros",
        "latitude": 20.95353,
        "longitude": -102.66762
    },
    {
        "id": 78022,
        "type": "CITY",
        "city": "Piedra Pesada",
        "name": "Piedra Pesada",
        "latitude": 19.55056,
        "longitude": -104.47683
    },
    {
        "id": 155005,
        "wikiDataId": "Q3311364",
        "type": "CITY",
        "city": "Pihuamo",
        "name": "Pihuamo",
        "latitude": 18.95,
        "longitude": -103.167
    },
    {
        "id": 2994022,
        "wikiDataId": "Q20247703",
        "type": "CITY",
        "city": "Pochotita",
        "name": "Pochotita",
        "latitude": 22.27306,
        "longitude": -104.11611
    },
    {
        "id": 155095,
        "wikiDataId": "Q3311224",
        "type": "CITY",
        "city": "Poncitlán Municipality",
        "name": "Poncitlán Municipality",
        "latitude": 20.3,
        "longitude": -102.266666666
    },
    {
        "id": 78669,
        "type": "CITY",
        "city": "Portes Gil",
        "name": "Portes Gil",
        "latitude": 20.65812,
        "longitude": -103.93838
    },
    {
        "id": 78085,
        "type": "CITY",
        "city": "Potrerillos",
        "name": "Potrerillos",
        "latitude": 20.33837,
        "longitude": -103.37762
    },
    {
        "id": 81123,
        "wikiDataId": "Q20247806",
        "type": "CITY",
        "city": "Primero de Mayo (Chupaderos)",
        "name": "Primero de Mayo (Chupaderos)",
        "latitude": 21.46611,
        "longitude": -101.82722
    },
    {
        "id": 78524,
        "wikiDataId": "Q20297446",
        "type": "CITY",
        "city": "Puente Grande",
        "name": "Puente Grande",
        "latitude": 20.56977,
        "longitude": -103.15377
    },
    {
        "id": 77387,
        "type": "CITY",
        "city": "Puente de Camotlán",
        "name": "Puente de Camotlán",
        "latitude": 21.6987,
        "longitude": -104.07996
    },
    {
        "id": 80752,
        "wikiDataId": "Q20247877",
        "type": "CITY",
        "city": "Puerta del Llano",
        "name": "Puerta del Llano",
        "latitude": 20.78528,
        "longitude": -103.46139
    },
    {
        "id": 155487,
        "wikiDataId": "Q853258",
        "type": "CITY",
        "city": "Puerto Vallarta",
        "name": "Puerto Vallarta",
        "latitude": 20.616666666,
        "longitude": -105.233333333
    },
    {
        "id": 76859,
        "type": "CITY",
        "city": "Punta de la Vega",
        "name": "Punta de la Vega",
        "latitude": 20.5907,
        "longitude": -103.89831
    },
    {
        "id": 77466,
        "wikiDataId": "Q20247924",
        "type": "CITY",
        "city": "Purificación",
        "name": "Purificación",
        "latitude": 19.71738,
        "longitude": -104.60534
    },
    {
        "id": 155460,
        "wikiDataId": "Q3311816",
        "type": "CITY",
        "city": "Quitupan",
        "name": "Quitupan",
        "latitude": 19.65,
        "longitude": -102.75
    },
    {
        "id": 78822,
        "wikiDataId": "Q20247945",
        "type": "CITY",
        "city": "Rancho Alegre [Fraccionamiento]",
        "name": "Rancho Alegre [Fraccionamiento]",
        "latitude": 20.47361,
        "longitude": -103.25778
    },
    {
        "id": 79591,
        "wikiDataId": "Q20284713",
        "type": "CITY",
        "city": "Real del Valle (El Paraíso) [Fraccionamiento]",
        "name": "Real del Valle (El Paraíso) [Fraccionamiento]",
        "latitude": 20.54556,
        "longitude": -103.36972
    },
    {
        "id": 79747,
        "wikiDataId": "Q20129114",
        "type": "CITY",
        "city": "Rinconada la Loma [Fraccionamiento]",
        "name": "Rinconada la Loma [Fraccionamiento]",
        "latitude": 20.45417,
        "longitude": -103.21917
    },
    {
        "id": 77484,
        "type": "CITY",
        "city": "San Agustín",
        "name": "San Agustín",
        "latitude": 20.28557,
        "longitude": -102.63293
    },
    {
        "id": 80532,
        "type": "CITY",
        "city": "San Andrés Cohamiata",
        "name": "San Andrés Cohamiata",
        "latitude": 22.18944,
        "longitude": -104.24083
    },
    {
        "id": 76801,
        "wikiDataId": "Q16628244",
        "type": "CITY",
        "city": "San Andrés Ixtlán",
        "name": "San Andrés Ixtlán",
        "latitude": 19.82059,
        "longitude": -103.47144
    },
    {
        "id": 76810,
        "type": "CITY",
        "city": "San Antonio",
        "name": "San Antonio",
        "latitude": 20.55186,
        "longitude": -102.61761
    },
    {
        "id": 77489,
        "type": "CITY",
        "city": "San Antonio de Rivas",
        "name": "San Antonio de Rivas",
        "latitude": 20.35015,
        "longitude": -102.42786
    },
    {
        "id": 2998055,
        "wikiDataId": "Q20134260",
        "type": "CITY",
        "city": "San Antonio de los Barrera",
        "name": "San Antonio de los Barrera",
        "latitude": 21.38944,
        "longitude": -102.25528
    },
    {
        "id": 76798,
        "type": "CITY",
        "city": "San Antonio de los Vázquez",
        "name": "San Antonio de los Vázquez",
        "latitude": 20.81767,
        "longitude": -103.14623
    },
    {
        "id": 77281,
        "type": "CITY",
        "city": "San Clemente",
        "name": "San Clemente",
        "latitude": 20.08433,
        "longitude": -104.25161
    },
    {
        "id": 76756,
        "type": "CITY",
        "city": "San Cristóbal",
        "name": "San Cristóbal",
        "latitude": 21.68159,
        "longitude": -101.94093
    },
    {
        "id": 77164,
        "type": "CITY",
        "city": "San Cristóbal Zapotitlán",
        "name": "San Cristóbal Zapotitlán",
        "latitude": 20.22453,
        "longitude": -103.36969
    },
    {
        "id": 76932,
        "wikiDataId": "Q3175243",
        "type": "CITY",
        "city": "San Cristóbal de la Barranca Municipality",
        "name": "San Cristóbal de la Barranca Municipality",
        "latitude": 21.044722222,
        "longitude": -103.428055555
    },
    {
        "id": 76830,
        "wikiDataId": "Q3311254",
        "type": "CITY",
        "city": "San Diego de Alejandría",
        "name": "San Diego de Alejandría",
        "latitude": 20.866666666,
        "longitude": -101.9
    },
    {
        "id": 80407,
        "wikiDataId": "Q20248456",
        "type": "CITY",
        "city": "San Esteban (San Miguel Tateposco)",
        "name": "San Esteban (San Miguel Tateposco)",
        "latitude": 20.79889,
        "longitude": -103.37444
    },
    {
        "id": 77042,
        "type": "CITY",
        "city": "San Felipe de Híjar",
        "name": "San Felipe de Híjar",
        "latitude": 20.90171,
        "longitude": -104.72172
    },
    {
        "id": 79113,
        "wikiDataId": "Q7414154",
        "type": "CITY",
        "city": "San Francisco de Asís",
        "name": "San Francisco de Asís",
        "latitude": 20.53333333,
        "longitude": -102.5
    },
    {
        "id": 76931,
        "type": "CITY",
        "city": "San Francisco de Rivas",
        "name": "San Francisco de Rivas",
        "latitude": 20.34053,
        "longitude": -102.57208
    },
    {
        "id": 77619,
        "wikiDataId": "Q20289604",
        "type": "CITY",
        "city": "San Gabriel,  Jalisco",
        "name": "San Gabriel,  Jalisco",
        "latitude": 19.7475,
        "longitude": -103.765277777
    },
    {
        "id": 2976278,
        "wikiDataId": "Q20289668",
        "type": "CITY",
        "city": "San Gaspar",
        "name": "San Gaspar",
        "latitude": 20.51056,
        "longitude": -102.62361
    },
    {
        "id": 3077912,
        "wikiDataId": "Q7414219",
        "type": "CITY",
        "city": "San Gaspar de los Reyes",
        "name": "San Gaspar de los Reyes",
        "latitude": 21.28333333,
        "longitude": -102.5
    },
    {
        "id": 156025,
        "wikiDataId": "Q7414301",
        "type": "CITY",
        "city": "San Ignacio Municipality, Jalisco",
        "name": "San Ignacio Municipality, Jalisco",
        "latitude": 20.7333,
        "longitude": -102.517
    },
    {
        "id": 80364,
        "wikiDataId": "Q20290433",
        "type": "CITY",
        "city": "San Isidro",
        "name": "San Isidro",
        "latitude": 20.79111,
        "longitude": -103.35111
    },
    {
        "id": 77256,
        "type": "CITY",
        "city": "San Isidro Mazatepec",
        "name": "San Isidro Mazatepec",
        "latitude": 20.52284,
        "longitude": -103.61294
    },
    {
        "id": 3063691,
        "wikiDataId": "Q15274818",
        "type": "CITY",
        "city": "San Jacintito",
        "name": "San Jacintito",
        "latitude": 20.354,
        "longitude": -103.924
    },
    {
        "id": 77735,
        "wikiDataId": "Q7414335",
        "type": "CITY",
        "city": "San Jacinto, Jalisco",
        "name": "San Jacinto, Jalisco",
        "latitude": 20.359,
        "longitude": -103.933
    },
    {
        "id": 77550,
        "type": "CITY",
        "city": "San Joaquín Zorrillos",
        "name": "San Joaquín Zorrillos",
        "latitude": 20.6207,
        "longitude": -103.01546
    },
    {
        "id": 3003618,
        "wikiDataId": "Q20141107",
        "type": "CITY",
        "city": "San Jorge",
        "name": "San Jorge",
        "latitude": 21.37167,
        "longitude": -101.86556
    },
    {
        "id": 77331,
        "wikiDataId": "Q7414503",
        "type": "CITY",
        "city": "San Jose de Gracia, Jalisco",
        "name": "San Jose de Gracia, Jalisco",
        "latitude": 20.67444444,
        "longitude": -102.56694444
    },
    {
        "id": 77425,
        "type": "CITY",
        "city": "San José Casas Caídas",
        "name": "San José Casas Caídas",
        "latitude": 20.42108,
        "longitude": -102.44066
    },
    {
        "id": 77543,
        "type": "CITY",
        "city": "San José de la Paz",
        "name": "San José de la Paz",
        "latitude": 20.55094,
        "longitude": -102.05858
    },
    {
        "id": 76969,
        "type": "CITY",
        "city": "San José de las Flores",
        "name": "San José de las Flores",
        "latitude": 20.64851,
        "longitude": -102.96616
    },
    {
        "id": 77324,
        "wikiDataId": "Q7414541",
        "type": "CITY",
        "city": "San José de los Reynoso",
        "name": "San José de los Reynoso",
        "latitude": 21.023611111,
        "longitude": -102.405833333
    },
    {
        "id": 80926,
        "wikiDataId": "Q20291219",
        "type": "CITY",
        "city": "San José del Caliche (El Caliche)",
        "name": "San José del Caliche (El Caliche)",
        "latitude": 21.12528,
        "longitude": -101.93
    },
    {
        "id": 77301,
        "wikiDataId": "Q15274845",
        "type": "CITY",
        "city": "San José del Castillo",
        "name": "San José del Castillo",
        "latitude": 20.53333333,
        "longitude": -103.23333333
    },
    {
        "id": 79549,
        "type": "CITY",
        "city": "San José del Valle",
        "name": "San José del Valle",
        "latitude": 20.76376,
        "longitude": -105.22813
    },
    {
        "id": 77401,
        "wikiDataId": "Q20143598",
        "type": "CITY",
        "city": "San Juan Cosalá",
        "name": "San Juan Cosalá",
        "latitude": 20.28756,
        "longitude": -103.34109
    },
    {
        "id": 77517,
        "type": "CITY",
        "city": "San Juan Tecomatlán",
        "name": "San Juan Tecomatlán",
        "latitude": 20.32838,
        "longitude": -103.10035
    },
    {
        "id": 77272,
        "type": "CITY",
        "city": "San Juan de los Arcos",
        "name": "San Juan de los Arcos",
        "latitude": 20.60508,
        "longitude": -103.71947
    },
    {
        "id": 76791,
        "wikiDataId": "Q1709669",
        "type": "CITY",
        "city": "San Juan de los Lagos",
        "name": "San Juan de los Lagos",
        "latitude": 21.245833333,
        "longitude": -102.330833333
    },
    {
        "id": 155121,
        "wikiDataId": "Q3098803",
        "type": "CITY",
        "city": "San Juanito de Escobedo",
        "name": "San Juanito de Escobedo",
        "latitude": 20.8,
        "longitude": -104
    },
    {
        "id": 77415,
        "wikiDataId": "Q3175306",
        "type": "CITY",
        "city": "San Julián",
        "name": "San Julián",
        "latitude": 21.016666666,
        "longitude": -102.166666666
    },
    {
        "id": 77548,
        "wikiDataId": "Q20145196",
        "type": "CITY",
        "city": "San Lucas Evangelista",
        "name": "San Lucas Evangelista",
        "latitude": 20.40815,
        "longitude": -103.3608
    },
    {
        "id": 3076421,
        "wikiDataId": "Q20292969",
        "type": "CITY",
        "city": "San Luciano",
        "name": "San Luciano",
        "latitude": 20.31426,
        "longitude": -103.41693
    },
    {
        "id": 77575,
        "type": "CITY",
        "city": "San Luis Soyatlán",
        "name": "San Luis Soyatlán",
        "latitude": 20.19834,
        "longitude": -103.3072
    },
    {
        "id": 76821,
        "type": "CITY",
        "city": "San Luis de Agua Caliente",
        "name": "San Luis de Agua Caliente",
        "latitude": 20.38317,
        "longitude": -102.82447
    },
    {
        "id": 77121,
        "wikiDataId": "Q3174453",
        "type": "CITY",
        "city": "San Marcos",
        "name": "San Marcos",
        "latitude": 20.783333333,
        "longitude": -104.183333333
    },
    {
        "id": 155570,
        "wikiDataId": "Q3175370",
        "type": "CITY",
        "city": "San Martín de Bolaños",
        "name": "San Martín de Bolaños",
        "latitude": 21.5,
        "longitude": -103.8
    },
    {
        "id": 76935,
        "wikiDataId": "Q3098785",
        "type": "CITY",
        "city": "San Martín de Hidalgo",
        "name": "San Martín de Hidalgo",
        "latitude": 20.43538,
        "longitude": -103.92878
    },
    {
        "id": 78245,
        "wikiDataId": "Q20248637",
        "type": "CITY",
        "city": "San Miguel Cuyutlán",
        "name": "San Miguel Cuyutlán",
        "latitude": 20.41633,
        "longitude": -103.38987
    },
    {
        "id": 77540,
        "type": "CITY",
        "city": "San Miguel Zapotitlán",
        "name": "San Miguel Zapotitlán",
        "latitude": 20.39085,
        "longitude": -102.99428
    },
    {
        "id": 77643,
        "type": "CITY",
        "city": "San Miguel de la Paz",
        "name": "San Miguel de la Paz",
        "latitude": 20.37051,
        "longitude": -102.66267
    },
    {
        "id": 3034979,
        "wikiDataId": "Q20146955",
        "type": "CITY",
        "city": "San Miguel de la Sierra, Ayutla",
        "name": "San Miguel de la Sierra, Ayutla",
        "latitude": 20.09934,
        "longitude": -104.60035
    },
    {
        "id": 77226,
        "wikiDataId": "Q1658586",
        "type": "CITY",
        "city": "San Miguel el Alto",
        "name": "San Miguel el Alto",
        "latitude": 21.023611111,
        "longitude": -102.405833333
    },
    {
        "id": 77656,
        "type": "CITY",
        "city": "San Nicolas",
        "name": "San Nicolas",
        "latitude": 20.32982,
        "longitude": -103.12881
    },
    {
        "id": 2986120,
        "wikiDataId": "Q7415025",
        "type": "CITY",
        "city": "San Nicolás de las Flores",
        "name": "San Nicolás de las Flores",
        "latitude": 21.29055556,
        "longitude": -102.55138889
    },
    {
        "id": 77441,
        "wikiDataId": "Q7415085",
        "type": "CITY",
        "city": "San Patricio, Jalisco",
        "name": "San Patricio, Jalisco",
        "latitude": 19.225277777,
        "longitude": -104.701111111
    },
    {
        "id": 76869,
        "type": "CITY",
        "city": "San Pedro",
        "name": "San Pedro",
        "latitude": 20.22687,
        "longitude": -103.41488
    },
    {
        "id": 77501,
        "wikiDataId": "Q20294708",
        "type": "CITY",
        "city": "San Pedro Itzicán",
        "name": "San Pedro Itzicán",
        "latitude": 20.31724,
        "longitude": -102.95406
    },
    {
        "id": 77690,
        "type": "CITY",
        "city": "San Sebastian",
        "name": "San Sebastian",
        "latitude": 20.53274,
        "longitude": -103.42804
    },
    {
        "id": 76921,
        "wikiDataId": "Q3051746",
        "type": "CITY",
        "city": "San Sebastián del Oeste",
        "name": "San Sebastián del Oeste",
        "latitude": 20.8511,
        "longitude": -104.81903
    },
    {
        "id": 77194,
        "type": "CITY",
        "city": "San Vicente",
        "name": "San Vicente",
        "latitude": 20.42833,
        "longitude": -102.65443
    },
    {
        "id": 77454,
        "wikiDataId": "Q20248751",
        "type": "CITY",
        "city": "Santa Anita",
        "name": "Santa Anita",
        "latitude": 20.5509,
        "longitude": -103.44396
    },
    {
        "id": 76875,
        "type": "CITY",
        "city": "Santa Cruz de Barcenas",
        "name": "Santa Cruz de Barcenas",
        "latitude": 20.66868,
        "longitude": -104.00161
    },
    {
        "id": 81154,
        "wikiDataId": "Q20296625",
        "type": "CITY",
        "city": "Santa Cruz de la Loma (Tepetates)",
        "name": "Santa Cruz de la Loma (Tepetates)",
        "latitude": 20.48806,
        "longitude": -103.54972
    },
    {
        "id": 76941,
        "type": "CITY",
        "city": "Santa Cruz de la Soledad",
        "name": "Santa Cruz de la Soledad",
        "latitude": 20.31746,
        "longitude": -103.1586
    },
    {
        "id": 77240,
        "wikiDataId": "Q7419455",
        "type": "CITY",
        "city": "Santa Cruz de las Flores, Tlajomulco de Zúñiga, Jalisco",
        "name": "Santa Cruz de las Flores, Tlajomulco de Zúñiga, Jalisco",
        "latitude": 20.48056,
        "longitude": -103.50278
    },
    {
        "id": 77519,
        "type": "CITY",
        "city": "Santa Cruz del Astillero",
        "name": "Santa Cruz del Astillero",
        "latitude": 20.74661,
        "longitude": -103.64281
    },
    {
        "id": 76823,
        "wikiDataId": "Q20296665",
        "type": "CITY",
        "city": "Santa Cruz del Valle",
        "name": "Santa Cruz del Valle",
        "latitude": 20.53333,
        "longitude": -103.43333
    },
    {
        "id": 77029,
        "wikiDataId": "Q20296675",
        "type": "CITY",
        "city": "Santa Cruz el Grande",
        "name": "Santa Cruz el Grande",
        "latitude": 20.37514,
        "longitude": -102.86382
    },
    {
        "id": 77669,
        "type": "CITY",
        "city": "Santa María Transpontina",
        "name": "Santa María Transpontina",
        "latitude": 21.4149,
        "longitude": -102.2572
    },
    {
        "id": 77573,
        "type": "CITY",
        "city": "Santa María de Enmedio",
        "name": "Santa María de Enmedio",
        "latitude": 21.41938,
        "longitude": -102.22231
    },
    {
        "id": 155810,
        "wikiDataId": "Q2991008",
        "type": "CITY",
        "city": "Santa María de los Ángeles",
        "name": "Santa María de los Ángeles",
        "latitude": 22.3,
        "longitude": -103.033333333
    },
    {
        "id": 77191,
        "type": "CITY",
        "city": "Santa María del Valle",
        "name": "Santa María del Valle",
        "latitude": 20.87837,
        "longitude": -102.37983
    },
    {
        "id": 77358,
        "type": "CITY",
        "city": "Santa Rita",
        "name": "Santa Rita",
        "latitude": 20.4415,
        "longitude": -102.39016
    },
    {
        "id": 77153,
        "type": "CITY",
        "city": "Santa Rosa",
        "name": "Santa Rosa",
        "latitude": 20.4144,
        "longitude": -103.23534
    },
    {
        "id": 77169,
        "wikiDataId": "Q7419935",
        "type": "CITY",
        "city": "Santa Rosalía, Jalisco",
        "name": "Santa Rosalía, Jalisco",
        "latitude": 20.81805556,
        "longitude": -104.08472222
    },
    {
        "id": 77503,
        "type": "CITY",
        "city": "Santa Teresa",
        "name": "Santa Teresa",
        "latitude": 20.91587,
        "longitude": -103.89208
    },
    {
        "id": 77299,
        "type": "CITY",
        "city": "Santiaguito",
        "name": "Santiaguito",
        "latitude": 20.77992,
        "longitude": -103.72394
    },
    {
        "id": 77366,
        "wikiDataId": "Q20283954",
        "type": "CITY",
        "city": "Santiaguito (Santiaguito de Velázquez)",
        "name": "Santiaguito (Santiaguito de Velázquez)",
        "latitude": 20.72533,
        "longitude": -102.23716
    },
    {
        "id": 77293,
        "wikiDataId": "Q3311403",
        "type": "CITY",
        "city": "Sayula",
        "name": "Sayula",
        "latitude": 19.883611111,
        "longitude": -103.597222222
    },
    {
        "id": 80697,
        "wikiDataId": "Q20285765",
        "type": "CITY",
        "city": "Soyatlán de Afuera",
        "name": "Soyatlán de Afuera",
        "latitude": 19.69083,
        "longitude": -103.28278
    },
    {
        "id": 77369,
        "wikiDataId": "Q20285768",
        "type": "CITY",
        "city": "Soyatlán del Oro",
        "name": "Soyatlán del Oro",
        "latitude": 20.30194,
        "longitude": -104.28056
    },
    {
        "id": 77267,
        "wikiDataId": "Q20249027",
        "type": "CITY",
        "city": "Talpa de Allende",
        "name": "Talpa de Allende",
        "latitude": 20.38084,
        "longitude": -104.82213
    },
    {
        "id": 77635,
        "wikiDataId": "Q3174463",
        "type": "CITY",
        "city": "Tamazula de Gordiano",
        "name": "Tamazula de Gordiano",
        "latitude": 19.676388888,
        "longitude": -103.25
    },
    {
        "id": 77393,
        "wikiDataId": "Q7680990",
        "type": "CITY",
        "city": "Tamazulita, Jalisco",
        "name": "Tamazulita, Jalisco",
        "latitude": 20.2,
        "longitude": -103.967
    },
    {
        "id": 155151,
        "wikiDataId": "Q2270558",
        "type": "CITY",
        "city": "Tapalpa",
        "name": "Tapalpa",
        "latitude": 19.9445208,
        "longitude": -103.758548
    },
    {
        "id": 77129,
        "type": "CITY",
        "city": "Tazumbo",
        "name": "Tazumbo",
        "latitude": 19.29401,
        "longitude": -102.64513
    },
    {
        "id": 76945,
        "wikiDataId": "Q2200016",
        "type": "CITY",
        "city": "Tecalitlán Municipality",
        "name": "Tecalitlán Municipality",
        "latitude": 19.466666666,
        "longitude": -103.3
    },
    {
        "id": 155607,
        "wikiDataId": "Q3175330",
        "type": "CITY",
        "city": "Techaluta de Montenegro",
        "name": "Techaluta de Montenegro",
        "latitude": 20.074166666,
        "longitude": -103.552777777
    },
    {
        "id": 155741,
        "wikiDataId": "Q3311923",
        "type": "CITY",
        "city": "Tecolotlán",
        "name": "Tecolotlán",
        "latitude": 20.1,
        "longitude": -103.833333333
    },
    {
        "id": 3184821,
        "wikiDataId": "Q20286756",
        "type": "CITY",
        "city": "Tecolotlán",
        "name": "Tecolotlán",
        "latitude": 20.19942,
        "longitude": -104.04667
    },
    {
        "id": 77128,
        "type": "CITY",
        "city": "Tecomates",
        "name": "Tecomates",
        "latitude": 19.54998,
        "longitude": -104.48528
    },
    {
        "id": 76747,
        "type": "CITY",
        "city": "Tecuattitan",
        "name": "Tecuattitan",
        "latitude": 20.42545,
        "longitude": -103.02801
    },
    {
        "id": 77196,
        "type": "CITY",
        "city": "Telcruz",
        "name": "Telcruz",
        "latitude": 19.47665,
        "longitude": -104.12581
    },
    {
        "id": 80180,
        "wikiDataId": "Q20287090",
        "type": "CITY",
        "city": "Temastián (La Cantera)",
        "name": "Temastián (La Cantera)",
        "latitude": 21.97722,
        "longitude": -103.525
    },
    {
        "id": 77161,
        "wikiDataId": "Q3311607",
        "type": "CITY",
        "city": "Tenamaxtlán",
        "name": "Tenamaxtlán",
        "latitude": 20.2167,
        "longitude": -104.167
    },
    {
        "id": 76961,
        "type": "CITY",
        "city": "Tenayuca",
        "name": "Tenayuca",
        "latitude": 21.50318,
        "longitude": -102.65799
    },
    {
        "id": 77005,
        "wikiDataId": "Q2445115",
        "type": "CITY",
        "city": "Teocaltiche",
        "name": "Teocaltiche",
        "latitude": 21.1333,
        "longitude": -102.85
    },
    {
        "id": 77361,
        "wikiDataId": "Q1921334",
        "type": "CITY",
        "city": "Teocaltiche",
        "name": "Teocaltiche",
        "latitude": 21.25,
        "longitude": -102.383
    },
    {
        "id": 77047,
        "wikiDataId": "Q3311895",
        "type": "CITY",
        "city": "Teocuitatlán de Corona",
        "name": "Teocuitatlán de Corona",
        "latitude": 20.091833333,
        "longitude": -103.378472222
    },
    {
        "id": 77052,
        "wikiDataId": "Q971699",
        "type": "CITY",
        "city": "Tepatitlán de Morelos",
        "name": "Tepatitlán de Morelos",
        "latitude": 20.817,
        "longitude": -102.733
    },
    {
        "id": 77604,
        "wikiDataId": "Q20287420",
        "type": "CITY",
        "city": "Tepec",
        "name": "Tepec",
        "latitude": 19.98964,
        "longitude": -103.64116
    },
    {
        "id": 77126,
        "type": "CITY",
        "city": "Tepusco",
        "name": "Tepusco",
        "latitude": 21.61291,
        "longitude": -102.60211
    },
    {
        "id": 77274,
        "type": "CITY",
        "city": "Tequesquitlán",
        "name": "Tequesquitlán",
        "latitude": 19.38755,
        "longitude": -104.52037
    },
    {
        "id": 76911,
        "wikiDataId": "Q847764",
        "type": "CITY",
        "city": "Tequila",
        "name": "Tequila",
        "latitude": 20.88205,
        "longitude": -103.83599
    },
    {
        "id": 77211,
        "wikiDataId": "Q20287780",
        "type": "CITY",
        "city": "Tesistán",
        "name": "Tesistán",
        "latitude": 20.80051,
        "longitude": -103.46993
    },
    {
        "id": 77646,
        "wikiDataId": "Q20287875",
        "type": "CITY",
        "city": "Teuchitlán, Jalisco",
        "name": "Teuchitlán, Jalisco",
        "latitude": 20.685277777,
        "longitude": -103.849166666
    },
    {
        "id": 79958,
        "wikiDataId": "Q20288700",
        "type": "CITY",
        "city": "Tierras Coloradas",
        "name": "Tierras Coloradas",
        "latitude": 20.72889,
        "longitude": -102.86083
    },
    {
        "id": 77318,
        "wikiDataId": "Q3846780",
        "type": "CITY",
        "city": "Tizapán el Alto",
        "name": "Tizapán el Alto",
        "latitude": 20.033333333,
        "longitude": -102.6
    },
    {
        "id": 76839,
        "type": "CITY",
        "city": "Tlacuitapan",
        "name": "Tlacuitapan",
        "latitude": 21.19829,
        "longitude": -102.12416
    },
    {
        "id": 77224,
        "wikiDataId": "Q1962285",
        "type": "CITY",
        "city": "Tlajomulco de Zuñiga",
        "name": "Tlajomulco de Zuñiga",
        "latitude": 20.473611111,
        "longitude": -103.443055555
    },
    {
        "id": 76944,
        "wikiDataId": "Q155277",
        "type": "CITY",
        "city": "Tlaquepaque",
        "name": "Tlaquepaque",
        "latitude": 20.65,
        "longitude": -103.316666666
    },
    {
        "id": 155375,
        "wikiDataId": "Q2885583",
        "type": "CITY",
        "city": "Tolimán Municipality",
        "name": "Tolimán Municipality",
        "latitude": 19.4,
        "longitude": -103.733333333
    },
    {
        "id": 155156,
        "wikiDataId": "Q3099435",
        "type": "CITY",
        "city": "Tomatlán",
        "name": "Tomatlán",
        "latitude": 19.933333333,
        "longitude": -105.233333333
    },
    {
        "id": 2973743,
        "wikiDataId": "Q1798559",
        "type": "CITY",
        "city": "Tonalá",
        "name": "Tonalá",
        "latitude": 20.6099,
        "longitude": -103.2023
    },
    {
        "id": 77456,
        "wikiDataId": "Q3844600",
        "type": "CITY",
        "city": "Tonaya",
        "name": "Tonaya",
        "latitude": 19.783333333,
        "longitude": -103.966666666
    },
    {
        "id": 76862,
        "wikiDataId": "Q3175276",
        "type": "CITY",
        "city": "Tonila",
        "name": "Tonila",
        "latitude": 19.426111111,
        "longitude": -103.531944444
    },
    {
        "id": 77689,
        "wikiDataId": "Q1009396",
        "type": "CITY",
        "city": "Totatiche Municipality",
        "name": "Totatiche Municipality",
        "latitude": 21.8,
        "longitude": -103.333333333
    },
    {
        "id": 155056,
        "wikiDataId": "Q3175253",
        "type": "CITY",
        "city": "Tototlán",
        "name": "Tototlán",
        "latitude": 20.533333333,
        "longitude": -102.783333333
    },
    {
        "id": 76871,
        "wikiDataId": "Q7835591",
        "type": "CITY",
        "city": "Trapiche de Abra",
        "name": "Trapiche de Abra",
        "latitude": 20.539,
        "longitude": -103.82
    },
    {
        "id": 77134,
        "type": "CITY",
        "city": "Trejos",
        "name": "Trejos",
        "latitude": 20.79439,
        "longitude": -103.19711
    },
    {
        "id": 3039976,
        "wikiDataId": "Q20249271",
        "type": "CITY",
        "city": "Tultitlán",
        "name": "Tultitlán",
        "latitude": 19.98378,
        "longitude": -103.52237
    },
    {
        "id": 155118,
        "wikiDataId": "Q2918021",
        "type": "CITY",
        "city": "Tuxcacuesco",
        "name": "Tuxcacuesco",
        "latitude": 19.55,
        "longitude": -103.866666666
    },
    {
        "id": 155929,
        "wikiDataId": "Q3310867",
        "type": "CITY",
        "city": "Tuxcueca",
        "name": "Tuxcueca",
        "latitude": 20.066666666,
        "longitude": -103.366666666
    },
    {
        "id": 3060284,
        "wikiDataId": "Q1281616",
        "type": "CITY",
        "city": "Tuxpan",
        "name": "Tuxpan",
        "latitude": 19.55388889,
        "longitude": -103.37555556
    },
    {
        "id": 77144,
        "wikiDataId": "Q16243187",
        "type": "CITY",
        "city": "Tuxpan de Bolaños",
        "name": "Tuxpan de Bolaños",
        "latitude": 21.875,
        "longitude": -104.013
    },
    {
        "id": 77248,
        "wikiDataId": "Q3311306",
        "type": "CITY",
        "city": "Unión de San Antonio",
        "name": "Unión de San Antonio",
        "latitude": 21.128,
        "longitude": -102.006
    },
    {
        "id": 77398,
        "wikiDataId": "Q3310791",
        "type": "CITY",
        "city": "Unión de Tula",
        "name": "Unión de Tula",
        "latitude": 19.683333333,
        "longitude": -104.116666666
    },
    {
        "id": 77319,
        "wikiDataId": "Q20291439",
        "type": "CITY",
        "city": "Usmajac",
        "name": "Usmajac",
        "latitude": 19.87458,
        "longitude": -103.54085
    },
    {
        "id": 78754,
        "wikiDataId": "Q20249297",
        "type": "CITY",
        "city": "Valle Dorado Inn",
        "name": "Valle Dorado Inn",
        "latitude": 20.52444,
        "longitude": -103.36194
    },
    {
        "id": 155659,
        "wikiDataId": "Q577803",
        "type": "CITY",
        "city": "Valle de Guadalupe Municipality",
        "name": "Valle de Guadalupe Municipality",
        "latitude": 21,
        "longitude": -102.616666666
    },
    {
        "id": 76832,
        "wikiDataId": "Q3311242",
        "type": "CITY",
        "city": "Valle de Juárez",
        "name": "Valle de Juárez",
        "latitude": 19.866666666,
        "longitude": -102.816666666
    },
    {
        "id": 79832,
        "wikiDataId": "Q20249292",
        "type": "CITY",
        "city": "Valle de los Girasoles [Fraccionamiento]",
        "name": "Valle de los Girasoles [Fraccionamiento]",
        "latitude": 20.42667,
        "longitude": -103.19889
    },
    {
        "id": 76811,
        "type": "CITY",
        "city": "Vaquerias",
        "name": "Vaquerias",
        "latitude": 21.76831,
        "longitude": -101.65385
    },
    {
        "id": 155765,
        "wikiDataId": "Q3175359",
        "type": "CITY",
        "city": "Villa Corona",
        "name": "Villa Corona",
        "latitude": 20.398888888,
        "longitude": -103.688888888
    },
    {
        "id": 77252,
        "type": "CITY",
        "city": "Villa Emiliano Zapata",
        "name": "Villa Emiliano Zapata",
        "latitude": 20.16651,
        "longitude": -102.99123
    },
    {
        "id": 155840,
        "wikiDataId": "Q3051419",
        "type": "CITY",
        "city": "Villa Guerrero Municipality",
        "name": "Villa Guerrero Municipality",
        "latitude": 21.881333333,
        "longitude": -103.596041666
    },
    {
        "id": 77327,
        "wikiDataId": "Q3844956",
        "type": "CITY",
        "city": "Villa Hidalgo",
        "name": "Villa Hidalgo",
        "latitude": 21.6667,
        "longitude": -102.6
    },
    {
        "id": 155435,
        "wikiDataId": "Q935728",
        "type": "CITY",
        "city": "Villa Purificación",
        "name": "Villa Purificación",
        "latitude": 19.785833333,
        "longitude": -104.707777777
    },
    {
        "id": 80686,
        "wikiDataId": "Q20292532",
        "type": "CITY",
        "city": "Villa de los Niños",
        "name": "Villa de los Niños",
        "latitude": 20.40667,
        "longitude": -103.54167
    },
    {
        "id": 2999292,
        "wikiDataId": "Q20249351",
        "type": "CITY",
        "city": "Villa las Flores",
        "name": "Villa las Flores",
        "latitude": 20.48111,
        "longitude": -103.53083
    },
    {
        "id": 79533,
        "wikiDataId": "Q20292949",
        "type": "CITY",
        "city": "Villas de la Hacienda [Fraccionamiento]",
        "name": "Villas de la Hacienda [Fraccionamiento]",
        "latitude": 20.53111,
        "longitude": -103.38278
    },
    {
        "id": 77624,
        "type": "CITY",
        "city": "Vista Hermosa",
        "name": "Vista Hermosa",
        "latitude": 19.69391,
        "longitude": -103.33933
    },
    {
        "id": 79898,
        "wikiDataId": "Q20293406",
        "type": "CITY",
        "city": "Vistas del Maguey [Fraccionamiento]",
        "name": "Vistas del Maguey [Fraccionamiento]",
        "latitude": 20.52806,
        "longitude": -102.52333
    },
    {
        "id": 155470,
        "wikiDataId": "Q3311263",
        "type": "CITY",
        "city": "Xochitlán",
        "name": "Xochitlán",
        "latitude": 19.833333333,
        "longitude": -103.983333333
    },
    {
        "id": 3184748,
        "wikiDataId": "Q20294120",
        "type": "CITY",
        "city": "Yahualica de González Gallo",
        "name": "Yahualica de González Gallo",
        "latitude": 21.17978,
        "longitude": -102.88611
    },
    {
        "id": 77566,
        "wikiDataId": "Q1656294",
        "type": "CITY",
        "city": "Zacoalco de Torres",
        "name": "Zacoalco de Torres",
        "latitude": 20.233333333,
        "longitude": -103.583333333
    },
    {
        "id": 77627,
        "type": "CITY",
        "city": "Zalamea",
        "name": "Zalamea",
        "latitude": 20.31371,
        "longitude": -102.50967
    },
    {
        "id": 76741,
        "wikiDataId": "Q147402",
        "type": "CITY",
        "city": "Zapopan",
        "name": "Zapopan",
        "latitude": 20.720277777,
        "longitude": -103.391944444
    },
    {
        "id": 155130,
        "wikiDataId": "Q3505248",
        "type": "CITY",
        "city": "Zapotiltic",
        "name": "Zapotiltic",
        "latitude": 19.633333333,
        "longitude": -103.166666666
    },
    {
        "id": 155884,
        "wikiDataId": "Q3311317",
        "type": "CITY",
        "city": "Zapotitlán de Vadillo",
        "name": "Zapotitlán de Vadillo",
        "latitude": 19.416666666,
        "longitude": -103.6
    },
    {
        "id": 76840,
        "type": "CITY",
        "city": "Zapotitán de Hidalgo",
        "name": "Zapotitán de Hidalgo",
        "latitude": 20.32641,
        "longitude": -103.47841
    },
    {
        "id": 77271,
        "wikiDataId": "Q20249482",
        "type": "CITY",
        "city": "Zapotlanejo",
        "name": "Zapotlanejo",
        "latitude": 20.62248,
        "longitude": -103.06766
    },
    {
        "id": 155953,
        "wikiDataId": "Q1827286",
        "type": "CITY",
        "city": "Zapotlán El Grande Municipality",
        "name": "Zapotlán El Grande Municipality",
        "latitude": 19.7036,
        "longitude": -103.465
    },
    {
        "id": 77526,
        "wikiDataId": "Q3311619",
        "type": "CITY",
        "city": "Zapotlán del Rey",
        "name": "Zapotlán del Rey",
        "latitude": 20.455,
        "longitude": -102.914444444
    },
    {
        "id": 76874,
        "type": "CITY",
        "city": "Zula",
        "name": "Zula",
        "latitude": 20.40931,
        "longitude": -102.72816
    }
]
