[
    {
        "id": 92255,
        "type": "CITY",
        "city": "Ahmadpur Sial",
        "name": "Ahmadpur Sial",
        "latitude": 30.67791,
        "longitude": 71.74344
    },
    {
        "id": 92573,
        "wikiDataId": "Q1250201",
        "type": "CITY",
        "city": "Ahmedpur East",
        "name": "Ahmedpur East",
        "latitude": 29.15,
        "longitude": 71.266666666
    },
    {
        "id": 91978,
        "wikiDataId": "Q4726837",
        "type": "CITY",
        "city": "Alipur Chatha",
        "name": "Alipur Chatha",
        "latitude": 32.9333,
        "longitude": 73.2167
    },
    {
        "id": 91910,
        "wikiDataId": "Q2984767",
        "type": "CITY",
        "city": "Arifwala",
        "name": "Arifwala",
        "latitude": 30.2,
        "longitude": 71.45
    },
    {
        "id": 92247,
        "wikiDataId": "Q3248233",
        "type": "ADM2",
        "city": "Attock Tehsil",
        "name": "Attock Tehsil",
        "latitude": 33.76671,
        "longitude": 72.35977
    },
    {
        "id": 92193,
        "wikiDataId": "Q4840703",
        "type": "CITY",
        "city": "Baddomalhi",
        "name": "Baddomalhi",
        "latitude": 31.99283,
        "longitude": 74.66833
    },
    {
        "id": 91714,
        "wikiDataId": "Q1249932",
        "type": "CITY",
        "city": "Bahawalnagar",
        "name": "Bahawalnagar",
        "latitude": 29.983333333,
        "longitude": 73.266666666
    },
    {
        "id": 92510,
        "wikiDataId": "Q318156",
        "type": "CITY",
        "city": "Bahawalpur",
        "name": "Bahawalpur",
        "latitude": 29.395833333,
        "longitude": 71.683333333
    },
    {
        "id": 3027953,
        "wikiDataId": "Q4842510",
        "type": "ADM2",
        "city": "Bahawalpur Division",
        "name": "Bahawalpur Division",
        "latitude": 28.5,
        "longitude": 71.5
    },
    {
        "id": 92241,
        "wikiDataId": "Q17004943",
        "type": "CITY",
        "city": "Bakhri Ahmad Khan",
        "name": "Bakhri Ahmad Khan",
        "latitude": 30.7359,
        "longitude": 70.838
    },
    {
        "id": 92576,
        "type": "CITY",
        "city": "Basirpur",
        "name": "Basirpur",
        "latitude": 30.57759,
        "longitude": 73.83912
    },
    {
        "id": 92336,
        "type": "CITY",
        "city": "Basti Dosa",
        "name": "Basti Dosa",
        "latitude": 30.78769,
        "longitude": 70.86853
    },
    {
        "id": 92605,
        "type": "CITY",
        "city": "Begowala",
        "name": "Begowala",
        "latitude": 32.43816,
        "longitude": 74.26794
    },
    {
        "id": 91788,
        "wikiDataId": "Q2428259",
        "type": "CITY",
        "city": "Bhakkar",
        "name": "Bhakkar",
        "latitude": 31.633333333,
        "longitude": 71.066666666
    },
    {
        "id": 92637,
        "wikiDataId": "Q2791141",
        "type": "CITY",
        "city": "Bhalwal",
        "name": "Bhalwal",
        "latitude": 32.8,
        "longitude": 73.7
    },
    {
        "id": 92430,
        "wikiDataId": "Q854934",
        "type": "CITY",
        "city": "Bhawana",
        "name": "Bhawana",
        "latitude": 31.566388888,
        "longitude": 72.648333333
    },
    {
        "id": 92182,
        "wikiDataId": "Q3777358",
        "type": "CITY",
        "city": "Bhera",
        "name": "Bhera",
        "latitude": 32.48,
        "longitude": 72.92
    },
    {
        "id": 92311,
        "type": "CITY",
        "city": "Bhopalwala",
        "name": "Bhopalwala",
        "latitude": 32.42968,
        "longitude": 74.3635
    },
    {
        "id": 2968883,
        "wikiDataId": "Q1250083",
        "type": "CITY",
        "city": "Burewala",
        "name": "Burewala",
        "latitude": 30.15,
        "longitude": 72.683333333
    },
    {
        "id": 92407,
        "wikiDataId": "Q34789030",
        "type": "CITY",
        "city": "Būrewāla",
        "name": "Būrewāla",
        "latitude": 30.166666666,
        "longitude": 72.65
    },
    {
        "id": 92571,
        "wikiDataId": "Q3321415",
        "type": "ADM2",
        "city": "Chak Jhumra",
        "name": "Chak Jhumra",
        "latitude": 31.566666666,
        "longitude": 73.183333333
    },
    {
        "id": 92330,
        "type": "CITY",
        "city": "Chak One Hundred Twenty Nine Left",
        "name": "Chak One Hundred Twenty Nine Left",
        "latitude": 30.42919,
        "longitude": 73.04522
    },
    {
        "id": 92668,
        "type": "CITY",
        "city": "Chak Thirty-one -Eleven Left",
        "name": "Chak Thirty-one -Eleven Left",
        "latitude": 30.42388,
        "longitude": 72.69737
    },
    {
        "id": 91913,
        "wikiDataId": "Q34791338",
        "type": "CITY",
        "city": "Chak Two Hundred Forty-Nine TDA",
        "name": "Chak Two Hundred Forty-Nine TDA",
        "latitude": 31.17959,
        "longitude": 71.20946
    },
    {
        "id": 91827,
        "wikiDataId": "Q34791343",
        "type": "CITY",
        "city": "Chak Āzam Saffo",
        "name": "Chak Āzam Saffo",
        "latitude": 30.75,
        "longitude": 73.03333
    },
    {
        "id": 92584,
        "wikiDataId": "Q1251473",
        "type": "CITY",
        "city": "Chakwal",
        "name": "Chakwal",
        "latitude": 32.93,
        "longitude": 72.85
    },
    {
        "id": 92209,
        "wikiDataId": "Q5088564",
        "type": "CITY",
        "city": "Chawinda",
        "name": "Chawinda",
        "latitude": 32.3841,
        "longitude": 74.7249
    },
    {
        "id": 92419,
        "wikiDataId": "Q3321325",
        "type": "CITY",
        "city": "Chichawatni",
        "name": "Chichawatni",
        "latitude": 30.32,
        "longitude": 72.42
    },
    {
        "id": 92417,
        "wikiDataId": "Q1017651",
        "type": "CITY",
        "city": "Chiniot",
        "name": "Chiniot",
        "latitude": 31.716666666,
        "longitude": 72.983333333
    },
    {
        "id": 92493,
        "wikiDataId": "Q1250229",
        "type": "CITY",
        "city": "Chishtian",
        "name": "Chishtian",
        "latitude": 29.8,
        "longitude": 72.833333333
    },
    {
        "id": 92274,
        "wikiDataId": "Q3311334",
        "type": "CITY",
        "city": "Choa Saidanshah",
        "name": "Choa Saidanshah",
        "latitude": 32.72006,
        "longitude": 72.98486
    },
    {
        "id": 91947,
        "wikiDataId": "Q3695904",
        "type": "CITY",
        "city": "Chunian",
        "name": "Chunian",
        "latitude": 31.016666666,
        "longitude": 73.85
    },
    {
        "id": 92253,
        "wikiDataId": "Q34794713",
        "type": "CITY",
        "city": "Chuhar Kana",
        "name": "Chuhar Kana",
        "latitude": 31.75,
        "longitude": 73.8
    },
    {
        "id": 92134,
        "type": "CITY",
        "city": "Daira Din Panah",
        "name": "Daira Din Panah",
        "latitude": 30.57053,
        "longitude": 70.93722
    },
    {
        "id": 91763,
        "type": "CITY",
        "city": "Dajal",
        "name": "Dajal",
        "latitude": 29.55769,
        "longitude": 70.37614
    },
    {
        "id": 92391,
        "wikiDataId": "Q27888093",
        "type": "CITY",
        "city": "Dandot RS",
        "name": "Dandot RS",
        "latitude": 32.638611111,
        "longitude": 72.976944444
    },
    {
        "id": 92015,
        "wikiDataId": "Q3321393",
        "type": "CITY",
        "city": "Darya Khan",
        "name": "Darya Khan",
        "latitude": 31.786666666,
        "longitude": 71.107222222
    },
    {
        "id": 92495,
        "wikiDataId": "Q2374990",
        "type": "CITY",
        "city": "Daska",
        "name": "Daska",
        "latitude": 32.316666666,
        "longitude": 74.35
    },
    {
        "id": 92437,
        "wikiDataId": "Q34800645",
        "type": "CITY",
        "city": "Daultāla",
        "name": "Daultāla",
        "latitude": 33.19253,
        "longitude": 73.14128
    },
    {
        "id": 91774,
        "wikiDataId": "Q999076",
        "type": "CITY",
        "city": "Dera Ghazi Khan",
        "name": "Dera Ghazi Khan",
        "latitude": 30.05,
        "longitude": 70.633333333
    },
    {
        "id": 91782,
        "type": "CITY",
        "city": "Dhanot",
        "name": "Dhanot",
        "latitude": 29.57991,
        "longitude": 71.75213
    },
    {
        "id": 92145,
        "wikiDataId": "Q5269450",
        "type": "CITY",
        "city": "Dhaunkal",
        "name": "Dhaunkal",
        "latitude": 32.75,
        "longitude": 74.16666667
    },
    {
        "id": 3033980,
        "wikiDataId": "Q34801696",
        "type": "CITY",
        "city": "Dhok Awan",
        "name": "Dhok Awan",
        "latitude": 32.84452,
        "longitude": 72.52357
    },
    {
        "id": 92409,
        "wikiDataId": "Q5276491",
        "type": "CITY",
        "city": "Dijkot",
        "name": "Dijkot",
        "latitude": 31.21666667,
        "longitude": 72.98333333
    },
    {
        "id": 92461,
        "type": "CITY",
        "city": "Dinan Bashnoian Wala",
        "name": "Dinan Bashnoian Wala",
        "latitude": 29.76584,
        "longitude": 73.26557
    },
    {
        "id": 92451,
        "wikiDataId": "Q5278157",
        "type": "CITY",
        "city": "Dinga",
        "name": "Dinga",
        "latitude": 32.641,
        "longitude": 73.7243
    },
    {
        "id": 92092,
        "wikiDataId": "Q2985681",
        "type": "CITY",
        "city": "Dipalpur",
        "name": "Dipalpur",
        "latitude": 30.683333333,
        "longitude": 73.7
    },
    {
        "id": 92062,
        "wikiDataId": "Q3694406",
        "type": "CITY",
        "city": "Dullewala",
        "name": "Dullewala",
        "latitude": 31.839722222,
        "longitude": 71.43
    },
    {
        "id": 92447,
        "wikiDataId": "Q1985683",
        "type": "CITY",
        "city": "Dunga Bunga",
        "name": "Dunga Bunga",
        "latitude": 29.45,
        "longitude": 73.15
    },
    {
        "id": 92173,
        "wikiDataId": "Q10269065",
        "type": "ADM2",
        "city": "Dunyapur",
        "name": "Dunyapur",
        "latitude": 29.80166667,
        "longitude": 71.74083333
    },
    {
        "id": 92351,
        "wikiDataId": "Q49349071",
        "type": "CITY",
        "city": "Dāud Khel",
        "name": "Dāud Khel",
        "latitude": 32.87498,
        "longitude": 71.57013
    },
    {
        "id": 92331,
        "wikiDataId": "Q5372475",
        "type": "CITY",
        "city": "Eminabad",
        "name": "Eminabad",
        "latitude": 32.03333333,
        "longitude": 74.26666667
    },
    {
        "id": 91902,
        "wikiDataId": "Q173985",
        "type": "CITY",
        "city": "Faisalabad",
        "name": "Faisalabad",
        "latitude": 31.418,
        "longitude": 73.079
    },
    {
        "id": 3084723,
        "wikiDataId": "Q3308246",
        "type": "ADM2",
        "city": "Faisalabad Division",
        "name": "Faisalabad Division",
        "latitude": 31.25,
        "longitude": 72.8
    },
    {
        "id": 91762,
        "wikiDataId": "Q5434470",
        "type": "CITY",
        "city": "Faqirwali",
        "name": "Faqirwali",
        "latitude": 29.47,
        "longitude": 73.04
    },
    {
        "id": 92259,
        "type": "CITY",
        "city": "Faruka",
        "name": "Faruka",
        "latitude": 31.88642,
        "longitude": 72.41362
    },
    {
        "id": 92390,
        "type": "CITY",
        "city": "Fazilpur",
        "name": "Fazilpur",
        "latitude": 32.17629,
        "longitude": 75.06583
    },
    {
        "id": 2993332,
        "wikiDataId": "Q5445217",
        "type": "CITY",
        "city": "Ferozewala",
        "name": "Ferozewala",
        "latitude": 29.3,
        "longitude": 70.433333333
    },
    {
        "id": 92662,
        "wikiDataId": "Q3246255",
        "type": "CITY",
        "city": "Fort Abbas Tehsil",
        "name": "Fort Abbas Tehsil",
        "latitude": 29.1925,
        "longitude": 72.853611111
    },
    {
        "id": 91675,
        "type": "CITY",
        "city": "Garh Maharaja",
        "name": "Garh Maharaja",
        "latitude": 30.83383,
        "longitude": 71.90491
    },
    {
        "id": 92302,
        "type": "CITY",
        "city": "Gojra",
        "name": "Gojra",
        "latitude": 31.14926,
        "longitude": 72.68323
    },
    {
        "id": 2996886,
        "wikiDataId": "Q1250076",
        "type": "CITY",
        "city": "Gojra",
        "name": "Gojra",
        "latitude": 31.15,
        "longitude": 72.683333333
    },
    {
        "id": 92190,
        "wikiDataId": "Q3049021",
        "type": "CITY",
        "city": "Gujar Khan",
        "name": "Gujar Khan",
        "latitude": 33.250847222,
        "longitude": 73.296580555
    },
    {
        "id": 92339,
        "wikiDataId": "Q243322",
        "type": "CITY",
        "city": "Gujranwala",
        "name": "Gujranwala",
        "latitude": 32.15567,
        "longitude": 74.18705
    },
    {
        "id": 3023945,
        "wikiDataId": "Q12858404",
        "type": "ADM2",
        "city": "Gujranwala Division",
        "name": "Gujranwala Division",
        "latitude": 32.45,
        "longitude": 74.13333
    },
    {
        "id": 3021486,
        "wikiDataId": "Q929062",
        "type": "CITY",
        "city": "Gujrat",
        "name": "Gujrat",
        "latitude": 32.573611111,
        "longitude": 74.078888888
    },
    {
        "id": 91841,
        "wikiDataId": "Q1253663",
        "type": "CITY",
        "city": "Hafizabad",
        "name": "Hafizabad",
        "latitude": 32.066666666,
        "longitude": 73.683333333
    },
    {
        "id": 92099,
        "type": "CITY",
        "city": "Harnoli",
        "name": "Harnoli",
        "latitude": 32.27871,
        "longitude": 71.55429
    },
    {
        "id": 91850,
        "type": "CITY",
        "city": "Harunabad",
        "name": "Harunabad",
        "latitude": 29.61206,
        "longitude": 73.13802
    },
    {
        "id": 3087636,
        "wikiDataId": "Q71037",
        "type": "CITY",
        "city": "Hasan Abdal",
        "name": "Hasan Abdal",
        "latitude": 33.819486111,
        "longitude": 72.689027777
    },
    {
        "id": 92608,
        "wikiDataId": "Q2603403",
        "type": "CITY",
        "city": "Hasilpur",
        "name": "Hasilpur",
        "latitude": 29.696666666,
        "longitude": 72.554166666
    },
    {
        "id": 91730,
        "type": "CITY",
        "city": "Haveli Lakha",
        "name": "Haveli Lakha",
        "latitude": 30.45097,
        "longitude": 73.69371
    },
    {
        "id": 91847,
        "wikiDataId": "Q3695085",
        "type": "CITY",
        "city": "Hazro",
        "name": "Hazro",
        "latitude": 33.909722222,
        "longitude": 72.492777777
    },
    {
        "id": 91867,
        "wikiDataId": "Q3776565",
        "type": "CITY",
        "city": "Hujra Shah Muqeem",
        "name": "Hujra Shah Muqeem",
        "latitude": 30.733333333,
        "longitude": 73.816666666
    },
    {
        "id": 91879,
        "type": "CITY",
        "city": "Jahanian Shah",
        "name": "Jahanian Shah",
        "latitude": 31.80541,
        "longitude": 72.2774
    },
    {
        "id": 92468,
        "wikiDataId": "Q954036",
        "type": "CITY",
        "city": "Jalalpur Jattan",
        "name": "Jalalpur Jattan",
        "latitude": 32.766666666,
        "longitude": 74.216666666
    },
    {
        "id": 92073,
        "wikiDataId": "Q3695832",
        "type": "CITY",
        "city": "Jalalpur Pirwala",
        "name": "Jalalpur Pirwala",
        "latitude": 29.503055555,
        "longitude": 71.216666666
    },
    {
        "id": 92022,
        "type": "CITY",
        "city": "Jampur",
        "name": "Jampur",
        "latitude": 29.64235,
        "longitude": 70.59518
    },
    {
        "id": 92308,
        "type": "CITY",
        "city": "Jand",
        "name": "Jand",
        "latitude": 33.43304,
        "longitude": 72.01877
    },
    {
        "id": 91809,
        "wikiDataId": "Q6150959",
        "type": "CITY",
        "city": "Jandiala Sher Khan",
        "name": "Jandiala Sher Khan",
        "latitude": 31.816666666,
        "longitude": 73.916666666
    },
    {
        "id": 92295,
        "wikiDataId": "Q1251242",
        "type": "CITY",
        "city": "Jaranwala",
        "name": "Jaranwala",
        "latitude": 31.333333333,
        "longitude": 73.433333333
    },
    {
        "id": 92014,
        "type": "CITY",
        "city": "Jatoi Shimali",
        "name": "Jatoi Shimali",
        "latitude": 29.51827,
        "longitude": 70.84474
    },
    {
        "id": 91960,
        "wikiDataId": "Q3075413",
        "type": "CITY",
        "city": "Jauharabad",
        "name": "Jauharabad",
        "latitude": 32.17,
        "longitude": 72.17
    },
    {
        "id": 91995,
        "wikiDataId": "Q1026616",
        "type": "CITY",
        "city": "Jhang",
        "name": "Jhang",
        "latitude": 31.268055555,
        "longitude": 72.318055555
    },
    {
        "id": 91962,
        "wikiDataId": "Q6190853",
        "type": "CITY",
        "city": "Jhang Sadar",
        "name": "Jhang Sadar",
        "latitude": 31.26666667,
        "longitude": 72.31666667
    },
    {
        "id": 92091,
        "type": "CITY",
        "city": "Jhawarian",
        "name": "Jhawarian",
        "latitude": 32.36192,
        "longitude": 72.62275
    },
    {
        "id": 92110,
        "wikiDataId": "Q121551",
        "type": "CITY",
        "city": "Jhelum",
        "name": "Jhelum",
        "latitude": 32.933333,
        "longitude": 73.733333
    },
    {
        "id": 92463,
        "type": "CITY",
        "city": "Kabirwala",
        "name": "Kabirwala",
        "latitude": 30.40472,
        "longitude": 71.86269
    },
    {
        "id": 91855,
        "wikiDataId": "Q10313603",
        "type": "CITY",
        "city": "Kahna Nau",
        "name": "Kahna Nau",
        "latitude": 31.36666667,
        "longitude": 74.36666667
    },
    {
        "id": 91814,
        "wikiDataId": "Q988103",
        "type": "CITY",
        "city": "Kahuta",
        "name": "Kahuta",
        "latitude": 33.59169,
        "longitude": 73.387063
    },
    {
        "id": 92389,
        "wikiDataId": "Q1542553",
        "type": "CITY",
        "city": "Kalabagh",
        "name": "Kalabagh",
        "latitude": 32.965,
        "longitude": 71.55697
    },
    {
        "id": 92289,
        "type": "CITY",
        "city": "Kalaswala",
        "name": "Kalaswala",
        "latitude": 32.20081,
        "longitude": 74.64858
    },
    {
        "id": 92481,
        "wikiDataId": "Q797139",
        "type": "CITY",
        "city": "Kallar Kahar",
        "name": "Kallar Kahar",
        "latitude": 32.783333333,
        "longitude": 72.7
    },
    {
        "id": 92040,
        "type": "CITY",
        "city": "Kalur Kot",
        "name": "Kalur Kot",
        "latitude": 32.15512,
        "longitude": 71.26631
    },
    {
        "id": 92460,
        "wikiDataId": "Q2573596",
        "type": "CITY",
        "city": "Kamalia",
        "name": "Kamalia",
        "latitude": 30.733333333,
        "longitude": 72.65
    },
    {
        "id": 92103,
        "wikiDataId": "Q15233153",
        "type": "CITY",
        "city": "Kamar Mushani",
        "name": "Kamar Mushani",
        "latitude": 32.84388889,
        "longitude": 71.36694444
    },
    {
        "id": 91684,
        "wikiDataId": "Q1260929",
        "type": "CITY",
        "city": "Kamoke",
        "name": "Kamoke",
        "latitude": 31.97444,
        "longitude": 74.22444
    },
    {
        "id": 91673,
        "wikiDataId": "Q6362466",
        "type": "CITY",
        "city": "Kanganpur",
        "name": "Kanganpur",
        "latitude": 30.76666667,
        "longitude": 74.13333333
    },
    {
        "id": 91908,
        "type": "CITY",
        "city": "Karor",
        "name": "Karor",
        "latitude": 31.2246,
        "longitude": 70.95153
    },
    {
        "id": 91761,
        "type": "CITY",
        "city": "Keshupur",
        "name": "Keshupur",
        "latitude": 32.26,
        "longitude": 72.5
    },
    {
        "id": 92645,
        "wikiDataId": "Q15272287",
        "type": "CITY",
        "city": "Khairpur Tamiwali",
        "name": "Khairpur Tamiwali",
        "latitude": 29.58,
        "longitude": 72.23277778
    },
    {
        "id": 91759,
        "type": "CITY",
        "city": "Khandowa",
        "name": "Khandowa",
        "latitude": 32.74255,
        "longitude": 72.73478
    },
    {
        "id": 92117,
        "wikiDataId": "Q1253395",
        "type": "CITY",
        "city": "Khanewal",
        "name": "Khanewal",
        "latitude": 30.3,
        "longitude": 71.933333333
    },
    {
        "id": 92386,
        "wikiDataId": "Q6400298",
        "type": "CITY",
        "city": "Khanga Dogran",
        "name": "Khanga Dogran",
        "latitude": 31.85397778,
        "longitude": 73.62898889
    },
    {
        "id": 92340,
        "wikiDataId": "Q1250097",
        "type": "CITY",
        "city": "Khanpur",
        "name": "Khanpur",
        "latitude": 28.64739,
        "longitude": 70.65694
    },
    {
        "id": 90943,
        "wikiDataId": "Q3696367",
        "type": "CITY",
        "city": "Kharian",
        "name": "Kharian",
        "latitude": 32.811,
        "longitude": 73.865
    },
    {
        "id": 91573,
        "wikiDataId": "Q3696036",
        "type": "CITY",
        "city": "Khewra",
        "name": "Khewra",
        "latitude": 32.65,
        "longitude": 73.016666666
    },
    {
        "id": 90800,
        "wikiDataId": "Q6403122",
        "type": "CITY",
        "city": "Khurrianwala",
        "name": "Khurrianwala",
        "latitude": 31.517222222,
        "longitude": 73.266666666
    },
    {
        "id": 91523,
        "wikiDataId": "Q1249939",
        "type": "CITY",
        "city": "Khushab",
        "name": "Khushab",
        "latitude": 32.5,
        "longitude": 72.566666666
    },
    {
        "id": 92382,
        "wikiDataId": "Q35695649",
        "type": "CITY",
        "city": "Khāngarh",
        "name": "Khāngarh",
        "latitude": 29.9173,
        "longitude": 71.16184
    },
    {
        "id": 92335,
        "wikiDataId": "Q35698055",
        "type": "CITY",
        "city": "Kohror Pakka",
        "name": "Kohror Pakka",
        "latitude": 29.62382,
        "longitude": 71.91673
    },
    {
        "id": 91176,
        "wikiDataId": "Q1260951",
        "type": "CITY",
        "city": "Kot Addu Tehsil",
        "name": "Kot Addu Tehsil",
        "latitude": 30.47,
        "longitude": 70.964444444
    },
    {
        "id": 91057,
        "wikiDataId": "Q35700684",
        "type": "CITY",
        "city": "Kot Ghulām Muhammad",
        "name": "Kot Ghulām Muhammad",
        "latitude": 32.33298,
        "longitude": 74.54798
    },
    {
        "id": 91145,
        "wikiDataId": "Q35700691",
        "type": "CITY",
        "city": "Kot Mūmin",
        "name": "Kot Mūmin",
        "latitude": 32.18954,
        "longitude": 73.02797
    },
    {
        "id": 91654,
        "type": "CITY",
        "city": "Kot Rajkour",
        "name": "Kot Rajkour",
        "latitude": 32.41208,
        "longitude": 74.62855
    },
    {
        "id": 91116,
        "wikiDataId": "Q35700702",
        "type": "CITY",
        "city": "Kot Rādha Kishan",
        "name": "Kot Rādha Kishan",
        "latitude": 31.1725,
        "longitude": 74.09972
    },
    {
        "id": 90910,
        "wikiDataId": "Q35700709",
        "type": "CITY",
        "city": "Kot Samāba",
        "name": "Kot Samāba",
        "latitude": 28.55221,
        "longitude": 70.46837
    },
    {
        "id": 90946,
        "type": "CITY",
        "city": "Kot Sultan",
        "name": "Kot Sultan",
        "latitude": 30.7737,
        "longitude": 70.93125
    },
    {
        "id": 90781,
        "wikiDataId": "Q35700779",
        "type": "CITY",
        "city": "Kotli Lohārān",
        "name": "Kotli Lohārān",
        "latitude": 32.588333333,
        "longitude": 74.493333333
    },
    {
        "id": 90777,
        "wikiDataId": "Q951628",
        "type": "CITY",
        "city": "Kundian",
        "name": "Kundian",
        "latitude": 32.45,
        "longitude": 71.466666666
    },
    {
        "id": 91227,
        "wikiDataId": "Q35705265",
        "type": "CITY",
        "city": "Kunjāh",
        "name": "Kunjāh",
        "latitude": 32.52848,
        "longitude": 73.97368
    },
    {
        "id": 92523,
        "wikiDataId": "Q35706664",
        "type": "CITY",
        "city": "Kāleke Mandi",
        "name": "Kāleke Mandi",
        "latitude": 31.97717,
        "longitude": 73.60259
    },
    {
        "id": 92279,
        "wikiDataId": "Q35706680",
        "type": "CITY",
        "city": "Kāmra",
        "name": "Kāmra",
        "latitude": 33.74734,
        "longitude": 73.51107
    },
    {
        "id": 90752,
        "wikiDataId": "Q35710190",
        "type": "CITY",
        "city": "Ladhewāla Warāich",
        "name": "Ladhewāla Warāich",
        "latitude": 32.15656,
        "longitude": 74.11701
    },
    {
        "id": 91370,
        "wikiDataId": "Q11739",
        "type": "CITY",
        "city": "Lahore",
        "name": "Lahore",
        "latitude": 31.549722222,
        "longitude": 74.343611111
    },
    {
        "id": 3002763,
        "wikiDataId": "Q3308170",
        "type": "ADM2",
        "city": "Lahore Division",
        "name": "Lahore Division",
        "latitude": 31.16666667,
        "longitude": 74.5
    },
    {
        "id": 90686,
        "wikiDataId": "Q3298223",
        "type": "CITY",
        "city": "Lalian",
        "name": "Lalian",
        "latitude": 31.825261111,
        "longitude": 72.802738888
    },
    {
        "id": 91604,
        "type": "CITY",
        "city": "Layyah",
        "name": "Layyah",
        "latitude": 30.96128,
        "longitude": 70.93904
    },
    {
        "id": 159615,
        "wikiDataId": "Q2418995",
        "type": "ADM2",
        "city": "Layyah District",
        "name": "Layyah District",
        "latitude": 30.9602,
        "longitude": 70.9423
    },
    {
        "id": 90956,
        "wikiDataId": "Q35717121",
        "type": "CITY",
        "city": "Liliāni",
        "name": "Liliāni",
        "latitude": 32.20651,
        "longitude": 72.95372
    },
    {
        "id": 91181,
        "wikiDataId": "Q1249783",
        "type": "CITY",
        "city": "Lodhran",
        "name": "Lodhran",
        "latitude": 29.533333333,
        "longitude": 71.633333333
    },
    {
        "id": 91627,
        "wikiDataId": "Q3695697",
        "type": "CITY",
        "city": "Lāla Musa",
        "name": "Lāla Musa",
        "latitude": 32.7012,
        "longitude": 73.9605
    },
    {
        "id": 91301,
        "wikiDataId": "Q3695872",
        "type": "CITY",
        "city": "Mailsi",
        "name": "Mailsi",
        "latitude": 29.800277777,
        "longitude": 72.175833333
    },
    {
        "id": 91944,
        "type": "CITY",
        "city": "Malakwal City",
        "name": "Malakwal City",
        "latitude": 32.55492,
        "longitude": 73.2122
    },
    {
        "id": 91045,
        "wikiDataId": "Q35723250",
        "type": "CITY",
        "city": "Malakwāl",
        "name": "Malakwāl",
        "latitude": 32.55362,
        "longitude": 73.21234
    },
    {
        "id": 91581,
        "wikiDataId": "Q6745993",
        "type": "CITY",
        "city": "Mamu Kanjan",
        "name": "Mamu Kanjan",
        "latitude": 30.83333333,
        "longitude": 72.8
    },
    {
        "id": 90747,
        "wikiDataId": "Q2419031",
        "type": "ADM2",
        "city": "Mandi Bahauddin District",
        "name": "Mandi Bahauddin District",
        "latitude": 32.583333333,
        "longitude": 73.5
    },
    {
        "id": 90742,
        "wikiDataId": "Q35723974",
        "type": "CITY",
        "city": "Mangla",
        "name": "Mangla",
        "latitude": 31.893055555,
        "longitude": 72.381666666
    },
    {
        "id": 91426,
        "wikiDataId": "Q3695856",
        "type": "CITY",
        "city": "Mankera",
        "name": "Mankera",
        "latitude": 31.38333333,
        "longitude": 71.43333333
    },
    {
        "id": 91726,
        "type": "CITY",
        "city": "Mehmand Chak",
        "name": "Mehmand Chak",
        "latitude": 32.78518,
        "longitude": 73.82306
    },
    {
        "id": 92262,
        "type": "CITY",
        "city": "Mianke Mor",
        "name": "Mianke Mor",
        "latitude": 31.2024,
        "longitude": 73.94857
    },
    {
        "id": 90997,
        "wikiDataId": "Q3307925",
        "type": "CITY",
        "city": "Mianwali",
        "name": "Mianwali",
        "latitude": 32.57756,
        "longitude": 71.52847
    },
    {
        "id": 91351,
        "wikiDataId": "Q3695838",
        "type": "CITY",
        "city": "Minchinabad",
        "name": "Minchinabad",
        "latitude": 30.16666667,
        "longitude": 73.56666667
    },
    {
        "id": 91431,
        "wikiDataId": "Q35730776",
        "type": "CITY",
        "city": "Mitha Tiwāna",
        "name": "Mitha Tiwāna",
        "latitude": 32.24861,
        "longitude": 72.11083
    },
    {
        "id": 91469,
        "wikiDataId": "Q35730866",
        "type": "CITY",
        "city": "Miān Channūn",
        "name": "Miān Channūn",
        "latitude": 30.44004,
        "longitude": 72.35431
    },
    {
        "id": 91817,
        "type": "CITY",
        "city": "Moza Shahwala",
        "name": "Moza Shahwala",
        "latitude": 30.80563,
        "longitude": 70.84911
    },
    {
        "id": 91522,
        "wikiDataId": "Q185453",
        "type": "CITY",
        "city": "Multan",
        "name": "Multan",
        "latitude": 30.2,
        "longitude": 71.416666666
    },
    {
        "id": 159529,
        "wikiDataId": "Q2281168",
        "type": "ADM2",
        "city": "Multan District",
        "name": "Multan District",
        "latitude": 30.083333333,
        "longitude": 71.666666666
    },
    {
        "id": 3084855,
        "wikiDataId": "Q3824212",
        "type": "ADM2",
        "city": "Multan Division",
        "name": "Multan Division",
        "latitude": 30,
        "longitude": 71.66667
    },
    {
        "id": 91038,
        "wikiDataId": "Q2978509",
        "type": "CITY",
        "city": "Muridke",
        "name": "Muridke",
        "latitude": 31.75,
        "longitude": 73.833333333
    },
    {
        "id": 91214,
        "wikiDataId": "Q1020224",
        "type": "CITY",
        "city": "Murree",
        "name": "Murree",
        "latitude": 33.9042,
        "longitude": 73.3903
    },
    {
        "id": 90855,
        "wikiDataId": "Q35735958",
        "type": "CITY",
        "city": "Mustafābād",
        "name": "Mustafābād",
        "latitude": 30.892222222,
        "longitude": 73.498888888
    },
    {
        "id": 91059,
        "wikiDataId": "Q301627",
        "type": "CITY",
        "city": "Muzaffargarh",
        "name": "Muzaffargarh",
        "latitude": 30.070277777,
        "longitude": 71.193333333
    },
    {
        "id": 91529,
        "wikiDataId": "Q33465446",
        "type": "CITY",
        "city": "Mānānwāla",
        "name": "Mānānwāla",
        "latitude": 31.58417,
        "longitude": 73.68778
    },
    {
        "id": 90684,
        "wikiDataId": "Q2353077",
        "type": "CITY",
        "city": "Nankana Sahib",
        "name": "Nankana Sahib",
        "latitude": 31.449187,
        "longitude": 73.712437
    },
    {
        "id": 91256,
        "wikiDataId": "Q6965345",
        "type": "CITY",
        "city": "Narang Mandi",
        "name": "Narang Mandi",
        "latitude": 31.910277777,
        "longitude": 74.513611111
    },
    {
        "id": 90683,
        "wikiDataId": "Q2977081",
        "type": "CITY",
        "city": "Narowal",
        "name": "Narowal",
        "latitude": 32.1,
        "longitude": 74.866666666
    },
    {
        "id": 90802,
        "wikiDataId": "Q33465921",
        "type": "CITY",
        "city": "Naushahra Virkān",
        "name": "Naushahra Virkān",
        "latitude": 31.96283,
        "longitude": 73.97225
    },
    {
        "id": 92654,
        "type": "CITY",
        "city": "Nazir Town",
        "name": "Nazir Town",
        "latitude": 33.30614,
        "longitude": 73.4833
    },
    {
        "id": 91317,
        "wikiDataId": "Q968211",
        "type": "CITY",
        "city": "Okara, Pakistan",
        "name": "Okara, Pakistan",
        "latitude": 30.81,
        "longitude": 73.459722222
    },
    {
        "id": 3069730,
        "wikiDataId": "Q33471024",
        "type": "CITY",
        "city": "Pakki Shagwanwali",
        "name": "Pakki Shagwanwali",
        "latitude": 30.79033,
        "longitude": 70.87139
    },
    {
        "id": 91620,
        "wikiDataId": "Q1249801",
        "type": "CITY",
        "city": "Pakpattan",
        "name": "Pakpattan",
        "latitude": 30.35,
        "longitude": 73.4
    },
    {
        "id": 91094,
        "wikiDataId": "Q3246361",
        "type": "CITY",
        "city": "Pasrur Tehsil",
        "name": "Pasrur Tehsil",
        "latitude": 32.26413,
        "longitude": 74.66343
    },
    {
        "id": 91558,
        "wikiDataId": "Q2592708",
        "type": "CITY",
        "city": "Pattoki",
        "name": "Pattoki",
        "latitude": 31.017,
        "longitude": 73.85
    },
    {
        "id": 91512,
        "wikiDataId": "Q3696336",
        "type": "CITY",
        "city": "Phalia",
        "name": "Phalia",
        "latitude": 32.4333,
        "longitude": 73.5833
    },
    {
        "id": 91159,
        "wikiDataId": "Q33472673",
        "type": "CITY",
        "city": "Pind Dādan Khān",
        "name": "Pind Dādan Khān",
        "latitude": 32.58789,
        "longitude": 73.04564
    },
    {
        "id": 90808,
        "wikiDataId": "Q7195018",
        "type": "CITY",
        "city": "Pindi Bhattian",
        "name": "Pindi Bhattian",
        "latitude": 31.895782,
        "longitude": 73.276062
    },
    {
        "id": 91101,
        "wikiDataId": "Q33472694",
        "type": "CITY",
        "city": "Pindi Gheb",
        "name": "Pindi Gheb",
        "latitude": 33.24023,
        "longitude": 72.26609
    },
    {
        "id": 91091,
        "wikiDataId": "Q33474377",
        "type": "CITY",
        "city": "Pīr Mahal",
        "name": "Pīr Mahal",
        "latitude": 30.76667,
        "longitude": 72.43333
    },
    {
        "id": 91267,
        "wikiDataId": "Q7265783",
        "type": "CITY",
        "city": "Qadirpur Ran",
        "name": "Qadirpur Ran",
        "latitude": 30.28333333,
        "longitude": 71.66666667
    },
    {
        "id": 3080328,
        "wikiDataId": "Q7267726",
        "type": "CITY",
        "city": "Qila Didar Singh",
        "name": "Qila Didar Singh",
        "latitude": 32.8,
        "longitude": 74.1
    },
    {
        "id": 91459,
        "wikiDataId": "Q1069835",
        "type": "CITY",
        "city": "Rabwah",
        "name": "Rabwah",
        "latitude": 31.75,
        "longitude": 72.916666666
    },
    {
        "id": 91389,
        "wikiDataId": "Q989297",
        "type": "CITY",
        "city": "Rahim Yar Khan",
        "name": "Rahim Yar Khan",
        "latitude": 28.7,
        "longitude": 70.5
    },
    {
        "id": 159510,
        "wikiDataId": "Q2639823",
        "type": "ADM2",
        "city": "Rahimyar Khan District",
        "name": "Rahimyar Khan District",
        "latitude": 28.4602,
        "longitude": 70.52837
    },
    {
        "id": 90925,
        "wikiDataId": "Q4688896",
        "type": "CITY",
        "city": "Raiwind",
        "name": "Raiwind",
        "latitude": 31.2542,
        "longitude": 74.2211
    },
    {
        "id": 91662,
        "wikiDataId": "Q7285457",
        "type": "CITY",
        "city": "Raja Jang",
        "name": "Raja Jang",
        "latitude": 31.22083333,
        "longitude": 74.25194444
    },
    {
        "id": 90849,
        "wikiDataId": "Q2998238",
        "type": "CITY",
        "city": "Rajanpur",
        "name": "Rajanpur",
        "latitude": 29.1,
        "longitude": 70.31666667
    },
    {
        "id": 91135,
        "wikiDataId": "Q33474801",
        "type": "CITY",
        "city": "Rasūlnagar",
        "name": "Rasūlnagar",
        "latitude": 32.32853,
        "longitude": 73.78136
    },
    {
        "id": 91234,
        "wikiDataId": "Q93230",
        "type": "CITY",
        "city": "Rawalpindi",
        "name": "Rawalpindi",
        "latitude": 33.6007,
        "longitude": 73.0679
    },
    {
        "id": 159512,
        "wikiDataId": "Q24440",
        "type": "ADM2",
        "city": "Rawalpindi District",
        "name": "Rawalpindi District",
        "latitude": 33.333333333,
        "longitude": 73.25
    },
    {
        "id": 3061150,
        "wikiDataId": "Q3308218",
        "type": "ADM2",
        "city": "Rawalpindi Division",
        "name": "Rawalpindi Division",
        "latitude": 33.16664,
        "longitude": 72.99974
    },
    {
        "id": 90857,
        "wikiDataId": "Q3321405",
        "type": "CITY",
        "city": "Renala Khurd",
        "name": "Renala Khurd",
        "latitude": 30.883333333,
        "longitude": 73.6
    },
    {
        "id": 91285,
        "wikiDataId": "Q33476106",
        "type": "CITY",
        "city": "Rojhān",
        "name": "Rojhān",
        "latitude": 28.68677,
        "longitude": 69.95343
    },
    {
        "id": 91384,
        "wikiDataId": "Q1251234",
        "type": "CITY",
        "city": "Sadiqabad",
        "name": "Sadiqabad",
        "latitude": 28.283333333,
        "longitude": 70.116666666
    },
    {
        "id": 90819,
        "wikiDataId": "Q523778",
        "type": "CITY",
        "city": "Sahiwal",
        "name": "Sahiwal",
        "latitude": 31.116666666,
        "longitude": 73.183333333
    },
    {
        "id": 90701,
        "wikiDataId": "Q3246527",
        "type": "CITY",
        "city": "Sambrial Tehsil",
        "name": "Sambrial Tehsil",
        "latitude": 32.16,
        "longitude": 74.4
    },
    {
        "id": 91042,
        "wikiDataId": "Q3248290",
        "type": "CITY",
        "city": "Sangla Hill Tehsil",
        "name": "Sangla Hill Tehsil",
        "latitude": 31.713333,
        "longitude": 73.374444
    },
    {
        "id": 91457,
        "wikiDataId": "Q33480741",
        "type": "CITY",
        "city": "Sanjwāl",
        "name": "Sanjwāl",
        "latitude": 33.76083,
        "longitude": 72.43361
    },
    {
        "id": 90697,
        "wikiDataId": "Q3243456",
        "type": "CITY",
        "city": "Sarai Alamgir Tehsil",
        "name": "Sarai Alamgir Tehsil",
        "latitude": 32.9,
        "longitude": 73.75
    },
    {
        "id": 90999,
        "wikiDataId": "Q855997",
        "type": "CITY",
        "city": "Sargodha",
        "name": "Sargodha",
        "latitude": 32.083611111,
        "longitude": 72.671111111
    },
    {
        "id": 91651,
        "wikiDataId": "Q33481932",
        "type": "CITY",
        "city": "Sarāi Sidhu",
        "name": "Sarāi Sidhu",
        "latitude": 30.59489,
        "longitude": 71.96977
    },
    {
        "id": 91630,
        "wikiDataId": "Q3243491",
        "type": "CITY",
        "city": "Shahkot Tehsil",
        "name": "Shahkot Tehsil",
        "latitude": 31.561666666,
        "longitude": 73.4875
    },
    {
        "id": 90963,
        "wikiDataId": "Q33483938",
        "type": "CITY",
        "city": "Shahr Sultān",
        "name": "Shahr Sultān",
        "latitude": 29.57646,
        "longitude": 71.02116
    },
    {
        "id": 91272,
        "wikiDataId": "Q33483959",
        "type": "CITY",
        "city": "Shakargarr",
        "name": "Shakargarr",
        "latitude": 32.26232,
        "longitude": 75.16683
    },
    {
        "id": 91560,
        "wikiDataId": "Q33484038",
        "type": "CITY",
        "city": "Sharqpur",
        "name": "Sharqpur",
        "latitude": 31.46333,
        "longitude": 74.1
    },
    {
        "id": 91154,
        "wikiDataId": "Q972756",
        "type": "CITY",
        "city": "Sheikhupura",
        "name": "Sheikhupura",
        "latitude": 31.708333333,
        "longitude": 74
    },
    {
        "id": 3069649,
        "wikiDataId": "Q7501510",
        "type": "CITY",
        "city": "Shorkot",
        "name": "Shorkot",
        "latitude": 30.5,
        "longitude": 72.4
    },
    {
        "id": 91055,
        "wikiDataId": "Q33484330",
        "type": "CITY",
        "city": "Shujāābād",
        "name": "Shujāābād",
        "latitude": 29.87967,
        "longitude": 71.29313
    },
    {
        "id": 90916,
        "wikiDataId": "Q33484369",
        "type": "CITY",
        "city": "Shāhpur",
        "name": "Shāhpur",
        "latitude": 32.2676,
        "longitude": 72.47204
    },
    {
        "id": 90862,
        "wikiDataId": "Q643883",
        "type": "CITY",
        "city": "Sialkot",
        "name": "Sialkot",
        "latitude": 32.5,
        "longitude": 74.533333333
    },
    {
        "id": 91634,
        "wikiDataId": "Q3694879",
        "type": "CITY",
        "city": "Sillanwali",
        "name": "Sillanwali",
        "latitude": 31.82611,
        "longitude": 72.53984
    },
    {
        "id": 91115,
        "wikiDataId": "Q7553268",
        "type": "CITY",
        "city": "Sodhra",
        "name": "Sodhra",
        "latitude": 32.46162,
        "longitude": 74.18234
    },
    {
        "id": 90816,
        "wikiDataId": "Q33499020",
        "type": "CITY",
        "city": "Sukheke Mandi",
        "name": "Sukheke Mandi",
        "latitude": 31.86388,
        "longitude": 73.51122
    },
    {
        "id": 90898,
        "wikiDataId": "Q33499683",
        "type": "CITY",
        "city": "Surkhpur",
        "name": "Surkhpur",
        "latitude": 32.716666666,
        "longitude": 74.45
    },
    {
        "id": 2982773,
        "wikiDataId": "Q33503375",
        "type": "CITY",
        "city": "Sāhīwāl",
        "name": "Sāhīwāl",
        "latitude": 31.97446,
        "longitude": 72.33087
    },
    {
        "id": 91329,
        "wikiDataId": "Q33504942",
        "type": "CITY",
        "city": "Talagang",
        "name": "Talagang",
        "latitude": 32.929722222,
        "longitude": 72.415833333
    },
    {
        "id": 91454,
        "wikiDataId": "Q33504956",
        "type": "CITY",
        "city": "Talamba",
        "name": "Talamba",
        "latitude": 30.52708,
        "longitude": 72.24011
    },
    {
        "id": 91382,
        "wikiDataId": "Q3695292",
        "type": "CITY",
        "city": "Tandlianwala",
        "name": "Tandlianwala",
        "latitude": 31.031666666,
        "longitude": 73.131666666
    },
    {
        "id": 91130,
        "wikiDataId": "Q3243471",
        "type": "CITY",
        "city": "Taunsa Tehsil",
        "name": "Taunsa Tehsil",
        "latitude": 30.705555555,
        "longitude": 70.657777777
    },
    {
        "id": 91525,
        "wikiDataId": "Q2659599",
        "type": "CITY",
        "city": "Toba Tek Singh",
        "name": "Toba Tek Singh",
        "latitude": 30.966666666,
        "longitude": 72.483333333
    },
    {
        "id": 3066822,
        "wikiDataId": "Q2625910",
        "type": "CITY",
        "city": "Umerkot",
        "name": "Umerkot",
        "latitude": 25.361388888,
        "longitude": 69.736111111
    },
    {
        "id": 90737,
        "type": "CITY",
        "city": "Vihari",
        "name": "Vihari",
        "latitude": 30.0445,
        "longitude": 72.3556
    },
    {
        "id": 3078717,
        "wikiDataId": "Q2119444",
        "type": "CITY",
        "city": "Wah",
        "name": "Wah",
        "latitude": 33.81,
        "longitude": 72.709722222
    },
    {
        "id": 91465,
        "wikiDataId": "Q7968864",
        "type": "CITY",
        "city": "Warburton, Punjab, Pakistan",
        "name": "Warburton, Punjab, Pakistan",
        "latitude": 31.55,
        "longitude": 73.8333
    },
    {
        "id": 90829,
        "wikiDataId": "Q1026613",
        "type": "CITY",
        "city": "Wazirabad",
        "name": "Wazirabad",
        "latitude": 32.75,
        "longitude": 74.166666666
    },
    {
        "id": 2981516,
        "wikiDataId": "Q3246245",
        "type": "ADM2",
        "city": "West Punjab",
        "name": "West Punjab",
        "latitude": 31,
        "longitude": 72
    },
    {
        "id": 91564,
        "wikiDataId": "Q8050625",
        "type": "CITY",
        "city": "Yazman",
        "name": "Yazman",
        "latitude": 29.8,
        "longitude": 71.45
    },
    {
        "id": 91248,
        "wikiDataId": "Q33524326",
        "type": "CITY",
        "city": "Zafarwāl",
        "name": "Zafarwāl",
        "latitude": 32.34631,
        "longitude": 74.89987
    },
    {
        "id": 91425,
        "wikiDataId": "Q8076090",
        "type": "CITY",
        "city": "Zāhir Pīr",
        "name": "Zāhir Pīr",
        "latitude": 28.81,
        "longitude": 70.526
    }
]
