[
    {
        "id": 3180291,
        "wikiDataId": "Q1864884",
        "type": "CITY",
        "city": "Adjuntas",
        "name": "Adjuntas",
        "latitude": 18.162777777,
        "longitude": -66.722222222
    },
    {
        "id": 3180206,
        "wikiDataId": "Q397789",
        "type": "CITY",
        "city": "Aguada",
        "name": "Aguada",
        "latitude": 18.379444444,
        "longitude": -67.188333333
    },
    {
        "id": 3180105,
        "wikiDataId": "Q31870764",
        "type": "ADM2",
        "city": "Aguadilla",
        "name": "Aguadilla",
        "latitude": 18.42745,
        "longitude": -67.15407
    },
    {
        "id": 3180120,
        "wikiDataId": "Q397826",
        "type": "CITY",
        "city": "Aguadilla",
        "name": "Aguadilla",
        "latitude": 18.43,
        "longitude": -67.154444444
    },
    {
        "id": 3180289,
        "wikiDataId": "Q2361568",
        "type": "CITY",
        "city": "Aguas Buenas",
        "name": "Aguas Buenas",
        "latitude": 18.256944,
        "longitude": -66.103056
    },
    {
        "id": 3180403,
        "wikiDataId": "Q2183639",
        "type": "CITY",
        "city": "Aguas Claras",
        "name": "Aguas Claras",
        "latitude": 18.24417,
        "longitude": -65.66278
    },
    {
        "id": 3180100,
        "wikiDataId": "Q31870903",
        "type": "CITY",
        "city": "Aguilita",
        "name": "Aguilita",
        "latitude": 18.023333333,
        "longitude": -66.534722222
    },
    {
        "id": 3180179,
        "wikiDataId": "Q2485628",
        "type": "CITY",
        "city": "Aibonito",
        "name": "Aibonito",
        "latitude": 18.14,
        "longitude": -66.266111
    },
    {
        "id": 3180237,
        "wikiDataId": "Q31883564",
        "type": "CITY",
        "city": "Animas",
        "name": "Animas",
        "latitude": 18.445555555,
        "longitude": -66.635
    },
    {
        "id": 3180276,
        "wikiDataId": "Q49344398",
        "type": "CITY",
        "city": "Antón Ruiz",
        "name": "Antón Ruiz",
        "latitude": 18.185277777,
        "longitude": -65.808611111
    },
    {
        "id": 3180129,
        "wikiDataId": "Q640728",
        "type": "CITY",
        "city": "Arecibo",
        "name": "Arecibo",
        "latitude": 18.470555555,
        "longitude": -66.720833333
    },
    {
        "id": 3180210,
        "wikiDataId": "Q31887497",
        "type": "ADM2",
        "city": "Arecibo",
        "name": "Arecibo",
        "latitude": 18.47245,
        "longitude": -66.71573
    },
    {
        "id": 3180260,
        "wikiDataId": "Q425678",
        "type": "CITY",
        "city": "Arroyo",
        "name": "Arroyo",
        "latitude": 17.965833,
        "longitude": -66.061389
    },
    {
        "id": 3180316,
        "wikiDataId": "Q2390910",
        "type": "CITY",
        "city": "Añasco",
        "name": "Añasco",
        "latitude": 18.316111111,
        "longitude": -67.139722222
    },
    {
        "id": 3180369,
        "wikiDataId": "Q33659371",
        "type": "ADM2",
        "city": "Añasco",
        "name": "Añasco",
        "latitude": 18.28134,
        "longitude": -67.1274
    },
    {
        "id": 3180199,
        "wikiDataId": "Q31898821",
        "type": "CITY",
        "city": "Bairoa",
        "name": "Bairoa",
        "latitude": 18.259166666,
        "longitude": -66.040555555
    },
    {
        "id": 3180272,
        "wikiDataId": "Q31899220",
        "type": "CITY",
        "city": "Bajadero",
        "name": "Bajadero",
        "latitude": 18.426666666,
        "longitude": -66.683333333
    },
    {
        "id": 3180124,
        "wikiDataId": "Q2576863",
        "type": "CITY",
        "city": "Bajandas",
        "name": "Bajandas",
        "latitude": 18.16278,
        "longitude": -65.78167
    },
    {
        "id": 3180181,
        "wikiDataId": "Q31910635",
        "type": "CITY",
        "city": "Barahona",
        "name": "Barahona",
        "latitude": 18.351388888,
        "longitude": -66.445555555
    },
    {
        "id": 3180274,
        "wikiDataId": "Q31910864",
        "type": "ADM2",
        "city": "Barceloneta",
        "name": "Barceloneta",
        "latitude": 18.45633,
        "longitude": -66.54128
    },
    {
        "id": 3180383,
        "wikiDataId": "Q2025087",
        "type": "CITY",
        "city": "Barceloneta",
        "name": "Barceloneta",
        "latitude": 18.450556,
        "longitude": -66.538611
    },
    {
        "id": 3180268,
        "wikiDataId": "Q31911528",
        "type": "ADM2",
        "city": "Barranquitas",
        "name": "Barranquitas",
        "latitude": 18.20357,
        "longitude": -66.31211
    },
    {
        "id": 3180158,
        "wikiDataId": "Q2485615",
        "type": "CITY",
        "city": "Barranquitas",
        "name": "Barranquitas",
        "latitude": 18.186667,
        "longitude": -66.306389
    },
    {
        "id": 3180146,
        "wikiDataId": "Q31911774",
        "type": "CITY",
        "city": "Bartolo",
        "name": "Bartolo",
        "latitude": 18.361388888,
        "longitude": -65.838611111
    },
    {
        "id": 3180360,
        "wikiDataId": "Q16089204",
        "type": "CITY",
        "city": "Bayamon",
        "name": "Bayamon",
        "latitude": 18.177777777,
        "longitude": -66.113333333
    },
    {
        "id": 3180887,
        "wikiDataId": "Q739675",
        "type": "CITY",
        "city": "Bayamón",
        "name": "Bayamón",
        "latitude": 18.383333333,
        "longitude": -66.15
    },
    {
        "id": 3180230,
        "wikiDataId": "Q31914150",
        "type": "CITY",
        "city": "Benitez",
        "name": "Benitez",
        "latitude": 18.273611111,
        "longitude": -65.879166666
    },
    {
        "id": 3180404,
        "wikiDataId": "Q31915100",
        "type": "CITY",
        "city": "Betances",
        "name": "Betances",
        "latitude": 18.028611111,
        "longitude": -67.135
    },
    {
        "id": 3180246,
        "wikiDataId": "Q31924393",
        "type": "CITY",
        "city": "Boqueron",
        "name": "Boqueron",
        "latitude": 18.2075,
        "longitude": -65.848611111
    },
    {
        "id": 3180196,
        "wikiDataId": "Q8250813",
        "type": "ADM2",
        "city": "Boquerón, Cabo Rojo",
        "name": "Boquerón, Cabo Rojo",
        "latitude": 18.02691,
        "longitude": -67.16907
    },
    {
        "id": 3180155,
        "wikiDataId": "Q31926007",
        "type": "CITY",
        "city": "Brenas",
        "name": "Brenas",
        "latitude": 18.467222222,
        "longitude": -66.341111111
    },
    {
        "id": 3180167,
        "wikiDataId": "Q34783838",
        "type": "CITY",
        "city": "Buena Vista",
        "name": "Buena Vista",
        "latitude": 17.996388888,
        "longitude": -66.051944444
    },
    {
        "id": 3180269,
        "wikiDataId": "Q34783857",
        "type": "CITY",
        "city": "Bufalo",
        "name": "Bufalo",
        "latitude": 18.418333333,
        "longitude": -66.573333333
    },
    {
        "id": 3180096,
        "wikiDataId": "Q34789057",
        "type": "CITY",
        "city": "Caban",
        "name": "Caban",
        "latitude": 18.443333333,
        "longitude": -67.136111111
    },
    {
        "id": 3180147,
        "wikiDataId": "Q1019607",
        "type": "CITY",
        "city": "Cabo Rojo",
        "name": "Cabo Rojo",
        "latitude": 18.086666666,
        "longitude": -67.145833333
    },
    {
        "id": 3180130,
        "wikiDataId": "Q33661886",
        "type": "ADM2",
        "city": "Cabo Rojo Municipio",
        "name": "Cabo Rojo Municipio",
        "latitude": 18.05635,
        "longitude": -67.14685
    },
    {
        "id": 3180305,
        "wikiDataId": "Q2522691",
        "type": "CITY",
        "city": "Cacao",
        "name": "Cacao",
        "latitude": 18.44028,
        "longitude": -66.93861
    },
    {
        "id": 3180254,
        "wikiDataId": "Q527268",
        "type": "CITY",
        "city": "Caguas",
        "name": "Caguas",
        "latitude": 18.233333333,
        "longitude": -66.033333333
    },
    {
        "id": 3180242,
        "wikiDataId": "Q34789490",
        "type": "CITY",
        "city": "Campanilla",
        "name": "Campanilla",
        "latitude": 18.421388888,
        "longitude": -66.236944444
    },
    {
        "id": 3180256,
        "wikiDataId": "Q34789558",
        "type": "CITY",
        "city": "Campo Rico",
        "name": "Campo Rico",
        "latitude": 18.337222222,
        "longitude": -65.898055555
    },
    {
        "id": 3180364,
        "wikiDataId": "Q2380860",
        "type": "CITY",
        "city": "Camuy",
        "name": "Camuy",
        "latitude": 18.483889,
        "longitude": -66.845
    },
    {
        "id": 3180177,
        "wikiDataId": "Q5619754",
        "type": "CITY",
        "city": "Camuy",
        "name": "Camuy",
        "latitude": 18.48417,
        "longitude": -66.84639
    },
    {
        "id": 3180285,
        "wikiDataId": "Q34789640",
        "type": "CITY",
        "city": "Candelaria",
        "name": "Candelaria",
        "latitude": 18.404166666,
        "longitude": -66.208888888
    },
    {
        "id": 3180213,
        "wikiDataId": "Q34789645",
        "type": "CITY",
        "city": "Candelaria Arenas",
        "name": "Candelaria Arenas",
        "latitude": 18.417222222,
        "longitude": -66.2175
    },
    {
        "id": 3180191,
        "wikiDataId": "Q5747332",
        "type": "CITY",
        "city": "Candelero Arriba",
        "name": "Candelero Arriba",
        "latitude": 18.1056,
        "longitude": -65.8342
    },
    {
        "id": 3180322,
        "wikiDataId": "Q2361552",
        "type": "CITY",
        "city": "Canóvanas",
        "name": "Canóvanas",
        "latitude": 18.379167,
        "longitude": -65.901389
    },
    {
        "id": 3180350,
        "wikiDataId": "Q34789869",
        "type": "CITY",
        "city": "Capitanejo",
        "name": "Capitanejo",
        "latitude": 18.01454,
        "longitude": -66.53372
    },
    {
        "id": 3180101,
        "wikiDataId": "Q990293",
        "type": "CITY",
        "city": "Carolina",
        "name": "Carolina",
        "latitude": 18.388888888,
        "longitude": -65.966666666
    },
    {
        "id": 3180178,
        "wikiDataId": "Q34790110",
        "type": "CITY",
        "city": "Carrizales",
        "name": "Carrizales",
        "latitude": 18.481944444,
        "longitude": -66.79
    },
    {
        "id": 3180108,
        "wikiDataId": "Q49281781",
        "type": "ADM2",
        "city": "Cataño",
        "name": "Cataño",
        "latitude": 18.44134,
        "longitude": -66.11822
    },
    {
        "id": 3180304,
        "wikiDataId": "Q768483",
        "type": "CITY",
        "city": "Cataño",
        "name": "Cataño",
        "latitude": 18.441389,
        "longitude": -66.118333
    },
    {
        "id": 3180221,
        "wikiDataId": "Q2020924",
        "type": "CITY",
        "city": "Cayey",
        "name": "Cayey",
        "latitude": 18.115,
        "longitude": -66.16139
    },
    {
        "id": 3180353,
        "wikiDataId": "Q2307508",
        "type": "CITY",
        "city": "Cayey",
        "name": "Cayey",
        "latitude": 18.111944444,
        "longitude": -66.166111111
    },
    {
        "id": 3180377,
        "wikiDataId": "Q1966062",
        "type": "CITY",
        "city": "Cayuco",
        "name": "Cayuco",
        "latitude": 18.29194,
        "longitude": -66.73528
    },
    {
        "id": 3180197,
        "wikiDataId": "Q34790768",
        "type": "CITY",
        "city": "Ceiba",
        "name": "Ceiba",
        "latitude": 18.446388888,
        "longitude": -66.350833333
    },
    {
        "id": 3180192,
        "wikiDataId": "Q2307548",
        "type": "CITY",
        "city": "Ceiba",
        "name": "Ceiba",
        "latitude": 18.26412,
        "longitude": -65.6485
    },
    {
        "id": 3180273,
        "wikiDataId": "Q33662631",
        "type": "ADM2",
        "city": "Ceiba Municipio",
        "name": "Ceiba Municipio",
        "latitude": 18.26051,
        "longitude": -65.67183
    },
    {
        "id": 3180241,
        "wikiDataId": "Q34790783",
        "type": "CITY",
        "city": "Celada",
        "name": "Celada",
        "latitude": 18.271666666,
        "longitude": -65.966111111
    },
    {
        "id": 3180280,
        "wikiDataId": "Q2153956",
        "type": "CITY",
        "city": "Central Aguirre",
        "name": "Central Aguirre",
        "latitude": 17.95472,
        "longitude": -66.22611
    },
    {
        "id": 3180089,
        "wikiDataId": "Q2485522",
        "type": "CITY",
        "city": "Ciales",
        "name": "Ciales",
        "latitude": 18.336111,
        "longitude": -66.468889
    },
    {
        "id": 3180302,
        "wikiDataId": "Q33664100",
        "type": "ADM2",
        "city": "Ciales Municipio",
        "name": "Ciales Municipio",
        "latitude": 18.29162,
        "longitude": -66.51628
    },
    {
        "id": 3180324,
        "wikiDataId": "Q2485552",
        "type": "CITY",
        "city": "Cidra",
        "name": "Cidra",
        "latitude": 18.175833333,
        "longitude": -66.161388888
    },
    {
        "id": 3180184,
        "wikiDataId": "Q1942303",
        "type": "CITY",
        "city": "Coamo",
        "name": "Coamo",
        "latitude": 18.08,
        "longitude": -66.358055555
    },
    {
        "id": 3180193,
        "wikiDataId": "Q34795892",
        "type": "CITY",
        "city": "Coco",
        "name": "Coco",
        "latitude": 18.007222222,
        "longitude": -66.259444444
    },
    {
        "id": 3180300,
        "wikiDataId": "Q2222328",
        "type": "CITY",
        "city": "Comerío",
        "name": "Comerío",
        "latitude": 18.21801,
        "longitude": -66.226
    },
    {
        "id": 3180358,
        "wikiDataId": "Q33664493",
        "type": "ADM2",
        "city": "Comerío Municipio",
        "name": "Comerío Municipio",
        "latitude": 18.22718,
        "longitude": -66.22183
    },
    {
        "id": 3180097,
        "wikiDataId": "Q34796281",
        "type": "CITY",
        "city": "Comunas",
        "name": "Comunas",
        "latitude": 18.087222222,
        "longitude": -65.843888888
    },
    {
        "id": 3180379,
        "wikiDataId": "Q34796531",
        "type": "CITY",
        "city": "Coquí",
        "name": "Coquí",
        "latitude": 17.974166666,
        "longitude": -66.227222222
    },
    {
        "id": 3180376,
        "wikiDataId": "Q34796542",
        "type": "CITY",
        "city": "Corazón",
        "name": "Corazón",
        "latitude": 17.992777777,
        "longitude": -66.085
    },
    {
        "id": 3180351,
        "wikiDataId": "Q34796560",
        "type": "CITY",
        "city": "Corcovado",
        "name": "Corcovado",
        "latitude": 18.458611111,
        "longitude": -66.776388888
    },
    {
        "id": 3180110,
        "wikiDataId": "Q1884385",
        "type": "CITY",
        "city": "Corozal",
        "name": "Corozal",
        "latitude": 18.341666666,
        "longitude": -66.316944444
    },
    {
        "id": 3180342,
        "wikiDataId": "Q33669445",
        "type": "ADM2",
        "city": "Corozal Municipio",
        "name": "Corozal Municipio",
        "latitude": 18.30912,
        "longitude": -66.326
    },
    {
        "id": 3180298,
        "wikiDataId": "Q5175410",
        "type": "CITY",
        "city": "Coto Laurel",
        "name": "Coto Laurel",
        "latitude": 18.04969,
        "longitude": -66.55128
    },
    {
        "id": 3180252,
        "wikiDataId": "Q5790217",
        "type": "CITY",
        "city": "Coto Norte",
        "name": "Coto Norte",
        "latitude": 18.43078,
        "longitude": -66.43989
    },
    {
        "id": 3180141,
        "wikiDataId": "Q775056",
        "type": "CITY",
        "city": "Culebra",
        "name": "Culebra",
        "latitude": 18.316666666,
        "longitude": -65.290277777
    },
    {
        "id": 3180323,
        "wikiDataId": "Q5192898",
        "type": "ADM2",
        "city": "Culebra barrio-pueblo",
        "name": "Culebra barrio-pueblo",
        "latitude": 18.3064695,
        "longitude": -65.30258
    },
    {
        "id": 3180410,
        "wikiDataId": "Q34799944",
        "type": "CITY",
        "city": "Daguao",
        "name": "Daguao",
        "latitude": 18.226388888,
        "longitude": -65.683333333
    },
    {
        "id": 3180277,
        "wikiDataId": "Q2217567",
        "type": "CITY",
        "city": "Dorado",
        "name": "Dorado",
        "latitude": 18.458889,
        "longitude": -66.267778
    },
    {
        "id": 3180366,
        "wikiDataId": "Q33671013",
        "type": "ADM2",
        "city": "Dorado Municipio",
        "name": "Dorado Municipio",
        "latitude": 18.43967,
        "longitude": -66.28295
    },
    {
        "id": 3180349,
        "wikiDataId": "Q49349586",
        "type": "CITY",
        "city": "El Mangó",
        "name": "El Mangó",
        "latitude": 18.234166666,
        "longitude": -65.879722222
    },
    {
        "id": 3180407,
        "wikiDataId": "Q49349590",
        "type": "CITY",
        "city": "El Negro",
        "name": "El Negro",
        "latitude": 18.0375,
        "longitude": -65.851388888
    },
    {
        "id": 3180186,
        "wikiDataId": "Q49349593",
        "type": "CITY",
        "city": "El Ojo",
        "name": "El Ojo",
        "latitude": 18.003888888,
        "longitude": -66.391666666
    },
    {
        "id": 3180283,
        "wikiDataId": "Q49349689",
        "type": "CITY",
        "city": "Emajagua",
        "name": "Emajagua",
        "latitude": 18.000555555,
        "longitude": -65.882777777
    },
    {
        "id": 3180267,
        "wikiDataId": "Q49349835",
        "type": "CITY",
        "city": "Esperanza",
        "name": "Esperanza",
        "latitude": 18.097222222,
        "longitude": -65.470833333
    },
    {
        "id": 3180292,
        "wikiDataId": "Q49349839",
        "type": "CITY",
        "city": "Espino",
        "name": "Espino",
        "latitude": 18.276388888,
        "longitude": -67.119444444
    },
    {
        "id": 3180406,
        "wikiDataId": "Q49349858",
        "type": "CITY",
        "city": "Estancias de Florida",
        "name": "Estancias de Florida",
        "latitude": 18.366666666,
        "longitude": -66.569722222
    },
    {
        "id": 3180148,
        "wikiDataId": "Q542833",
        "type": "CITY",
        "city": "Fajardo",
        "name": "Fajardo",
        "latitude": 18.32579,
        "longitude": -65.65238
    },
    {
        "id": 3180111,
        "wikiDataId": "Q33672676",
        "type": "ADM2",
        "city": "Fajardo Municipio",
        "name": "Fajardo Municipio",
        "latitude": 18.31051,
        "longitude": -65.676
    },
    {
        "id": 3180341,
        "wikiDataId": "Q2271950",
        "type": "CITY",
        "city": "Florida",
        "name": "Florida",
        "latitude": 18.364953,
        "longitude": -66.566161
    },
    {
        "id": 3180112,
        "wikiDataId": "Q49350514",
        "type": "CITY",
        "city": "Franquez",
        "name": "Franquez",
        "latitude": 18.340277777,
        "longitude": -66.427777777
    },
    {
        "id": 3180258,
        "wikiDataId": "Q49350633",
        "type": "CITY",
        "city": "Fuig",
        "name": "Fuig",
        "latitude": 17.987777777,
        "longitude": -66.916111111
    },
    {
        "id": 3180159,
        "wikiDataId": "Q49350739",
        "type": "CITY",
        "city": "G. L. Garcia",
        "name": "G. L. Garcia",
        "latitude": 18.1275,
        "longitude": -66.104166666
    },
    {
        "id": 3180170,
        "wikiDataId": "Q49350804",
        "type": "CITY",
        "city": "Galateo",
        "name": "Galateo",
        "latitude": 18.3625,
        "longitude": -66.258888888
    },
    {
        "id": 3180171,
        "wikiDataId": "Q49350991",
        "type": "CITY",
        "city": "Garrochales",
        "name": "Garrochales",
        "latitude": 18.453611111,
        "longitude": -66.566388888
    },
    {
        "id": 3180399,
        "wikiDataId": "Q49352637",
        "type": "CITY",
        "city": "Guayabal",
        "name": "Guayabal",
        "latitude": 18.081388888,
        "longitude": -66.501388888
    },
    {
        "id": 3180401,
        "wikiDataId": "Q1870997",
        "type": "CITY",
        "city": "Guayama",
        "name": "Guayama",
        "latitude": 17.993611111,
        "longitude": -66.130833333
    },
    {
        "id": 3180122,
        "wikiDataId": "Q33677806",
        "type": "ADM2",
        "city": "Guayama Municipio",
        "name": "Guayama Municipio",
        "latitude": 18.01663,
        "longitude": -66.13072
    },
    {
        "id": 3180133,
        "wikiDataId": "Q2333093",
        "type": "CITY",
        "city": "Guayanilla",
        "name": "Guayanilla",
        "latitude": 18.019166666,
        "longitude": -66.791944444
    },
    {
        "id": 3180329,
        "wikiDataId": "Q590060",
        "type": "CITY",
        "city": "Guaynabo",
        "name": "Guaynabo",
        "latitude": 18.366666666,
        "longitude": -66.1
    },
    {
        "id": 3180106,
        "wikiDataId": "Q2159630",
        "type": "CITY",
        "city": "Gurabo",
        "name": "Gurabo",
        "latitude": 18.2544,
        "longitude": -65.97294
    },
    {
        "id": 3180392,
        "wikiDataId": "Q33677990",
        "type": "ADM2",
        "city": "Gurabo Municipio",
        "name": "Gurabo Municipio",
        "latitude": 18.27162,
        "longitude": -65.97183
    },
    {
        "id": 3180157,
        "wikiDataId": "Q1019645",
        "type": "CITY",
        "city": "Guánica",
        "name": "Guánica",
        "latitude": 17.971666666,
        "longitude": -66.908055555
    },
    {
        "id": 3180240,
        "wikiDataId": "Q33678018",
        "type": "ADM2",
        "city": "Guánica Municipio",
        "name": "Guánica Municipio",
        "latitude": 17.9883,
        "longitude": -66.91212
    },
    {
        "id": 3180396,
        "wikiDataId": "Q49353197",
        "type": "CITY",
        "city": "H. Rivera Colon",
        "name": "H. Rivera Colon",
        "latitude": 18.347777777,
        "longitude": -66.273888888
    },
    {
        "id": 3180370,
        "wikiDataId": "Q2412723",
        "type": "CITY",
        "city": "Hatillo",
        "name": "Hatillo",
        "latitude": 18.48633,
        "longitude": -66.82545
    },
    {
        "id": 3180136,
        "wikiDataId": "Q33679172",
        "type": "ADM2",
        "city": "Hatillo Municipio",
        "name": "Hatillo Municipio",
        "latitude": 18.40773,
        "longitude": -66.79323
    },
    {
        "id": 3180389,
        "wikiDataId": "Q49353499",
        "type": "CITY",
        "city": "Hato Arriba",
        "name": "Hato Arriba",
        "latitude": 18.355833333,
        "longitude": -67.034166666
    },
    {
        "id": 3180372,
        "wikiDataId": "Q49353500",
        "type": "CITY",
        "city": "Hato Candal",
        "name": "Hato Candal",
        "latitude": 18.374444444,
        "longitude": -65.787222222
    },
    {
        "id": 3180275,
        "wikiDataId": "Q2361536",
        "type": "CITY",
        "city": "Hormigueros",
        "name": "Hormigueros",
        "latitude": 18.13968,
        "longitude": -67.1274
    },
    {
        "id": 3180295,
        "wikiDataId": "Q33679620",
        "type": "ADM2",
        "city": "Hormigueros Municipio",
        "name": "Hormigueros Municipio",
        "latitude": 18.14162,
        "longitude": -67.11629
    },
    {
        "id": 3180286,
        "wikiDataId": "Q2307535",
        "type": "CITY",
        "city": "Humacao",
        "name": "Humacao",
        "latitude": 18.149722,
        "longitude": -65.8275
    },
    {
        "id": 3180087,
        "wikiDataId": "Q2347962",
        "type": "ADM2",
        "city": "Humacao",
        "name": "Humacao",
        "latitude": 18.15056,
        "longitude": -65.82389
    },
    {
        "id": 3180137,
        "wikiDataId": "Q49354377",
        "type": "CITY",
        "city": "Imbery",
        "name": "Imbery",
        "latitude": 18.436944444,
        "longitude": -66.5525
    },
    {
        "id": 3180327,
        "wikiDataId": "Q49354436",
        "type": "CITY",
        "city": "Indios",
        "name": "Indios",
        "latitude": 17.994166666,
        "longitude": -66.819444444
    },
    {
        "id": 3180326,
        "wikiDataId": "Q49354445",
        "type": "CITY",
        "city": "Ingenio",
        "name": "Ingenio",
        "latitude": 18.442222222,
        "longitude": -66.226111111
    },
    {
        "id": 3180361,
        "wikiDataId": "Q3802238",
        "type": "CITY",
        "city": "Isabel Segunda",
        "name": "Isabel Segunda",
        "latitude": 18.149166666,
        "longitude": -65.442777777
    },
    {
        "id": 3180365,
        "wikiDataId": "Q2307520",
        "type": "CITY",
        "city": "Isabela",
        "name": "Isabela",
        "latitude": 18.513055555,
        "longitude": -67.07
    },
    {
        "id": 3180135,
        "wikiDataId": "Q49354832",
        "type": "CITY",
        "city": "Jagual",
        "name": "Jagual",
        "latitude": 18.161666666,
        "longitude": -65.995555555
    },
    {
        "id": 3180222,
        "wikiDataId": "Q49355203",
        "type": "CITY",
        "city": "Jauca",
        "name": "Jauca",
        "latitude": 17.969166666,
        "longitude": -66.365833333
    },
    {
        "id": 3180204,
        "wikiDataId": "Q2095818",
        "type": "CITY",
        "city": "Jayuya",
        "name": "Jayuya",
        "latitude": 18.218611,
        "longitude": -66.591667
    },
    {
        "id": 3180281,
        "wikiDataId": "Q49355521",
        "type": "CITY",
        "city": "Jobos",
        "name": "Jobos",
        "latitude": 17.955277777,
        "longitude": -66.165555555
    },
    {
        "id": 3180290,
        "wikiDataId": "Q2361577",
        "type": "CITY",
        "city": "Juana Díaz",
        "name": "Juana Díaz",
        "latitude": 18.05246,
        "longitude": -66.50656
    },
    {
        "id": 3180144,
        "wikiDataId": "Q33682154",
        "type": "ADM2",
        "city": "Juana Díaz Municipio",
        "name": "Juana Díaz Municipio",
        "latitude": 18.04802,
        "longitude": -66.49267
    },
    {
        "id": 3180220,
        "wikiDataId": "Q49355635",
        "type": "CITY",
        "city": "Juncal",
        "name": "Juncal",
        "latitude": 18.313888888,
        "longitude": -66.919166666
    },
    {
        "id": 3180374,
        "wikiDataId": "Q2347667",
        "type": "CITY",
        "city": "Juncos",
        "name": "Juncos",
        "latitude": 18.2275,
        "longitude": -65.921111
    },
    {
        "id": 3180152,
        "wikiDataId": "Q35707315",
        "type": "CITY",
        "city": "La Alianza",
        "name": "La Alianza",
        "latitude": 18.3975,
        "longitude": -66.6025
    },
    {
        "id": 3180336,
        "wikiDataId": "Q1962281",
        "type": "CITY",
        "city": "La Dolores",
        "name": "La Dolores",
        "latitude": 18.375555555,
        "longitude": -65.855833333
    },
    {
        "id": 3180345,
        "wikiDataId": "Q2703185",
        "type": "CITY",
        "city": "La Fermina",
        "name": "La Fermina",
        "latitude": 18.17417,
        "longitude": -65.85139
    },
    {
        "id": 3180317,
        "wikiDataId": "Q35708925",
        "type": "CITY",
        "city": "La Luisa",
        "name": "La Luisa",
        "latitude": 18.448888888,
        "longitude": -66.51
    },
    {
        "id": 3180381,
        "wikiDataId": "Q1833442",
        "type": "CITY",
        "city": "La Parguera",
        "name": "La Parguera",
        "latitude": 17.97497,
        "longitude": -67.04657
    },
    {
        "id": 3180229,
        "wikiDataId": "Q35709294",
        "type": "CITY",
        "city": "La Playa",
        "name": "La Playa",
        "latitude": 18.2875,
        "longitude": -67.186944444
    },
    {
        "id": 3180176,
        "wikiDataId": "Q1824355",
        "type": "CITY",
        "city": "La Plena",
        "name": "La Plena",
        "latitude": 18.04663,
        "longitude": -66.20461
    },
    {
        "id": 3180331,
        "wikiDataId": "Q1832296",
        "type": "CITY",
        "city": "Lajas",
        "name": "Lajas",
        "latitude": 18.051938888,
        "longitude": -67.059719444
    },
    {
        "id": 3180266,
        "wikiDataId": "Q33689042",
        "type": "ADM2",
        "city": "Lajas Municipio",
        "name": "Lajas Municipio",
        "latitude": 18.0133,
        "longitude": -67.0399
    },
    {
        "id": 3180114,
        "wikiDataId": "Q2305796",
        "type": "CITY",
        "city": "Lamboglia",
        "name": "Lamboglia",
        "latitude": 17.98136,
        "longitude": -65.98572
    },
    {
        "id": 3180308,
        "wikiDataId": "Q1026894",
        "type": "CITY",
        "city": "Lares",
        "name": "Lares",
        "latitude": 18.29467,
        "longitude": -66.87712
    },
    {
        "id": 3180255,
        "wikiDataId": "Q35712183",
        "type": "CITY",
        "city": "Las Marias",
        "name": "Las Marias",
        "latitude": 18.293333333,
        "longitude": -67.146388888
    },
    {
        "id": 3180208,
        "wikiDataId": "Q2485590",
        "type": "CITY",
        "city": "Las Marías",
        "name": "Las Marías",
        "latitude": 18.2519,
        "longitude": -66.99212
    },
    {
        "id": 3180218,
        "wikiDataId": "Q33689352",
        "type": "ADM2",
        "city": "Las Marías Municipio",
        "name": "Las Marías Municipio",
        "latitude": 18.25087,
        "longitude": -66.9924
    },
    {
        "id": 3180217,
        "wikiDataId": "Q1864598",
        "type": "CITY",
        "city": "Las Ochenta",
        "name": "Las Ochenta",
        "latitude": 17.98469,
        "longitude": -66.31795
    },
    {
        "id": 3180090,
        "wikiDataId": "Q35712198",
        "type": "CITY",
        "city": "Las Ollas",
        "name": "Las Ollas",
        "latitude": 18.033055555,
        "longitude": -66.424444444
    },
    {
        "id": 3180354,
        "wikiDataId": "Q969918",
        "type": "CITY",
        "city": "Las Piedras",
        "name": "Las Piedras",
        "latitude": 18.18301,
        "longitude": -65.86627
    },
    {
        "id": 3180384,
        "wikiDataId": "Q33689379",
        "type": "ADM2",
        "city": "Las Piedras Municipio",
        "name": "Las Piedras Municipio",
        "latitude": 18.18829,
        "longitude": -65.87044
    },
    {
        "id": 3180261,
        "wikiDataId": "Q2704021",
        "type": "CITY",
        "city": "Levittown",
        "name": "Levittown",
        "latitude": 18.448611111,
        "longitude": -66.180277777
    },
    {
        "id": 3180214,
        "wikiDataId": "Q35716774",
        "type": "CITY",
        "city": "Liborio Negron Torres",
        "name": "Liborio Negron Torres",
        "latitude": 18.043055555,
        "longitude": -66.9425
    },
    {
        "id": 3180226,
        "wikiDataId": "Q35718582",
        "type": "CITY",
        "city": "Lluveras",
        "name": "Lluveras",
        "latitude": 18.038333333,
        "longitude": -66.904722222
    },
    {
        "id": 3180306,
        "wikiDataId": "Q35718974",
        "type": "CITY",
        "city": "Lomas",
        "name": "Lomas",
        "latitude": 18.268611111,
        "longitude": -65.908888888
    },
    {
        "id": 3180187,
        "wikiDataId": "Q35719422",
        "type": "CITY",
        "city": "Los Llanos",
        "name": "Los Llanos",
        "latitude": 18.055277777,
        "longitude": -66.405833333
    },
    {
        "id": 3180314,
        "wikiDataId": "Q49286092",
        "type": "CITY",
        "city": "Loíza",
        "name": "Loíza",
        "latitude": 18.43134,
        "longitude": -65.88016
    },
    {
        "id": 3180332,
        "wikiDataId": "Q1853983",
        "type": "CITY",
        "city": "Loíza",
        "name": "Loíza",
        "latitude": 18.434166666,
        "longitude": -65.892777777
    },
    {
        "id": 3180397,
        "wikiDataId": "Q2777383",
        "type": "CITY",
        "city": "Luis Lloréns Torres",
        "name": "Luis Lloréns Torres",
        "latitude": 18.05691,
        "longitude": -66.52684
    },
    {
        "id": 3180282,
        "wikiDataId": "Q35720963",
        "type": "CITY",
        "city": "Luis M. Cintron",
        "name": "Luis M. Cintron",
        "latitude": 18.299722222,
        "longitude": -65.638611111
    },
    {
        "id": 3180185,
        "wikiDataId": "Q1984618",
        "type": "CITY",
        "city": "Luquillo",
        "name": "Luquillo",
        "latitude": 18.3725,
        "longitude": -65.716666666
    },
    {
        "id": 3180309,
        "wikiDataId": "Q33691744",
        "type": "ADM2",
        "city": "Luquillo Municipio",
        "name": "Luquillo Municipio",
        "latitude": 18.33967,
        "longitude": -65.72461
    },
    {
        "id": 3180391,
        "wikiDataId": "Q35721490",
        "type": "CITY",
        "city": "Luyando",
        "name": "Luyando",
        "latitude": 18.364444444,
        "longitude": -67.1575
    },
    {
        "id": 3180245,
        "wikiDataId": "Q35722423",
        "type": "CITY",
        "city": "Magas Arriba",
        "name": "Magas Arriba",
        "latitude": 18.0175,
        "longitude": -66.769166666
    },
    {
        "id": 3180156,
        "wikiDataId": "Q674599",
        "type": "CITY",
        "city": "Manatí",
        "name": "Manatí",
        "latitude": 18.4325,
        "longitude": -66.484444444
    },
    {
        "id": 3180371,
        "wikiDataId": "Q35724741",
        "type": "CITY",
        "city": "Maria Antonia",
        "name": "Maria Antonia",
        "latitude": 17.978333333,
        "longitude": -66.889444444
    },
    {
        "id": 3180215,
        "wikiDataId": "Q35724772",
        "type": "CITY",
        "city": "Mariano Colón",
        "name": "Mariano Colón",
        "latitude": 18.023333333,
        "longitude": -66.3325
    },
    {
        "id": 3180188,
        "wikiDataId": "Q2624359",
        "type": "CITY",
        "city": "Maricao",
        "name": "Maricao",
        "latitude": 18.180833,
        "longitude": -66.98
    },
    {
        "id": 3180145,
        "wikiDataId": "Q33692558",
        "type": "ADM2",
        "city": "Maricao Municipio",
        "name": "Maricao Municipio",
        "latitude": 18.17301,
        "longitude": -66.94546
    },
    {
        "id": 3180357,
        "wikiDataId": "Q13817223",
        "type": "CITY",
        "city": "Martorell",
        "name": "Martorell",
        "latitude": 18.07472,
        "longitude": -65.89861
    },
    {
        "id": 3180278,
        "wikiDataId": "Q35725607",
        "type": "CITY",
        "city": "Marueño",
        "name": "Marueño",
        "latitude": 18.05772,
        "longitude": -66.65603
    },
    {
        "id": 3180355,
        "wikiDataId": "Q967149",
        "type": "CITY",
        "city": "Maunabo",
        "name": "Maunabo",
        "latitude": 18.00719,
        "longitude": -65.89933
    },
    {
        "id": 3180301,
        "wikiDataId": "Q33692875",
        "type": "ADM2",
        "city": "Maunabo Municipio",
        "name": "Maunabo Municipio",
        "latitude": 18.01691,
        "longitude": -65.92738
    },
    {
        "id": 3180202,
        "wikiDataId": "Q632727",
        "type": "CITY",
        "city": "Mayagüez",
        "name": "Mayagüez",
        "latitude": 18.201111111,
        "longitude": -67.139722222
    },
    {
        "id": 3180225,
        "wikiDataId": "Q35730376",
        "type": "CITY",
        "city": "Miranda",
        "name": "Miranda",
        "latitude": 18.386666666,
        "longitude": -66.383888888
    },
    {
        "id": 3180125,
        "wikiDataId": "Q2288079",
        "type": "CITY",
        "city": "Moca",
        "name": "Moca",
        "latitude": 18.39467,
        "longitude": -67.11324
    },
    {
        "id": 3180194,
        "wikiDataId": "Q33694327",
        "type": "ADM2",
        "city": "Moca Municipio",
        "name": "Moca Municipio",
        "latitude": 18.3855,
        "longitude": -67.08435
    },
    {
        "id": 3180107,
        "wikiDataId": "Q1880027",
        "type": "CITY",
        "city": "Monserrate",
        "name": "Monserrate",
        "latitude": 18.43694,
        "longitude": -66.35639
    },
    {
        "id": 3180161,
        "wikiDataId": "Q35732671",
        "type": "CITY",
        "city": "Monte Grande",
        "name": "Monte Grande",
        "latitude": 18.0875,
        "longitude": -67.1075
    },
    {
        "id": 3180138,
        "wikiDataId": "Q35733615",
        "type": "CITY",
        "city": "Mora",
        "name": "Mora",
        "latitude": 18.463055555,
        "longitude": -67.032777777
    },
    {
        "id": 3180098,
        "wikiDataId": "Q2623982",
        "type": "CITY",
        "city": "Morovis",
        "name": "Morovis",
        "latitude": 18.333333333,
        "longitude": -66.416666666
    },
    {
        "id": 3180340,
        "wikiDataId": "Q35735404",
        "type": "CITY",
        "city": "Mucarabones",
        "name": "Mucarabones",
        "latitude": 18.390833333,
        "longitude": -66.216111111
    },
    {
        "id": 3180250,
        "wikiDataId": "Q2659720",
        "type": "CITY",
        "city": "Naguabo",
        "name": "Naguabo",
        "latitude": 18.219444444,
        "longitude": -65.736666666
    },
    {
        "id": 3180139,
        "wikiDataId": "Q33696459",
        "type": "ADM2",
        "city": "Naguabo Municipio",
        "name": "Naguabo Municipio",
        "latitude": 18.23135,
        "longitude": -65.75988
    },
    {
        "id": 3180321,
        "wikiDataId": "Q2623972",
        "type": "CITY",
        "city": "Naranjito",
        "name": "Naranjito",
        "latitude": 18.300833,
        "longitude": -66.245
    },
    {
        "id": 3180409,
        "wikiDataId": "Q33696655",
        "type": "ADM2",
        "city": "Naranjito Municipio",
        "name": "Naranjito Municipio",
        "latitude": 18.28968,
        "longitude": -66.25517
    },
    {
        "id": 3180093,
        "wikiDataId": "Q49358930",
        "type": "CITY",
        "city": "Olimpo",
        "name": "Olimpo",
        "latitude": 18.001944444,
        "longitude": -66.108333333
    },
    {
        "id": 3180367,
        "wikiDataId": "Q2624345",
        "type": "CITY",
        "city": "Orocovis",
        "name": "Orocovis",
        "latitude": 18.226944,
        "longitude": -66.391111
    },
    {
        "id": 3180227,
        "wikiDataId": "Q33704249",
        "type": "ADM2",
        "city": "Orocovis Municipio",
        "name": "Orocovis Municipio",
        "latitude": 18.21885,
        "longitude": -66.43712
    },
    {
        "id": 3180150,
        "wikiDataId": "Q49359801",
        "type": "CITY",
        "city": "Pajonal",
        "name": "Pajonal",
        "latitude": 18.382222222,
        "longitude": -66.555833333
    },
    {
        "id": 3180219,
        "wikiDataId": "Q49359848",
        "type": "CITY",
        "city": "Palmarejo",
        "name": "Palmarejo",
        "latitude": 18.040277777,
        "longitude": -67.076944444
    },
    {
        "id": 3180163,
        "wikiDataId": "Q49359846",
        "type": "CITY",
        "city": "Palmarejo",
        "name": "Palmarejo",
        "latitude": 18.068055555,
        "longitude": -66.325555555
    },
    {
        "id": 3180356,
        "wikiDataId": "Q49359849",
        "type": "CITY",
        "city": "Palmas",
        "name": "Palmas",
        "latitude": 17.987222222,
        "longitude": -66.025555555
    },
    {
        "id": 3180182,
        "wikiDataId": "Q49359860",
        "type": "CITY",
        "city": "Palmer",
        "name": "Palmer",
        "latitude": 18.370555555,
        "longitude": -65.774166666
    },
    {
        "id": 3180265,
        "wikiDataId": "Q2438070",
        "type": "CITY",
        "city": "Palo Seco",
        "name": "Palo Seco",
        "latitude": 18.00747,
        "longitude": -65.93683
    },
    {
        "id": 3180223,
        "wikiDataId": "Q49359871",
        "type": "CITY",
        "city": "Palomas",
        "name": "Palomas",
        "latitude": 18.013611111,
        "longitude": -66.873333333
    },
    {
        "id": 3180346,
        "wikiDataId": "Q49359869",
        "type": "CITY",
        "city": "Palomas",
        "name": "Palomas",
        "latitude": 18.2325,
        "longitude": -66.256388888
    },
    {
        "id": 3180378,
        "wikiDataId": "Q49359979",
        "type": "CITY",
        "city": "Parcelas La Milagrosa",
        "name": "Parcelas La Milagrosa",
        "latitude": 18.170833333,
        "longitude": -66.188333333
    },
    {
        "id": 3180201,
        "wikiDataId": "Q49359982",
        "type": "CITY",
        "city": "Parcelas Nuevas",
        "name": "Parcelas Nuevas",
        "latitude": 18.140277777,
        "longitude": -66.1725
    },
    {
        "id": 3180121,
        "wikiDataId": "Q49359984",
        "type": "CITY",
        "city": "Parcelas Peñuelas",
        "name": "Parcelas Peñuelas",
        "latitude": 17.998888888,
        "longitude": -66.341388888
    },
    {
        "id": 3180330,
        "wikiDataId": "Q49360128",
        "type": "CITY",
        "city": "Pastos",
        "name": "Pastos",
        "latitude": 18.117777777,
        "longitude": -66.258888888
    },
    {
        "id": 3180164,
        "wikiDataId": "Q2485638",
        "type": "CITY",
        "city": "Patillas",
        "name": "Patillas",
        "latitude": 18.00635,
        "longitude": -66.01572
    },
    {
        "id": 3180368,
        "wikiDataId": "Q33706006",
        "type": "ADM2",
        "city": "Patillas Municipio",
        "name": "Patillas Municipio",
        "latitude": 18.04163,
        "longitude": -66.01766
    },
    {
        "id": 3180284,
        "wikiDataId": "Q49360534",
        "type": "CITY",
        "city": "Peña Pobre",
        "name": "Peña Pobre",
        "latitude": 18.215555555,
        "longitude": -65.822222222
    },
    {
        "id": 3180103,
        "wikiDataId": "Q369880",
        "type": "CITY",
        "city": "Peñuelas",
        "name": "Peñuelas",
        "latitude": 18.059375,
        "longitude": -66.722544
    },
    {
        "id": 3180311,
        "wikiDataId": "Q49360627",
        "type": "CITY",
        "city": "Piedra Gorda",
        "name": "Piedra Gorda",
        "latitude": 18.434166666,
        "longitude": -66.887777777
    },
    {
        "id": 3180362,
        "wikiDataId": "Q49361057",
        "type": "CITY",
        "city": "Playa Fortuna",
        "name": "Playa Fortuna",
        "latitude": 18.379722222,
        "longitude": -65.745277777
    },
    {
        "id": 3180189,
        "wikiDataId": "Q49361060",
        "type": "CITY",
        "city": "Playita",
        "name": "Playita",
        "latitude": 17.960555555,
        "longitude": -66.289722222
    },
    {
        "id": 3180175,
        "wikiDataId": "Q49361061",
        "type": "CITY",
        "city": "Playita",
        "name": "Playita",
        "latitude": 18.044722222,
        "longitude": -65.9075
    },
    {
        "id": 3180190,
        "wikiDataId": "Q49361063",
        "type": "CITY",
        "city": "Playita Cortada",
        "name": "Playita Cortada",
        "latitude": 17.985,
        "longitude": -66.439166666
    },
    {
        "id": 3180091,
        "wikiDataId": "Q49361713",
        "type": "CITY",
        "city": "Pole Ojea",
        "name": "Pole Ojea",
        "latitude": 17.975,
        "longitude": -67.185277777
    },
    {
        "id": 3180394,
        "wikiDataId": "Q864024",
        "type": "CITY",
        "city": "Ponce",
        "name": "Ponce",
        "latitude": 18,
        "longitude": -66.616666666
    },
    {
        "id": 3180172,
        "wikiDataId": "Q49362096",
        "type": "CITY",
        "city": "Potala Pastillo",
        "name": "Potala Pastillo",
        "latitude": 17.991388888,
        "longitude": -66.496666666
    },
    {
        "id": 3180119,
        "wikiDataId": "Q49362748",
        "type": "CITY",
        "city": "Pueblito del Rio",
        "name": "Pueblito del Rio",
        "latitude": 18.228055555,
        "longitude": -65.863055555
    },
    {
        "id": 3180099,
        "wikiDataId": "Q49362755",
        "type": "CITY",
        "city": "Puerto Real",
        "name": "Puerto Real",
        "latitude": 18.075,
        "longitude": -67.187222222
    },
    {
        "id": 3180402,
        "wikiDataId": "Q49362789",
        "type": "CITY",
        "city": "Punta Santiago",
        "name": "Punta Santiago",
        "latitude": 18.166388888,
        "longitude": -65.748333333
    },
    {
        "id": 3180234,
        "wikiDataId": "Q2100260",
        "type": "CITY",
        "city": "Pájaros",
        "name": "Pájaros",
        "latitude": 18.3759206,
        "longitude": -66.186255
    },
    {
        "id": 3180236,
        "wikiDataId": "Q49363033",
        "type": "CITY",
        "city": "Quebrada",
        "name": "Quebrada",
        "latitude": 18.356666666,
        "longitude": -66.832222222
    },
    {
        "id": 3180247,
        "wikiDataId": "Q2057872",
        "type": "CITY",
        "city": "Quebradillas",
        "name": "Quebradillas",
        "latitude": 18.473888888,
        "longitude": -66.938611111
    },
    {
        "id": 3180287,
        "wikiDataId": "Q33709913",
        "type": "ADM2",
        "city": "Quebradillas Municipio",
        "name": "Quebradillas Municipio",
        "latitude": 18.43967,
        "longitude": -66.92462
    },
    {
        "id": 3180243,
        "wikiDataId": "Q49363316",
        "type": "CITY",
        "city": "Rafael Capo",
        "name": "Rafael Capo",
        "latitude": 18.407222222,
        "longitude": -66.782222222
    },
    {
        "id": 3180116,
        "wikiDataId": "Q49363318",
        "type": "CITY",
        "city": "Rafael Gonzalez",
        "name": "Rafael Gonzalez",
        "latitude": 18.4275,
        "longitude": -66.786944444
    },
    {
        "id": 3180228,
        "wikiDataId": "Q49363319",
        "type": "CITY",
        "city": "Rafael Hernandez",
        "name": "Rafael Hernandez",
        "latitude": 18.471388888,
        "longitude": -67.079166666
    },
    {
        "id": 3180296,
        "wikiDataId": "Q49363383",
        "type": "CITY",
        "city": "Ramos",
        "name": "Ramos",
        "latitude": 18.339722222,
        "longitude": -65.712777777
    },
    {
        "id": 3180131,
        "wikiDataId": "Q1815896",
        "type": "CITY",
        "city": "Rincón",
        "name": "Rincón",
        "latitude": 18.34023,
        "longitude": -67.2499
    },
    {
        "id": 3180344,
        "wikiDataId": "Q33711517",
        "type": "ADM2",
        "city": "Rincón Municipio",
        "name": "Rincón Municipio",
        "latitude": 18.33967,
        "longitude": -67.23713
    },
    {
        "id": 3180165,
        "wikiDataId": "Q7335269",
        "type": "CITY",
        "city": "Rio Lajas",
        "name": "Rio Lajas",
        "latitude": 18.3971915,
        "longitude": -66.264539
    },
    {
        "id": 3180320,
        "wikiDataId": "Q49364124",
        "type": "CITY",
        "city": "Rosa Sanchez",
        "name": "Rosa Sanchez",
        "latitude": 18.061666666,
        "longitude": -65.913611111
    },
    {
        "id": 3180132,
        "wikiDataId": "Q49364780",
        "type": "CITY",
        "city": "Río Blanco",
        "name": "Río Blanco",
        "latitude": 18.218333333,
        "longitude": -65.788611111
    },
    {
        "id": 3180153,
        "wikiDataId": "Q49364782",
        "type": "CITY",
        "city": "Río Cañas Abajo",
        "name": "Río Cañas Abajo",
        "latitude": 18.038333333,
        "longitude": -66.467777777
    },
    {
        "id": 3180134,
        "wikiDataId": "Q979996",
        "type": "CITY",
        "city": "Río Grande",
        "name": "Río Grande",
        "latitude": 18.38023,
        "longitude": -65.83127
    },
    {
        "id": 3180299,
        "wikiDataId": "Q33713096",
        "type": "ADM2",
        "city": "Río Grande Municipio",
        "name": "Río Grande Municipio",
        "latitude": 18.34162,
        "longitude": -65.81766
    },
    {
        "id": 3180310,
        "wikiDataId": "Q683206",
        "type": "ADM2",
        "city": "Río Piedras",
        "name": "Río Piedras",
        "latitude": 18.399722222,
        "longitude": -66.05
    },
    {
        "id": 3180154,
        "wikiDataId": "Q49364882",
        "type": "CITY",
        "city": "Sabana",
        "name": "Sabana",
        "latitude": 18.460833333,
        "longitude": -66.358611111
    },
    {
        "id": 3180113,
        "wikiDataId": "Q49364883",
        "type": "CITY",
        "city": "Sabana Eneas",
        "name": "Sabana Eneas",
        "latitude": 18.086111111,
        "longitude": -67.081111111
    },
    {
        "id": 3180126,
        "wikiDataId": "Q2413183",
        "type": "CITY",
        "city": "Sabana Grande",
        "name": "Sabana Grande",
        "latitude": 18.079722222,
        "longitude": -66.960833333
    },
    {
        "id": 3180209,
        "wikiDataId": "Q33713207",
        "type": "ADM2",
        "city": "Sabana Grande Municipio",
        "name": "Sabana Grande Municipio",
        "latitude": 18.09385,
        "longitude": -66.94962
    },
    {
        "id": 3180318,
        "wikiDataId": "Q49364885",
        "type": "CITY",
        "city": "Sabana Hoyos",
        "name": "Sabana Hoyos",
        "latitude": 18.433888888,
        "longitude": -66.613888888
    },
    {
        "id": 3180183,
        "wikiDataId": "Q49364886",
        "type": "CITY",
        "city": "Sabana Seca",
        "name": "Sabana Seca",
        "latitude": 18.426944444,
        "longitude": -66.184722222
    },
    {
        "id": 3180339,
        "wikiDataId": "Q637330",
        "type": "CITY",
        "city": "Salinas",
        "name": "Salinas",
        "latitude": 18.01746,
        "longitude": -66.25378
    },
    {
        "id": 3180297,
        "wikiDataId": "Q49366856",
        "type": "CITY",
        "city": "San Antonio",
        "name": "San Antonio",
        "latitude": 18.451666666,
        "longitude": -66.949722222
    },
    {
        "id": 3180347,
        "wikiDataId": "Q7413299",
        "type": "CITY",
        "city": "San Antonio",
        "name": "San Antonio",
        "latitude": 18.4467633,
        "longitude": -66.300182
    },
    {
        "id": 3180303,
        "wikiDataId": "Q49366854",
        "type": "CITY",
        "city": "San Antonio",
        "name": "San Antonio",
        "latitude": 18.492222222,
        "longitude": -67.098611111
    },
    {
        "id": 3180257,
        "wikiDataId": "Q33713968",
        "type": "ADM2",
        "city": "San Germán Municipio",
        "name": "San Germán Municipio",
        "latitude": 18.11468,
        "longitude": -67.03573
    },
    {
        "id": 3180151,
        "wikiDataId": "Q49366869",
        "type": "CITY",
        "city": "San Isidro",
        "name": "San Isidro",
        "latitude": 18.392222222,
        "longitude": -65.885555555
    },
    {
        "id": 3180142,
        "wikiDataId": "Q49366883",
        "type": "CITY",
        "city": "San José",
        "name": "San José",
        "latitude": 18.398333333,
        "longitude": -66.255833333
    },
    {
        "id": 3180180,
        "wikiDataId": "Q41211",
        "type": "CITY",
        "city": "San Juan",
        "name": "San Juan",
        "latitude": 18.45,
        "longitude": -66.066666666
    },
    {
        "id": 3180166,
        "wikiDataId": "Q33714047",
        "type": "ADM2",
        "city": "San Juan",
        "name": "San Juan",
        "latitude": 18.45095,
        "longitude": -66.09169
    },
    {
        "id": 3180109,
        "wikiDataId": "Q788749",
        "type": "CITY",
        "city": "San Lorenzo",
        "name": "San Lorenzo",
        "latitude": 18.189889,
        "longitude": -65.968694
    },
    {
        "id": 3183445,
        "wikiDataId": "Q2413209",
        "type": "CITY",
        "city": "San Sebastián",
        "name": "San Sebastián",
        "latitude": 18.337222222,
        "longitude": -66.990555555
    },
    {
        "id": 3180238,
        "wikiDataId": "Q49366994",
        "type": "CITY",
        "city": "Santa Barbara",
        "name": "Santa Barbara",
        "latitude": 18.393611111,
        "longitude": -65.918888888
    },
    {
        "id": 3180293,
        "wikiDataId": "Q49366996",
        "type": "CITY",
        "city": "Santa Clara",
        "name": "Santa Clara",
        "latitude": 18.218611111,
        "longitude": -66.128888888
    },
    {
        "id": 3180231,
        "wikiDataId": "Q2485604",
        "type": "CITY",
        "city": "Santa Isabel",
        "name": "Santa Isabel",
        "latitude": 17.966111,
        "longitude": -66.405
    },
    {
        "id": 3180411,
        "wikiDataId": "Q33714607",
        "type": "ADM2",
        "city": "Santa Isabel Municipio",
        "name": "Santa Isabel Municipio",
        "latitude": 17.99663,
        "longitude": -66.38711
    },
    {
        "id": 3180094,
        "wikiDataId": "Q49367035",
        "type": "CITY",
        "city": "Santo Domingo",
        "name": "Santo Domingo",
        "latitude": 18.063333333,
        "longitude": -66.7525
    },
    {
        "id": 3180203,
        "wikiDataId": "Q511729",
        "type": "CITY",
        "city": "Santurce",
        "name": "Santurce",
        "latitude": 18.440833333,
        "longitude": -66.047222222
    },
    {
        "id": 3180115,
        "wikiDataId": "Q33495699",
        "type": "CITY",
        "city": "Stella",
        "name": "Stella",
        "latitude": 18.321944444,
        "longitude": -67.246944444
    },
    {
        "id": 3180363,
        "wikiDataId": "Q33499480",
        "type": "CITY",
        "city": "Sumidero",
        "name": "Sumidero",
        "latitude": 18.218611111,
        "longitude": -66.128888888
    },
    {
        "id": 3180088,
        "wikiDataId": "Q33499841",
        "type": "CITY",
        "city": "Suárez",
        "name": "Suárez",
        "latitude": 18.430277777,
        "longitude": -65.853611111
    },
    {
        "id": 3180262,
        "wikiDataId": "Q33504969",
        "type": "CITY",
        "city": "Tallaboa",
        "name": "Tallaboa",
        "latitude": 17.995,
        "longitude": -66.716388888
    },
    {
        "id": 3180390,
        "wikiDataId": "Q33504983",
        "type": "CITY",
        "city": "Tallaboa Alta",
        "name": "Tallaboa Alta",
        "latitude": 18.051111111,
        "longitude": -66.700277777
    },
    {
        "id": 3180408,
        "wikiDataId": "Q33506486",
        "type": "CITY",
        "city": "Tiburones",
        "name": "Tiburones",
        "latitude": 18.431666666,
        "longitude": -66.580833333
    },
    {
        "id": 3180149,
        "wikiDataId": "Q9087614",
        "type": "ADM2",
        "city": "Tierras Nuevas Poniente",
        "name": "Tierras Nuevas Poniente",
        "latitude": 18.46189,
        "longitude": -66.4885
    },
    {
        "id": 3180104,
        "wikiDataId": "Q2485509",
        "type": "CITY",
        "city": "Toa Alta",
        "name": "Toa Alta",
        "latitude": 18.38828,
        "longitude": -66.24822
    },
    {
        "id": 3180333,
        "wikiDataId": "Q33721399",
        "type": "ADM2",
        "city": "Toa Alta Municipio",
        "name": "Toa Alta Municipio",
        "latitude": 18.36606,
        "longitude": -66.25378
    },
    {
        "id": 3180212,
        "wikiDataId": "Q2238070",
        "type": "CITY",
        "city": "Toa Baja",
        "name": "Toa Baja",
        "latitude": 18.443889,
        "longitude": -66.259722
    },
    {
        "id": 3180224,
        "wikiDataId": "Q1150895",
        "type": "CITY",
        "city": "Trujillo Alto",
        "name": "Trujillo Alto",
        "latitude": 18.362778,
        "longitude": -66.0175
    },
    {
        "id": 3180239,
        "wikiDataId": "Q33722059",
        "type": "ADM2",
        "city": "Trujillo Alto Municipio",
        "name": "Trujillo Alto Municipio",
        "latitude": 18.34162,
        "longitude": -66.00517
    },
    {
        "id": 3180348,
        "wikiDataId": "Q617096",
        "type": "CITY",
        "city": "Utuado",
        "name": "Utuado",
        "latitude": 18.27301,
        "longitude": -66.69962
    },
    {
        "id": 3180127,
        "wikiDataId": "Q6158238",
        "type": "ADM2",
        "city": "Utuado barrio-pueblo",
        "name": "Utuado barrio-pueblo",
        "latitude": 18.2658,
        "longitude": -66.7064
    },
    {
        "id": 3180375,
        "wikiDataId": "Q2640843",
        "type": "CITY",
        "city": "Vega Alta",
        "name": "Vega Alta",
        "latitude": 18.41217,
        "longitude": -66.33128
    },
    {
        "id": 3180117,
        "wikiDataId": "Q33723879",
        "type": "ADM2",
        "city": "Vega Alta Municipio",
        "name": "Vega Alta Municipio",
        "latitude": 18.4105,
        "longitude": -66.33295
    },
    {
        "id": 3180271,
        "wikiDataId": "Q2179051",
        "type": "CITY",
        "city": "Vega Baja",
        "name": "Vega Baja",
        "latitude": 18.446111111,
        "longitude": -66.3875
    },
    {
        "id": 3180395,
        "wikiDataId": "Q33511749",
        "type": "CITY",
        "city": "Vieques",
        "name": "Vieques",
        "latitude": 18.425,
        "longitude": -65.833055555
    },
    {
        "id": 3180338,
        "wikiDataId": "Q33724199",
        "type": "ADM2",
        "city": "Vieques Municipality",
        "name": "Vieques Municipality",
        "latitude": 18.12913,
        "longitude": -65.4371
    },
    {
        "id": 3180288,
        "wikiDataId": "Q2192472",
        "type": "CITY",
        "city": "Villalba",
        "name": "Villalba",
        "latitude": 18.127222,
        "longitude": -66.492222
    },
    {
        "id": 3180315,
        "wikiDataId": "Q33724528",
        "type": "ADM2",
        "city": "Villalba Municipio",
        "name": "Villalba Municipio",
        "latitude": 18.12913,
        "longitude": -66.47739
    },
    {
        "id": 3180198,
        "wikiDataId": "Q33512648",
        "type": "CITY",
        "city": "Vázquez",
        "name": "Vázquez",
        "latitude": 18.065833333,
        "longitude": -66.238611111
    },
    {
        "id": 3180385,
        "wikiDataId": "Q2361097",
        "type": "CITY",
        "city": "Yabucoa",
        "name": "Yabucoa",
        "latitude": 18.05052,
        "longitude": -65.87933
    },
    {
        "id": 3180405,
        "wikiDataId": "Q33727174",
        "type": "ADM2",
        "city": "Yabucoa Municipio",
        "name": "Yabucoa Municipio",
        "latitude": 18.07302,
        "longitude": -65.88711
    },
    {
        "id": 3180382,
        "wikiDataId": "Q368526",
        "type": "CITY",
        "city": "Yauco",
        "name": "Yauco",
        "latitude": 18.036944444,
        "longitude": -66.850277777
    },
    {
        "id": 3180373,
        "wikiDataId": "Q2798277",
        "type": "CITY",
        "city": "Yauco",
        "name": "Yauco",
        "latitude": 18.03556,
        "longitude": -66.85722
    },
    {
        "id": 3180264,
        "wikiDataId": "Q33523129",
        "type": "CITY",
        "city": "Yaurel",
        "name": "Yaurel",
        "latitude": 18.026944444,
        "longitude": -66.057222222
    }
]
