[
    {
        "id": 134747,
        "wikiDataId": "Q1646965",
        "type": "CITY",
        "city": "Amajari",
        "name": "Amajari",
        "latitude": 3.654166666,
        "longitude": -61.416944444
    },
    {
        "id": 9043,
        "wikiDataId": "Q181056",
        "type": "CITY",
        "city": "Boa Vista",
        "name": "Boa Vista",
        "latitude": 2.82,
        "longitude": -60.671944444
    },
    {
        "id": 134956,
        "wikiDataId": "Q1763254",
        "type": "CITY",
        "city": "Bonfim",
        "name": "Bonfim",
        "latitude": 3.36,
        "longitude": -59.832777777
    },
    {
        "id": 134885,
        "wikiDataId": "Q1646914",
        "type": "CITY",
        "city": "Cantá",
        "name": "Cantá",
        "latitude": 2.61,
        "longitude": -60.596944444
    },
    {
        "id": 139455,
        "wikiDataId": "Q772563",
        "type": "CITY",
        "city": "Caracaraí",
        "name": "Caracaraí",
        "latitude": 1.815833333,
        "longitude": -61.127777777
    },
    {
        "id": 134519,
        "wikiDataId": "Q748315",
        "type": "CITY",
        "city": "Caroebe",
        "name": "Caroebe",
        "latitude": 0.883888888,
        "longitude": -59.695833333
    },
    {
        "id": 139484,
        "wikiDataId": "Q1786374",
        "type": "CITY",
        "city": "Iracema",
        "name": "Iracema",
        "latitude": 2.181944444,
        "longitude": -61.040833333
    },
    {
        "id": 135123,
        "wikiDataId": "Q1637423",
        "type": "CITY",
        "city": "Mucajaí",
        "name": "Mucajaí",
        "latitude": 2.43,
        "longitude": -60.9
    },
    {
        "id": 135383,
        "wikiDataId": "Q1750038",
        "type": "CITY",
        "city": "Normandia",
        "name": "Normandia",
        "latitude": 3.880833333,
        "longitude": -59.622777777
    },
    {
        "id": 134644,
        "wikiDataId": "Q1647045",
        "type": "CITY",
        "city": "Pacaraima",
        "name": "Pacaraima",
        "latitude": 4.430833333,
        "longitude": -61.145833333
    },
    {
        "id": 139599,
        "wikiDataId": "Q1646932",
        "type": "CITY",
        "city": "Rorainópolis",
        "name": "Rorainópolis",
        "latitude": 0.945833333,
        "longitude": -60.417777777
    },
    {
        "id": 134624,
        "wikiDataId": "Q1646960",
        "type": "CITY",
        "city": "São João da Baliza",
        "name": "São João da Baliza",
        "latitude": 0.950833333,
        "longitude": -59.910833333
    },
    {
        "id": 135052,
        "wikiDataId": "Q1751337",
        "type": "CITY",
        "city": "São Luís",
        "name": "São Luís",
        "latitude": 1.005,
        "longitude": -60.158888888
    },
    {
        "id": 134857,
        "wikiDataId": "Q1637434",
        "type": "CITY",
        "city": "Uiramutã",
        "name": "Uiramutã",
        "latitude": 4.595833333,
        "longitude": -60.167777777
    }
]
