[
    {
        "id": 57567,
        "wikiDataId": "Q584907",
        "type": "CITY",
        "city": "Ahmedpur",
        "name": "Ahmedpur",
        "latitude": 23.83009,
        "longitude": 87.68661
    },
    {
        "id": 57322,
        "wikiDataId": "Q585675",
        "type": "CITY",
        "city": "Aistala",
        "name": "Aistala",
        "latitude": 23.18,
        "longitude": 88.58
    },
    {
        "id": 3131459,
        "wikiDataId": "Q4701468",
        "type": "CITY",
        "city": "Aknapur",
        "name": "Aknapur",
        "latitude": 18.385763888,
        "longitude": 77.272252777
    },
    {
        "id": 148074,
        "type": "ADM2",
        "city": "Alipurduar",
        "name": "Alipurduar",
        "latitude": 26.49136,
        "longitude": 89.52796
    },
    {
        "id": 56923,
        "type": "CITY",
        "city": "Alīpur Duār",
        "name": "Alīpur Duār",
        "latitude": 26.4835,
        "longitude": 89.52286
    },
    {
        "id": 56963,
        "wikiDataId": "Q25247439",
        "type": "CITY",
        "city": "Amta",
        "name": "Amta",
        "latitude": 22.57333333,
        "longitude": 88.01611111
    },
    {
        "id": 56931,
        "wikiDataId": "Q388212",
        "type": "CITY",
        "city": "Amtala",
        "name": "Amtala",
        "latitude": 22.22,
        "longitude": 88.17
    },
    {
        "id": 3155681,
        "wikiDataId": "Q766990",
        "type": "CITY",
        "city": "Andal",
        "name": "Andal",
        "latitude": 23.6,
        "longitude": 87.2
    },
    {
        "id": 57491,
        "wikiDataId": "Q4783988",
        "type": "ADM2",
        "city": "Arambagh community development block",
        "name": "Arambagh community development block",
        "latitude": 22.88,
        "longitude": 87.78
    },
    {
        "id": 57345,
        "wikiDataId": "Q202139",
        "type": "CITY",
        "city": "Asansol",
        "name": "Asansol",
        "latitude": 23.683333333,
        "longitude": 86.966666666
    },
    {
        "id": 57328,
        "wikiDataId": "Q583568",
        "type": "CITY",
        "city": "Ashoknagar Kalyangarh",
        "name": "Ashoknagar Kalyangarh",
        "latitude": 22.833,
        "longitude": 88.633
    },
    {
        "id": 2997930,
        "wikiDataId": "Q4840991",
        "type": "CITY",
        "city": "Badkulla",
        "name": "Badkulla",
        "latitude": 23.28,
        "longitude": 88.53
    },
    {
        "id": 57026,
        "wikiDataId": "Q585014",
        "type": "CITY",
        "city": "Baduria",
        "name": "Baduria",
        "latitude": 22.74,
        "longitude": 88.79
    },
    {
        "id": 57315,
        "wikiDataId": "Q4841529",
        "type": "CITY",
        "city": "Bagdogra",
        "name": "Bagdogra",
        "latitude": 26.699804,
        "longitude": 88.319392
    },
    {
        "id": 57559,
        "wikiDataId": "Q627013",
        "type": "CITY",
        "city": "Bagnan",
        "name": "Bagnan",
        "latitude": 22.47,
        "longitude": 87.97
    },
    {
        "id": 57327,
        "wikiDataId": "Q4842168",
        "type": "CITY",
        "city": "Bagula",
        "name": "Bagula",
        "latitude": 23.335,
        "longitude": 88.644
    },
    {
        "id": 57301,
        "wikiDataId": "Q627065",
        "type": "CITY",
        "city": "Bahula",
        "name": "Bahula",
        "latitude": 23.657419,
        "longitude": 87.195974
    },
    {
        "id": 57404,
        "wikiDataId": "Q625394",
        "type": "CITY",
        "city": "Baidyabati",
        "name": "Baidyabati",
        "latitude": 22.79,
        "longitude": 88.32
    },
    {
        "id": 57709,
        "wikiDataId": "Q3350684",
        "type": "CITY",
        "city": "Bakreswar",
        "name": "Bakreswar",
        "latitude": 23.8832,
        "longitude": 87.37265
    },
    {
        "id": 56996,
        "type": "CITY",
        "city": "Balarāmpur",
        "name": "Balarāmpur",
        "latitude": 23.09714,
        "longitude": 86.22292
    },
    {
        "id": 57274,
        "wikiDataId": "Q601897",
        "type": "CITY",
        "city": "Bally",
        "name": "Bally",
        "latitude": 22.65,
        "longitude": 88.34
    },
    {
        "id": 57553,
        "wikiDataId": "Q633291",
        "type": "CITY",
        "city": "Balurghat",
        "name": "Balurghat",
        "latitude": 25.216666666,
        "longitude": 88.766666666
    },
    {
        "id": 3093145,
        "wikiDataId": "Q4853295",
        "type": "ADM2",
        "city": "Bamangola community development block",
        "name": "Bamangola community development block",
        "latitude": 25.17,
        "longitude": 88.335
    },
    {
        "id": 3095425,
        "wikiDataId": "Q4854849",
        "type": "CITY",
        "city": "Baneswar",
        "name": "Baneswar",
        "latitude": 26.65,
        "longitude": 89.816666666
    },
    {
        "id": 56943,
        "wikiDataId": "Q622612",
        "type": "CITY",
        "city": "Bangaon",
        "name": "Bangaon",
        "latitude": 23.07,
        "longitude": 88.82
    },
    {
        "id": 57019,
        "wikiDataId": "Q637079",
        "type": "CITY",
        "city": "Bankra",
        "name": "Bankra",
        "latitude": 22.63,
        "longitude": 88.3
    },
    {
        "id": 57232,
        "wikiDataId": "Q1949030",
        "type": "CITY",
        "city": "Bankura",
        "name": "Bankura",
        "latitude": 23.25,
        "longitude": 87.066666666
    },
    {
        "id": 57243,
        "wikiDataId": "Q622607",
        "type": "CITY",
        "city": "Bansberia",
        "name": "Bansberia",
        "latitude": 22.97,
        "longitude": 88.4
    },
    {
        "id": 2995174,
        "wikiDataId": "Q4857141",
        "type": "ADM2",
        "city": "Bansihari community development block",
        "name": "Bansihari community development block",
        "latitude": 25.4,
        "longitude": 88.4167
    },
    {
        "id": 57046,
        "wikiDataId": "Q637804",
        "type": "CITY",
        "city": "Barabazar",
        "name": "Barabazar",
        "latitude": 23.36,
        "longitude": 86.65
    },
    {
        "id": 57510,
        "wikiDataId": "Q712504",
        "type": "CITY",
        "city": "Baranagar",
        "name": "Baranagar",
        "latitude": 22.64,
        "longitude": 88.37
    },
    {
        "id": 57239,
        "wikiDataId": "Q685315",
        "type": "CITY",
        "city": "Barasat",
        "name": "Barasat",
        "latitude": 22.233333333,
        "longitude": 88.45
    },
    {
        "id": 147699,
        "wikiDataId": "Q709267",
        "type": "CITY",
        "city": "Bardhaman",
        "name": "Bardhaman",
        "latitude": 23.25,
        "longitude": 87.85
    },
    {
        "id": 57438,
        "wikiDataId": "Q712475",
        "type": "CITY",
        "city": "Barjora",
        "name": "Barjora",
        "latitude": 23.433333333,
        "longitude": 87.283333333
    },
    {
        "id": 57233,
        "wikiDataId": "Q709298",
        "type": "CITY",
        "city": "Barrackpore",
        "name": "Barrackpore",
        "latitude": 22.75,
        "longitude": 88.36666667
    },
    {
        "id": 57082,
        "wikiDataId": "Q708616",
        "type": "CITY",
        "city": "Baruipur",
        "name": "Baruipur",
        "latitude": 22.35,
        "longitude": 88.44
    },
    {
        "id": 3042892,
        "wikiDataId": "Q4866245",
        "type": "CITY",
        "city": "Basanti",
        "name": "Basanti",
        "latitude": 22.1891534,
        "longitude": 88.6705685
    },
    {
        "id": 2968553,
        "wikiDataId": "Q712515",
        "type": "CITY",
        "city": "Basirhat",
        "name": "Basirhat",
        "latitude": 22.657222222,
        "longitude": 88.894166666
    },
    {
        "id": 57079,
        "wikiDataId": "Q757843",
        "type": "CITY",
        "city": "Begampur",
        "name": "Begampur",
        "latitude": 22.74,
        "longitude": 88.24
    },
    {
        "id": 3009166,
        "wikiDataId": "Q4882099",
        "type": "CITY",
        "city": "Belda",
        "name": "Belda",
        "latitude": 22.08,
        "longitude": 87.35
    },
    {
        "id": 57210,
        "wikiDataId": "Q2341938",
        "type": "CITY",
        "city": "Beldanga",
        "name": "Beldanga",
        "latitude": 23.93,
        "longitude": 88.25
    },
    {
        "id": 57207,
        "wikiDataId": "Q759158",
        "type": "CITY",
        "city": "Beliatore",
        "name": "Beliatore",
        "latitude": 23.333333333,
        "longitude": 87.216666666
    },
    {
        "id": 57378,
        "wikiDataId": "Q633530",
        "type": "CITY",
        "city": "Berhampore",
        "name": "Berhampore",
        "latitude": 24.1,
        "longitude": 88.25
    },
    {
        "id": 57671,
        "wikiDataId": "Q2453308",
        "type": "CITY",
        "city": "Bhadreswar",
        "name": "Bhadreswar",
        "latitude": 22.82,
        "longitude": 88.35
    },
    {
        "id": 57107,
        "wikiDataId": "Q759149",
        "type": "CITY",
        "city": "Bhandardaha",
        "name": "Bhandardaha",
        "latitude": 22.62,
        "longitude": 88.21
    },
    {
        "id": 57197,
        "wikiDataId": "Q854914",
        "type": "CITY",
        "city": "Bhatpara",
        "name": "Bhatpara",
        "latitude": 22.866666666,
        "longitude": 88.416666666
    },
    {
        "id": 147692,
        "wikiDataId": "Q2088440",
        "type": "ADM2",
        "city": "Birbhum district",
        "name": "Birbhum district",
        "latitude": 24,
        "longitude": 87.58333
    },
    {
        "id": 57625,
        "wikiDataId": "Q4916936",
        "type": "CITY",
        "city": "Birpara",
        "name": "Birpara",
        "latitude": 26.5,
        "longitude": 89.5
    },
    {
        "id": 56626,
        "wikiDataId": "Q3640429",
        "type": "CITY",
        "city": "Bishnupur",
        "name": "Bishnupur",
        "latitude": 22.38,
        "longitude": 88.27
    },
    {
        "id": 3067987,
        "wikiDataId": "Q26791376",
        "type": "CITY",
        "city": "Bishnupur",
        "name": "Bishnupur",
        "latitude": 23.073888888,
        "longitude": 87.32
    },
    {
        "id": 56106,
        "wikiDataId": "Q858304",
        "type": "CITY",
        "city": "Bolpur",
        "name": "Bolpur",
        "latitude": 23.67,
        "longitude": 87.72
    },
    {
        "id": 56992,
        "wikiDataId": "Q858488",
        "type": "CITY",
        "city": "Budge Budge",
        "name": "Budge Budge",
        "latitude": 22.47,
        "longitude": 88.17
    },
    {
        "id": 57289,
        "type": "CITY",
        "city": "Bāli Chak",
        "name": "Bāli Chak",
        "latitude": 22.36482,
        "longitude": 87.55304
    },
    {
        "id": 57098,
        "type": "CITY",
        "city": "Bāwāli",
        "name": "Bāwāli",
        "latitude": 22.42563,
        "longitude": 88.19336
    },
    {
        "id": 56416,
        "wikiDataId": "Q4886236",
        "type": "CITY",
        "city": "Canning",
        "name": "Canning",
        "latitude": 22.32,
        "longitude": 88.67
    },
    {
        "id": 56950,
        "wikiDataId": "Q857735",
        "type": "CITY",
        "city": "Chakapara",
        "name": "Chakapara",
        "latitude": 22.63,
        "longitude": 88.35
    },
    {
        "id": 3029964,
        "wikiDataId": "Q857581",
        "type": "CITY",
        "city": "Chakdaha",
        "name": "Chakdaha",
        "latitude": 23.08,
        "longitude": 88.52
    },
    {
        "id": 3030754,
        "wikiDataId": "Q5069871",
        "type": "CITY",
        "city": "Champadanga",
        "name": "Champadanga",
        "latitude": 22.83,
        "longitude": 87.96
    },
    {
        "id": 2978676,
        "wikiDataId": "Q857746",
        "type": "CITY",
        "city": "Champdani",
        "name": "Champdani",
        "latitude": 22.8,
        "longitude": 88.37
    },
    {
        "id": 56673,
        "wikiDataId": "Q695591",
        "type": "CITY",
        "city": "Chandannagar",
        "name": "Chandannagar",
        "latitude": 22.866666666,
        "longitude": 88.383333333
    },
    {
        "id": 56710,
        "wikiDataId": "Q859119",
        "type": "CITY",
        "city": "Chandrakona",
        "name": "Chandrakona",
        "latitude": 22.73,
        "longitude": 87.52
    },
    {
        "id": 56043,
        "wikiDataId": "Q277935",
        "type": "CITY",
        "city": "Chittaranjan",
        "name": "Chittaranjan",
        "latitude": 23.87,
        "longitude": 86.87
    },
    {
        "id": 3087778,
        "wikiDataId": "Q5118335",
        "type": "CITY",
        "city": "Churulia",
        "name": "Churulia",
        "latitude": 23.78,
        "longitude": 87.08
    },
    {
        "id": 56113,
        "type": "CITY",
        "city": "Chāmpāhāti",
        "name": "Chāmpāhāti",
        "latitude": 22.40026,
        "longitude": 88.49209
    },
    {
        "id": 57615,
        "wikiDataId": "Q1192104",
        "type": "CITY",
        "city": "Contai",
        "name": "Contai",
        "latitude": 21.78,
        "longitude": 87.75
    },
    {
        "id": 147550,
        "wikiDataId": "Q313640",
        "type": "CITY",
        "city": "Cooch Behar",
        "name": "Cooch Behar",
        "latitude": 26.316666666,
        "longitude": 89.433333333
    },
    {
        "id": 2982797,
        "wikiDataId": "Q675531",
        "type": "CITY",
        "city": "Cossimbazar",
        "name": "Cossimbazar",
        "latitude": 24.12,
        "longitude": 88.28
    },
    {
        "id": 147889,
        "wikiDataId": "Q533839",
        "type": "ADM2",
        "city": "Dakshin Dinajpur district",
        "name": "Dakshin Dinajpur district",
        "latitude": 25.22,
        "longitude": 88.76
    },
    {
        "id": 56023,
        "type": "CITY",
        "city": "Dalkola",
        "name": "Dalkola",
        "latitude": 25.87577,
        "longitude": 87.84009
    },
    {
        "id": 56382,
        "wikiDataId": "Q26789881",
        "type": "CITY",
        "city": "Dam Dam",
        "name": "Dam Dam",
        "latitude": 22.633333333,
        "longitude": 88.422777777
    },
    {
        "id": 56121,
        "wikiDataId": "Q169997",
        "type": "CITY",
        "city": "Darjeeling",
        "name": "Darjeeling",
        "latitude": 27.041666666,
        "longitude": 88.263055555
    },
    {
        "id": 56550,
        "type": "CITY",
        "city": "Daulatpur",
        "name": "Daulatpur",
        "latitude": 25.32605,
        "longitude": 88.32989
    },
    {
        "id": 2988176,
        "wikiDataId": "Q5247818",
        "type": "CITY",
        "city": "Debagram",
        "name": "Debagram",
        "latitude": 23.68333333,
        "longitude": 88.28333333
    },
    {
        "id": 56453,
        "type": "CITY",
        "city": "Debīpur",
        "name": "Debīpur",
        "latitude": 24.25029,
        "longitude": 88.61824
    },
    {
        "id": 3036713,
        "wikiDataId": "Q5268978",
        "type": "ADM2",
        "city": "Dhaniakhali community development block",
        "name": "Dhaniakhali community development block",
        "latitude": 22.97,
        "longitude": 88.1
    },
    {
        "id": 57592,
        "wikiDataId": "Q26792208",
        "type": "CITY",
        "city": "Dhulagari",
        "name": "Dhulagari",
        "latitude": 22.582222222,
        "longitude": 88.171111111
    },
    {
        "id": 56212,
        "wikiDataId": "Q1265617",
        "type": "CITY",
        "city": "Dhulian",
        "name": "Dhulian",
        "latitude": 24.68,
        "longitude": 87.97
    },
    {
        "id": 56213,
        "wikiDataId": "Q1259697",
        "type": "CITY",
        "city": "Dhupguri",
        "name": "Dhupguri",
        "latitude": 26.6,
        "longitude": 89.02
    },
    {
        "id": 55914,
        "wikiDataId": "Q1264213",
        "type": "CITY",
        "city": "Diamond Harbour",
        "name": "Diamond Harbour",
        "latitude": 22.2,
        "longitude": 88.2
    },
    {
        "id": 56200,
        "wikiDataId": "Q5275680",
        "type": "CITY",
        "city": "Digha",
        "name": "Digha",
        "latitude": 21.68,
        "longitude": 87.55
    },
    {
        "id": 56585,
        "wikiDataId": "Q1264946",
        "type": "CITY",
        "city": "Dinhata",
        "name": "Dinhata",
        "latitude": 26.13,
        "longitude": 89.47
    },
    {
        "id": 57181,
        "wikiDataId": "Q677375",
        "type": "CITY",
        "city": "Domjur",
        "name": "Domjur",
        "latitude": 22.64,
        "longitude": 88.22
    },
    {
        "id": 56250,
        "wikiDataId": "Q656516",
        "type": "CITY",
        "city": "Dubrajpur",
        "name": "Dubrajpur",
        "latitude": 23.8,
        "longitude": 87.38
    },
    {
        "id": 56731,
        "wikiDataId": "Q5088",
        "type": "CITY",
        "city": "Durgapur",
        "name": "Durgapur",
        "latitude": 23.55,
        "longitude": 87.32
    },
    {
        "id": 56418,
        "wikiDataId": "Q1525290",
        "type": "CITY",
        "city": "Egra",
        "name": "Egra",
        "latitude": 21.9,
        "longitude": 87.53
    },
    {
        "id": 56252,
        "wikiDataId": "Q1525281",
        "type": "CITY",
        "city": "Falakata",
        "name": "Falakata",
        "latitude": 26.53,
        "longitude": 89.2
    },
    {
        "id": 56376,
        "type": "CITY",
        "city": "Farakka",
        "name": "Farakka",
        "latitude": 24.81667,
        "longitude": 87.9
    },
    {
        "id": 56540,
        "wikiDataId": "Q26789993",
        "type": "CITY",
        "city": "Fort Gloster",
        "name": "Fort Gloster",
        "latitude": 22.504444444,
        "longitude": 88.183333333
    },
    {
        "id": 3043565,
        "wikiDataId": "Q5517019",
        "type": "ADM2",
        "city": "Gaighata community development block",
        "name": "Gaighata community development block",
        "latitude": 22.93,
        "longitude": 88.73
    },
    {
        "id": 56523,
        "wikiDataId": "Q1525244",
        "type": "CITY",
        "city": "Gairkata",
        "name": "Gairkata",
        "latitude": 26.68,
        "longitude": 89.03
    },
    {
        "id": 57458,
        "wikiDataId": "Q19891544",
        "type": "CITY",
        "city": "Gangadharpur",
        "name": "Gangadharpur",
        "latitude": 22.7604,
        "longitude": 88.2218
    },
    {
        "id": 56430,
        "wikiDataId": "Q1656762",
        "type": "CITY",
        "city": "Gangarampur",
        "name": "Gangarampur",
        "latitude": 25.4,
        "longitude": 88.52
    },
    {
        "id": 55942,
        "wikiDataId": "Q26789439",
        "type": "CITY",
        "city": "Garui",
        "name": "Garui",
        "latitude": 22.633333333,
        "longitude": 88.4
    },
    {
        "id": 3039513,
        "wikiDataId": "Q515118",
        "type": "CITY",
        "city": "Garulia",
        "name": "Garulia",
        "latitude": 22.82,
        "longitude": 88.37
    },
    {
        "id": 56524,
        "wikiDataId": "Q1707341",
        "type": "CITY",
        "city": "Ghatal",
        "name": "Ghatal",
        "latitude": 22.67,
        "longitude": 87.72
    },
    {
        "id": 3042461,
        "wikiDataId": "Q5564250",
        "type": "CITY",
        "city": "Giria",
        "name": "Giria",
        "latitude": 24.51666667,
        "longitude": 88.06666667
    },
    {
        "id": 56534,
        "wikiDataId": "Q1707370",
        "type": "CITY",
        "city": "Gobardanga",
        "name": "Gobardanga",
        "latitude": 22.87,
        "longitude": 88.76
    },
    {
        "id": 57537,
        "type": "CITY",
        "city": "Gobindapur",
        "name": "Gobindapur",
        "latitude": 22.59306,
        "longitude": 88.09139
    },
    {
        "id": 3103099,
        "wikiDataId": "Q2733364",
        "type": "CITY",
        "city": "Gopinathpur",
        "name": "Gopinathpur",
        "latitude": 23.22,
        "longitude": 88.15
    },
    {
        "id": 57087,
        "type": "CITY",
        "city": "Gopālpur",
        "name": "Gopālpur",
        "latitude": 22.61845,
        "longitude": 88.75119
    },
    {
        "id": 3074951,
        "wikiDataId": "Q5586957",
        "type": "CITY",
        "city": "Gorubathan",
        "name": "Gorubathan",
        "latitude": 26.97,
        "longitude": 88.7
    },
    {
        "id": 56330,
        "wikiDataId": "Q5587119",
        "type": "CITY",
        "city": "Gosaba",
        "name": "Gosaba",
        "latitude": 22.16,
        "longitude": 88.8
    },
    {
        "id": 3128424,
        "wikiDataId": "Q5587133",
        "type": "CITY",
        "city": "Gosanimari",
        "name": "Gosanimari",
        "latitude": 26.15,
        "longitude": 89.36666667
    },
    {
        "id": 57171,
        "wikiDataId": "Q26792202",
        "type": "CITY",
        "city": "Gurdaha",
        "name": "Gurdaha",
        "latitude": 22.734722222,
        "longitude": 88.759444444
    },
    {
        "id": 56542,
        "wikiDataId": "Q26788928",
        "type": "CITY",
        "city": "Guskhara",
        "name": "Guskhara",
        "latitude": 23.492777777,
        "longitude": 87.734722222
    },
    {
        "id": 56763,
        "wikiDataId": "Q1708439",
        "type": "CITY",
        "city": "Habra",
        "name": "Habra",
        "latitude": 22.83,
        "longitude": 88.63
    },
    {
        "id": 57004,
        "type": "CITY",
        "city": "Haldia",
        "name": "Haldia",
        "latitude": 22.06046,
        "longitude": 88.10975
    },
    {
        "id": 56046,
        "wikiDataId": "Q919568",
        "type": "CITY",
        "city": "Haldibari",
        "name": "Haldibari",
        "latitude": 26.33,
        "longitude": 88.77
    },
    {
        "id": 56249,
        "wikiDataId": "Q1707695",
        "type": "CITY",
        "city": "Halisahar",
        "name": "Halisahar",
        "latitude": 22.95,
        "longitude": 88.42
    },
    {
        "id": 56863,
        "wikiDataId": "Q15223037",
        "type": "CITY",
        "city": "Harindanga",
        "name": "Harindanga",
        "latitude": 22.03333333,
        "longitude": 88.31666667
    },
    {
        "id": 56105,
        "wikiDataId": "Q15223039",
        "type": "CITY",
        "city": "Haringhata",
        "name": "Haringhata",
        "latitude": 22.95,
        "longitude": 88.57
    },
    {
        "id": 57384,
        "type": "CITY",
        "city": "Haripur",
        "name": "Haripur",
        "latitude": 22.93611,
        "longitude": 88.23194
    },
    {
        "id": 56719,
        "wikiDataId": "Q14217868",
        "type": "CITY",
        "city": "Hasimara",
        "name": "Hasimara",
        "latitude": 26.75,
        "longitude": 89.35
    },
    {
        "id": 3112940,
        "wikiDataId": "Q1708886",
        "type": "CITY",
        "city": "Hindusthan Cables Town",
        "name": "Hindusthan Cables Town",
        "latitude": 23.82,
        "longitude": 86.9
    },
    {
        "id": 147595,
        "wikiDataId": "Q548518",
        "type": "ADM2",
        "city": "Hooghly district",
        "name": "Hooghly district",
        "latitude": 22.91,
        "longitude": 88.39
    },
    {
        "id": 147605,
        "wikiDataId": "Q205697",
        "type": "CITY",
        "city": "Howrah",
        "name": "Howrah",
        "latitude": 22.57688,
        "longitude": 88.31857
    },
    {
        "id": 3064905,
        "wikiDataId": "Q15227795",
        "type": "CITY",
        "city": "Ichapur",
        "name": "Ichapur",
        "latitude": 22.80499,
        "longitude": 88.37088
    },
    {
        "id": 3037813,
        "wikiDataId": "Q6026767",
        "type": "ADM2",
        "city": "Indpur community development block",
        "name": "Indpur community development block",
        "latitude": 23.1667,
        "longitude": 86.9333
    },
    {
        "id": 56718,
        "type": "CITY",
        "city": "Ingrāj Bāzār",
        "name": "Ingrāj Bāzār",
        "latitude": 25.00447,
        "longitude": 88.14573
    },
    {
        "id": 56597,
        "wikiDataId": "Q1753900",
        "type": "CITY",
        "city": "Islampur",
        "name": "Islampur",
        "latitude": 26.27,
        "longitude": 88.2
    },
    {
        "id": 57642,
        "wikiDataId": "Q1753775",
        "type": "CITY",
        "city": "Jafarpur",
        "name": "Jafarpur",
        "latitude": 22.32,
        "longitude": 88.23
    },
    {
        "id": 57259,
        "wikiDataId": "Q1026903",
        "type": "CITY",
        "city": "Jaigaon",
        "name": "Jaigaon",
        "latitude": 26.866666666,
        "longitude": 89.383333333
    },
    {
        "id": 147589,
        "wikiDataId": "Q1949125",
        "type": "CITY",
        "city": "Jalpaiguri",
        "name": "Jalpaiguri",
        "latitude": 26.516666666,
        "longitude": 88.733333333
    },
    {
        "id": 56189,
        "wikiDataId": "Q2286850",
        "type": "CITY",
        "city": "Jamuria",
        "name": "Jamuria",
        "latitude": 23.7,
        "longitude": 87.08
    },
    {
        "id": 55988,
        "type": "CITY",
        "city": "Jangipur",
        "name": "Jangipur",
        "latitude": 24.47001,
        "longitude": 88.07659
    },
    {
        "id": 56584,
        "wikiDataId": "Q2330643",
        "type": "CITY",
        "city": "Jaynagar Majilpur",
        "name": "Jaynagar Majilpur",
        "latitude": 22.177222222,
        "longitude": 88.425833333
    },
    {
        "id": 3055678,
        "wikiDataId": "Q6176572",
        "type": "CITY",
        "city": "Jejur",
        "name": "Jejur",
        "latitude": 22.88,
        "longitude": 88.12
    },
    {
        "id": 55955,
        "wikiDataId": "Q26788218",
        "type": "CITY",
        "city": "Jhalida",
        "name": "Jhalida",
        "latitude": 23.36541,
        "longitude": 85.97581
    },
    {
        "id": 56595,
        "wikiDataId": "Q2287060",
        "type": "CITY",
        "city": "Jhargram",
        "name": "Jhargram",
        "latitude": 22.45,
        "longitude": 86.98
    },
    {
        "id": 3010784,
        "wikiDataId": "Q6191068",
        "type": "CITY",
        "city": "Jhilimili",
        "name": "Jhilimili",
        "latitude": 22.8167,
        "longitude": 86.6167
    },
    {
        "id": 3037489,
        "wikiDataId": "Q6349333",
        "type": "CITY",
        "city": "Kakdwip",
        "name": "Kakdwip",
        "latitude": 21.8833,
        "longitude": 88.1833
    },
    {
        "id": 56532,
        "wikiDataId": "Q26788257",
        "type": "CITY",
        "city": "Kalaikunda",
        "name": "Kalaikunda",
        "latitude": 22.339166666,
        "longitude": 87.226388888
    },
    {
        "id": 56753,
        "wikiDataId": "Q2330594",
        "type": "CITY",
        "city": "Kaliaganj",
        "name": "Kaliaganj",
        "latitude": 25.63,
        "longitude": 88.32
    },
    {
        "id": 56500,
        "wikiDataId": "Q500877",
        "type": "CITY",
        "city": "Kalimpong",
        "name": "Kalimpong",
        "latitude": 27.07059,
        "longitude": 88.47529
    },
    {
        "id": 56097,
        "wikiDataId": "Q2733606",
        "type": "CITY",
        "city": "Kalna",
        "name": "Kalna",
        "latitude": 23.22,
        "longitude": 88.37
    },
    {
        "id": 55830,
        "wikiDataId": "Q2734589",
        "type": "CITY",
        "city": "Kalyani",
        "name": "Kalyani",
        "latitude": 22.975,
        "longitude": 88.434444444
    },
    {
        "id": 55900,
        "wikiDataId": "Q68953",
        "type": "CITY",
        "city": "Kamarhati",
        "name": "Kamarhati",
        "latitude": 22.67,
        "longitude": 88.37
    },
    {
        "id": 3051839,
        "wikiDataId": "Q6356067",
        "type": "CITY",
        "city": "Kamarpukur",
        "name": "Kamarpukur",
        "latitude": 22.91,
        "longitude": 87.65
    },
    {
        "id": 55874,
        "wikiDataId": "Q2088474",
        "type": "CITY",
        "city": "Kanchrapara",
        "name": "Kanchrapara",
        "latitude": 22.97,
        "longitude": 88.43
    },
    {
        "id": 55868,
        "wikiDataId": "Q1464395",
        "type": "CITY",
        "city": "Kandi",
        "name": "Kandi",
        "latitude": 23.95,
        "longitude": 88.03
    },
    {
        "id": 56126,
        "wikiDataId": "Q2330631",
        "type": "CITY",
        "city": "Karimpur",
        "name": "Karimpur",
        "latitude": 23.966666666,
        "longitude": 88.616666666
    },
    {
        "id": 55655,
        "wikiDataId": "Q2138465",
        "type": "CITY",
        "city": "Katwa",
        "name": "Katwa",
        "latitude": 23.65,
        "longitude": 88.13
    },
    {
        "id": 54778,
        "wikiDataId": "Q2138474",
        "type": "CITY",
        "city": "Kenda",
        "name": "Kenda",
        "latitude": 23.2,
        "longitude": 86.53
    },
    {
        "id": 57273,
        "wikiDataId": "Q2733584",
        "type": "CITY",
        "city": "Keshabpur",
        "name": "Keshabpur",
        "latitude": 22.97,
        "longitude": 88.26
    },
    {
        "id": 54948,
        "wikiDataId": "Q588477",
        "type": "CITY",
        "city": "Kharagpur",
        "name": "Kharagpur",
        "latitude": 22.330239,
        "longitude": 87.323653
    },
    {
        "id": 55501,
        "wikiDataId": "Q2341768",
        "type": "CITY",
        "city": "Kharar",
        "name": "Kharar",
        "latitude": 22.7,
        "longitude": 87.68
    },
    {
        "id": 3092031,
        "wikiDataId": "Q6400593",
        "type": "CITY",
        "city": "Kharba",
        "name": "Kharba",
        "latitude": 25.42,
        "longitude": 88.07
    },
    {
        "id": 55317,
        "wikiDataId": "Q2120110",
        "type": "CITY",
        "city": "Khardaha",
        "name": "Khardaha",
        "latitude": 22.72,
        "longitude": 88.38
    },
    {
        "id": 55511,
        "wikiDataId": "Q6400935",
        "type": "CITY",
        "city": "Khatra",
        "name": "Khatra",
        "latitude": 22.98,
        "longitude": 86.85
    },
    {
        "id": 3095517,
        "wikiDataId": "Q6415928",
        "type": "CITY",
        "city": "Kirnahar",
        "name": "Kirnahar",
        "latitude": 23.75,
        "longitude": 87.87
    },
    {
        "id": 56557,
        "wikiDataId": "Q1348",
        "type": "CITY",
        "city": "Kolkata",
        "name": "Kolkata",
        "latitude": 22.541111111,
        "longitude": 88.337777777
    },
    {
        "id": 55682,
        "wikiDataId": "Q2235942",
        "type": "CITY",
        "city": "Konnagar",
        "name": "Konnagar",
        "latitude": 22.7,
        "longitude": 88.35
    },
    {
        "id": 55760,
        "wikiDataId": "Q1006338",
        "type": "CITY",
        "city": "Krishnanagar",
        "name": "Krishnanagar",
        "latitude": 23.4,
        "longitude": 88.5
    },
    {
        "id": 56987,
        "wikiDataId": "Q3817017",
        "type": "CITY",
        "city": "Krishnapur",
        "name": "Krishnapur",
        "latitude": 22.67,
        "longitude": 88.26
    },
    {
        "id": 3058432,
        "wikiDataId": "Q2232142",
        "type": "CITY",
        "city": "Kshirpai",
        "name": "Kshirpai",
        "latitude": 22.7109664,
        "longitude": 87.6174038
    },
    {
        "id": 3053298,
        "wikiDataId": "Q6443206",
        "type": "CITY",
        "city": "Kulpi",
        "name": "Kulpi",
        "latitude": 22.08,
        "longitude": 88.24
    },
    {
        "id": 57105,
        "type": "CITY",
        "city": "Kultali",
        "name": "Kultali",
        "latitude": 21.9,
        "longitude": 88.4
    },
    {
        "id": 55767,
        "wikiDataId": "Q256409",
        "type": "CITY",
        "city": "Kulti",
        "name": "Kulti",
        "latitude": 23.73,
        "longitude": 86.85
    },
    {
        "id": 56639,
        "wikiDataId": "Q1025634",
        "type": "CITY",
        "city": "Kurseong",
        "name": "Kurseong",
        "latitude": 26.88,
        "longitude": 88.28
    },
    {
        "id": 3093444,
        "wikiDataId": "Q3826000",
        "type": "CITY",
        "city": "Lalgarh",
        "name": "Lalgarh",
        "latitude": 22.58,
        "longitude": 87.05
    },
    {
        "id": 55489,
        "wikiDataId": "Q6480291",
        "type": "CITY",
        "city": "Lalgola",
        "name": "Lalgola",
        "latitude": 24.42,
        "longitude": 88.25
    },
    {
        "id": 54965,
        "wikiDataId": "Q2238975",
        "type": "CITY",
        "city": "Loyabad",
        "name": "Loyabad",
        "latitude": 23.67,
        "longitude": 86.67
    },
    {
        "id": 55312,
        "wikiDataId": "Q2563863",
        "type": "CITY",
        "city": "Madanpur",
        "name": "Madanpur",
        "latitude": 23.02,
        "longitude": 88.48
    },
    {
        "id": 55468,
        "wikiDataId": "Q2230683",
        "type": "CITY",
        "city": "Madhyamgram",
        "name": "Madhyamgram",
        "latitude": 22.7,
        "longitude": 88.45
    },
    {
        "id": 57636,
        "wikiDataId": "Q2563988",
        "type": "CITY",
        "city": "Mahiari",
        "name": "Mahiari",
        "latitude": 22.59,
        "longitude": 88.24
    },
    {
        "id": 55610,
        "wikiDataId": "Q6734114",
        "type": "ADM2",
        "city": "Mahishadal community development block",
        "name": "Mahishadal community development block",
        "latitude": 22.183333,
        "longitude": 87.983333
    },
    {
        "id": 54932,
        "wikiDataId": "Q587516",
        "type": "CITY",
        "city": "Mainaguri",
        "name": "Mainaguri",
        "latitude": 26.57,
        "longitude": 88.82
    },
    {
        "id": 3064156,
        "wikiDataId": "Q6749631",
        "type": "CITY",
        "city": "Manikpara",
        "name": "Manikpara",
        "latitude": 22.36666667,
        "longitude": 87.11666667
    },
    {
        "id": 57129,
        "type": "CITY",
        "city": "Masila",
        "name": "Masila",
        "latitude": 22.58083,
        "longitude": 88.23278
    },
    {
        "id": 55566,
        "wikiDataId": "Q2453407",
        "type": "CITY",
        "city": "Mathabhanga",
        "name": "Mathabhanga",
        "latitude": 26.34197,
        "longitude": 89.21555
    },
    {
        "id": 3026835,
        "wikiDataId": "Q6787401",
        "type": "ADM2",
        "city": "Matiali community development block",
        "name": "Matiali community development block",
        "latitude": 26.927159,
        "longitude": 88.8133049
    },
    {
        "id": 3067502,
        "wikiDataId": "Q6787438",
        "type": "ADM2",
        "city": "Matigara community development block",
        "name": "Matigara community development block",
        "latitude": 26.716667,
        "longitude": 88.383333
    },
    {
        "id": 55075,
        "wikiDataId": "Q12447537",
        "type": "CITY",
        "city": "Medinipur",
        "name": "Medinipur",
        "latitude": 22.433333333,
        "longitude": 87.333333333
    },
    {
        "id": 3007388,
        "wikiDataId": "Q6810483",
        "type": "ADM2",
        "city": "Mejia community development block",
        "name": "Mejia community development block",
        "latitude": 23.57,
        "longitude": 87.1
    },
    {
        "id": 55634,
        "wikiDataId": "Q2563886",
        "type": "CITY",
        "city": "Memari",
        "name": "Memari",
        "latitude": 23.2,
        "longitude": 88.12
    },
    {
        "id": 55495,
        "wikiDataId": "Q2733296",
        "type": "CITY",
        "city": "Mirik",
        "name": "Mirik",
        "latitude": 26.887,
        "longitude": 88.187
    },
    {
        "id": 3081924,
        "wikiDataId": "Q15254513",
        "type": "ADM2",
        "city": "Mohanpur community development block",
        "name": "Mohanpur community development block",
        "latitude": 21.83856,
        "longitude": 87.43145
    },
    {
        "id": 57659,
        "wikiDataId": "Q1125517",
        "type": "CITY",
        "city": "Monoharpur",
        "name": "Monoharpur",
        "latitude": 22.68,
        "longitude": 88.3
    },
    {
        "id": 55385,
        "type": "CITY",
        "city": "Muragācha",
        "name": "Muragācha",
        "latitude": 23.53631,
        "longitude": 88.39425
    },
    {
        "id": 55140,
        "wikiDataId": "Q1382206",
        "type": "CITY",
        "city": "Muri",
        "name": "Muri",
        "latitude": 23.37,
        "longitude": 85.86
    },
    {
        "id": 55669,
        "wikiDataId": "Q1017175",
        "type": "CITY",
        "city": "Murshidabad",
        "name": "Murshidabad",
        "latitude": 24.18,
        "longitude": 88.27
    },
    {
        "id": 54794,
        "wikiDataId": "Q1006330",
        "type": "CITY",
        "city": "Nabadwip",
        "name": "Nabadwip",
        "latitude": 23.407222222,
        "longitude": 88.377777777
    },
    {
        "id": 57154,
        "wikiDataId": "Q2733965",
        "type": "CITY",
        "city": "Nabagram",
        "name": "Nabagram",
        "latitude": 22.29,
        "longitude": 88.51
    },
    {
        "id": 3100226,
        "wikiDataId": "Q1143880",
        "type": "ADM2",
        "city": "Nadia district",
        "name": "Nadia district",
        "latitude": 23.4,
        "longitude": 88.5
    },
    {
        "id": 57420,
        "wikiDataId": "Q19894359",
        "type": "CITY",
        "city": "Nagarukhra",
        "name": "Nagarukhra",
        "latitude": 22.94099,
        "longitude": 88.63701
    },
    {
        "id": 3093863,
        "wikiDataId": "Q6959043",
        "type": "CITY",
        "city": "Nagrakata",
        "name": "Nagrakata",
        "latitude": 26.9,
        "longitude": 88.9667
    },
    {
        "id": 55071,
        "wikiDataId": "Q68593",
        "type": "CITY",
        "city": "Naihati",
        "name": "Naihati",
        "latitude": 22.9,
        "longitude": 88.42
    },
    {
        "id": 55591,
        "wikiDataId": "Q2572438",
        "type": "CITY",
        "city": "Naksalbari",
        "name": "Naksalbari",
        "latitude": 26.683333333,
        "longitude": 88.216666666
    },
    {
        "id": 55359,
        "wikiDataId": "Q6960882",
        "type": "CITY",
        "city": "Nalhati",
        "name": "Nalhati",
        "latitude": 24.3,
        "longitude": 87.82
    },
    {
        "id": 3080567,
        "wikiDataId": "Q2453396",
        "type": "CITY",
        "city": "Nalpur",
        "name": "Nalpur",
        "latitude": 22.53,
        "longitude": 88.19
    },
    {
        "id": 3063238,
        "wikiDataId": "Q3335474",
        "type": "ADM2",
        "city": "Namkhana community development block",
        "name": "Namkhana community development block",
        "latitude": 21.7,
        "longitude": 88.14
    },
    {
        "id": 3029908,
        "wikiDataId": "Q3595727",
        "type": "CITY",
        "city": "Nandigram",
        "name": "Nandigram",
        "latitude": 22.01,
        "longitude": 87.99
    },
    {
        "id": 57114,
        "wikiDataId": "Q26792206",
        "type": "CITY",
        "city": "Nangi",
        "name": "Nangi",
        "latitude": 22.508333333,
        "longitude": 88.215277777
    },
    {
        "id": 3035591,
        "wikiDataId": "Q6983067",
        "type": "ADM2",
        "city": "Nayagram community development block",
        "name": "Nayagram community development block",
        "latitude": 22.0319,
        "longitude": 87.1781
    },
    {
        "id": 147877,
        "wikiDataId": "Q338425",
        "type": "ADM2",
        "city": "North 24 Parganas district",
        "name": "North 24 Parganas district",
        "latitude": 22.13,
        "longitude": 88.5
    },
    {
        "id": 55053,
        "wikiDataId": "Q26780991",
        "type": "CITY",
        "city": "Odlabari",
        "name": "Odlabari",
        "latitude": 26.836388888,
        "longitude": 88.629444444
    },
    {
        "id": 57342,
        "type": "CITY",
        "city": "Paikpara",
        "name": "Paikpara",
        "latitude": 24.77121,
        "longitude": 87.92251
    },
    {
        "id": 3178906,
        "wikiDataId": "Q7129812",
        "type": "CITY",
        "city": "Panagarh",
        "name": "Panagarh",
        "latitude": 23.45,
        "longitude": 87.43
    },
    {
        "id": 56985,
        "wikiDataId": "Q2733443",
        "type": "CITY",
        "city": "Panchla",
        "name": "Panchla",
        "latitude": 22.54,
        "longitude": 88.14
    },
    {
        "id": 3042388,
        "wikiDataId": "Q7130345",
        "type": "CITY",
        "city": "Panchmura",
        "name": "Panchmura",
        "latitude": 22.9667,
        "longitude": 87.1667
    },
    {
        "id": 55638,
        "wikiDataId": "Q2227534",
        "type": "CITY",
        "city": "Pandua",
        "name": "Pandua",
        "latitude": 23.08,
        "longitude": 88.28
    },
    {
        "id": 55025,
        "wikiDataId": "Q1801463",
        "type": "CITY",
        "city": "Panihati",
        "name": "Panihati",
        "latitude": 22.69,
        "longitude": 88.37
    },
    {
        "id": 3017828,
        "wikiDataId": "Q7131588",
        "type": "CITY",
        "city": "Panskura",
        "name": "Panskura",
        "latitude": 22.42,
        "longitude": 87.7
    },
    {
        "id": 56860,
        "type": "CITY",
        "city": "Parbatipur",
        "name": "Parbatipur",
        "latitude": 22.6625,
        "longitude": 88.22222
    },
    {
        "id": 147906,
        "wikiDataId": "Q1855537",
        "type": "ADM2",
        "city": "Paschim Medinipur district",
        "name": "Paschim Medinipur district",
        "latitude": 22.43333333,
        "longitude": 87.33333333
    },
    {
        "id": 3040090,
        "wikiDataId": "Q15265669",
        "type": "CITY",
        "city": "Patiram",
        "name": "Patiram",
        "latitude": 25.31666667,
        "longitude": 88.75
    },
    {
        "id": 55717,
        "wikiDataId": "Q2733142",
        "type": "CITY",
        "city": "Patuli",
        "name": "Patuli",
        "latitude": 23.55,
        "longitude": 88.25
    },
    {
        "id": 57571,
        "wikiDataId": "Q2228596",
        "type": "CITY",
        "city": "Pujali",
        "name": "Pujali",
        "latitude": 22.47,
        "longitude": 88.15
    },
    {
        "id": 2992379,
        "wikiDataId": "Q7259963",
        "type": "ADM2",
        "city": "Puncha community development block",
        "name": "Puncha community development block",
        "latitude": 23.123,
        "longitude": 86.653
    },
    {
        "id": 147876,
        "wikiDataId": "Q1431920",
        "type": "ADM2",
        "city": "Purba Medinipur district",
        "name": "Purba Medinipur district",
        "latitude": 22.3,
        "longitude": 87.91666667
    },
    {
        "id": 54475,
        "wikiDataId": "Q307442",
        "type": "CITY",
        "city": "Purulia",
        "name": "Purulia",
        "latitude": 23.333333333,
        "longitude": 86.366666666
    },
    {
        "id": 55344,
        "type": "CITY",
        "city": "Pātrasāer",
        "name": "Pātrasāer",
        "latitude": 23.19697,
        "longitude": 87.53319
    },
    {
        "id": 56803,
        "wikiDataId": "Q593506",
        "type": "CITY",
        "city": "Raghudebbati",
        "name": "Raghudebbati",
        "latitude": 22.53,
        "longitude": 88.2
    },
    {
        "id": 54634,
        "wikiDataId": "Q3929423",
        "type": "CITY",
        "city": "Raghunathpur",
        "name": "Raghunathpur",
        "latitude": 23.55,
        "longitude": 86.67
    },
    {
        "id": 54403,
        "wikiDataId": "Q2304045",
        "type": "CITY",
        "city": "Raiganj",
        "name": "Raiganj",
        "latitude": 25.616666666,
        "longitude": 88.116666666
    },
    {
        "id": 54478,
        "wikiDataId": "Q2355927",
        "type": "CITY",
        "city": "Rajmahal",
        "name": "Rajmahal",
        "latitude": 25.05,
        "longitude": 87.84
    },
    {
        "id": 3024060,
        "wikiDataId": "Q7286329",
        "type": "ADM2",
        "city": "Rajnagar community development block",
        "name": "Rajnagar community development block",
        "latitude": 23.9472,
        "longitude": 87.3625
    },
    {
        "id": 57334,
        "wikiDataId": "Q2733129",
        "type": "CITY",
        "city": "Ramchandrapur",
        "name": "Ramchandrapur",
        "latitude": 22.9,
        "longitude": 88.48
    },
    {
        "id": 54075,
        "wikiDataId": "Q2016742",
        "type": "CITY",
        "city": "Ramjibanpur",
        "name": "Ramjibanpur",
        "latitude": 22.83,
        "longitude": 87.62
    },
    {
        "id": 54584,
        "type": "CITY",
        "city": "Rampur Hat",
        "name": "Rampur Hat",
        "latitude": 24.17737,
        "longitude": 87.78275
    },
    {
        "id": 53928,
        "wikiDataId": "Q2036954",
        "type": "CITY",
        "city": "Ranaghat",
        "name": "Ranaghat",
        "latitude": 23.18,
        "longitude": 88.58
    },
    {
        "id": 54751,
        "wikiDataId": "Q2287252",
        "type": "CITY",
        "city": "Raniganj",
        "name": "Raniganj",
        "latitude": 23.62,
        "longitude": 87.13
    },
    {
        "id": 56802,
        "type": "CITY",
        "city": "Raypur",
        "name": "Raypur",
        "latitude": 22.41083,
        "longitude": 88.50944
    },
    {
        "id": 53834,
        "wikiDataId": "Q2453443",
        "type": "CITY",
        "city": "Rishra",
        "name": "Rishra",
        "latitude": 22.71,
        "longitude": 88.35
    },
    {
        "id": 56948,
        "type": "CITY",
        "city": "Rāmnagar",
        "name": "Rāmnagar",
        "latitude": 22.77778,
        "longitude": 88.24639
    },
    {
        "id": 57230,
        "wikiDataId": "Q2733967",
        "type": "CITY",
        "city": "Sahapur",
        "name": "Sahapur",
        "latitude": 22.52,
        "longitude": 88.17
    },
    {
        "id": 53800,
        "wikiDataId": "Q740450",
        "type": "CITY",
        "city": "Sainthia",
        "name": "Sainthia",
        "latitude": 23.95,
        "longitude": 87.67
    },
    {
        "id": 2985622,
        "wikiDataId": "Q7403632",
        "type": "ADM2",
        "city": "Salanpur community development block",
        "name": "Salanpur community development block",
        "latitude": 23.76702,
        "longitude": 86.87492
    },
    {
        "id": 57059,
        "wikiDataId": "Q2560710",
        "type": "CITY",
        "city": "Sankarpur",
        "name": "Sankarpur",
        "latitude": 23.6,
        "longitude": 87.2
    },
    {
        "id": 54355,
        "wikiDataId": "Q2563979",
        "type": "CITY",
        "city": "Sankrail",
        "name": "Sankrail",
        "latitude": 22.57,
        "longitude": 88.24
    },
    {
        "id": 54219,
        "wikiDataId": "Q2035284",
        "type": "CITY",
        "city": "Santipur",
        "name": "Santipur",
        "latitude": 23.25,
        "longitude": 88.43
    },
    {
        "id": 54398,
        "wikiDataId": "Q1321117",
        "type": "CITY",
        "city": "Santoshpur",
        "name": "Santoshpur",
        "latitude": 22.5,
        "longitude": 88.17
    },
    {
        "id": 2998519,
        "wikiDataId": "Q7420728",
        "type": "ADM2",
        "city": "Santuri community development block",
        "name": "Santuri community development block",
        "latitude": 23.5272,
        "longitude": 86.85709
    },
    {
        "id": 2997747,
        "wikiDataId": "Q2560685",
        "type": "CITY",
        "city": "Sarenga",
        "name": "Sarenga",
        "latitude": 22.54,
        "longitude": 88.21
    },
    {
        "id": 53881,
        "wikiDataId": "Q1815367",
        "type": "CITY",
        "city": "Serampore",
        "name": "Serampore",
        "latitude": 22.75,
        "longitude": 88.34
    },
    {
        "id": 57211,
        "wikiDataId": "Q2733670",
        "type": "CITY",
        "city": "Serpur",
        "name": "Serpur",
        "latitude": 24.13,
        "longitude": 88
    },
    {
        "id": 54687,
        "wikiDataId": "Q5285403",
        "type": "CITY",
        "city": "Shyamnagar, West Bengal",
        "name": "Shyamnagar, West Bengal",
        "latitude": 22.83,
        "longitude": 88.37
    },
    {
        "id": 54445,
        "wikiDataId": "Q5087",
        "type": "CITY",
        "city": "Siliguri",
        "name": "Siliguri",
        "latitude": 26.71004,
        "longitude": 88.42851
    },
    {
        "id": 54576,
        "wikiDataId": "Q2718731",
        "type": "CITY",
        "city": "Singur",
        "name": "Singur",
        "latitude": 22.81,
        "longitude": 88.23
    },
    {
        "id": 54079,
        "wikiDataId": "Q26779999",
        "type": "CITY",
        "city": "Sodpur",
        "name": "Sodpur",
        "latitude": 22.704166666,
        "longitude": 88.391666666
    },
    {
        "id": 56843,
        "wikiDataId": "Q26792203",
        "type": "CITY",
        "city": "Solap",
        "name": "Solap",
        "latitude": 22.127777777,
        "longitude": 88.158611111
    },
    {
        "id": 3013847,
        "wikiDataId": "Q7560731",
        "type": "CITY",
        "city": "Sonada",
        "name": "Sonada",
        "latitude": 27,
        "longitude": 88.14
    },
    {
        "id": 54311,
        "wikiDataId": "Q2560660",
        "type": "CITY",
        "city": "Sonamukhi",
        "name": "Sonamukhi",
        "latitude": 23.3,
        "longitude": 87.42
    },
    {
        "id": 3086189,
        "wikiDataId": "Q7560812",
        "type": "ADM2",
        "city": "Sonarpur community development block",
        "name": "Sonarpur community development block",
        "latitude": 22.44259,
        "longitude": 88.43044
    },
    {
        "id": 147894,
        "wikiDataId": "Q2308319",
        "type": "ADM2",
        "city": "South 24 Parganas district",
        "name": "South 24 Parganas district",
        "latitude": 22.16197,
        "longitude": 88.4317
    },
    {
        "id": 2970119,
        "wikiDataId": "Q7586398",
        "type": "CITY",
        "city": "Srikhanda",
        "name": "Srikhanda",
        "latitude": 23.6,
        "longitude": 88.0833
    },
    {
        "id": 57049,
        "wikiDataId": "Q2735433",
        "type": "CITY",
        "city": "Srirampur",
        "name": "Srirampur",
        "latitude": 23.35,
        "longitude": 88.12
    },
    {
        "id": 54275,
        "wikiDataId": "Q2667851",
        "type": "CITY",
        "city": "Suri",
        "name": "Suri",
        "latitude": 23.916666666,
        "longitude": 87.533333333
    },
    {
        "id": 3004390,
        "wikiDataId": "Q7653966",
        "type": "ADM2",
        "city": "Swarupnagar community development block",
        "name": "Swarupnagar community development block",
        "latitude": 22.8333,
        "longitude": 88.8667
    },
    {
        "id": 3051823,
        "wikiDataId": "Q7677534",
        "type": "CITY",
        "city": "Takdah",
        "name": "Takdah",
        "latitude": 27.0333,
        "longitude": 88.3667
    },
    {
        "id": 53822,
        "wikiDataId": "Q3980318",
        "type": "CITY",
        "city": "Taki",
        "name": "Taki",
        "latitude": 22.59,
        "longitude": 88.92
    },
    {
        "id": 54037,
        "wikiDataId": "Q118278",
        "type": "CITY",
        "city": "Tamluk",
        "name": "Tamluk",
        "latitude": 22.3,
        "longitude": 87.916666666
    },
    {
        "id": 54220,
        "wikiDataId": "Q2453287",
        "type": "CITY",
        "city": "Tarakeswar",
        "name": "Tarakeswar",
        "latitude": 22.89,
        "longitude": 88.02
    },
    {
        "id": 54135,
        "wikiDataId": "Q2287264",
        "type": "CITY",
        "city": "Titagarh",
        "name": "Titagarh",
        "latitude": 22.74,
        "longitude": 88.37
    },
    {
        "id": 54149,
        "wikiDataId": "Q2560618",
        "type": "CITY",
        "city": "Tufanganj",
        "name": "Tufanganj",
        "latitude": 26.32,
        "longitude": 89.67
    },
    {
        "id": 2976900,
        "wikiDataId": "Q7852049",
        "type": "CITY",
        "city": "Tulin",
        "name": "Tulin",
        "latitude": 23.37,
        "longitude": 85.9
    },
    {
        "id": 2984021,
        "wikiDataId": "Q7876658",
        "type": "CITY",
        "city": "Uchalan",
        "name": "Uchalan",
        "latitude": 23.0333,
        "longitude": 87.7833
    },
    {
        "id": 57427,
        "type": "CITY",
        "city": "Ula",
        "name": "Ula",
        "latitude": 22.7225,
        "longitude": 88.55556
    },
    {
        "id": 3089788,
        "wikiDataId": "Q2318927",
        "type": "CITY",
        "city": "Uluberia",
        "name": "Uluberia",
        "latitude": 22.47,
        "longitude": 88.11
    },
    {
        "id": 147886,
        "wikiDataId": "Q2019766",
        "type": "ADM2",
        "city": "Uttar Dinajpur district",
        "name": "Uttar Dinajpur district",
        "latitude": 25.62,
        "longitude": 88.12
    },
    {
        "id": 2982454,
        "wikiDataId": "Q2317215",
        "type": "CITY",
        "city": "Uttarpara Kotrung",
        "name": "Uttarpara Kotrung",
        "latitude": 22.67,
        "longitude": 88.35
    },
    {
        "id": 57242,
        "type": "CITY",
        "city": "Āmlāgora",
        "name": "Āmlāgora",
        "latitude": 22.84616,
        "longitude": 87.33559
    }
]
